~Version Information Block
VERS .                 2.00:  CWLS LOG ASCII STANDARD - VERSION 2.00
WRAP .                   NO:  One line per depth step
~Well Information Block
#MNEM.UNIT        Data Type   Information
#---------- ----------------  -----------
STRT .M           390.60120:  START DEPTH
STOP .M          1234.44000:  STOP DEPTH
STEP .M             0.15240:  STEP
NULL .              -999.25:  NULL VALUE
COMP .                     :  COMPANY
WELL .         Resolution-1:  WELL
FLD  .                     :  FIELD
LOC  .                     :  LOCATION
CTRY .                     :  COUNTRY
STAT .                     :  STATE
CNTY .                     :  COUNTY
SRVC .     Shell BP Todd Canterbury Services Ltd:  SERVICE COMPANY
DATE .                     :  DATE
API  .                     :  API NUMBER
UWI  .         100000022150:  UNIQUE WELL ID
LATI .           -44.186126:  LATITUDE
LONG .          172.6362332:  LONGITUDE
~Curve Information Block
#MNEM.UNIT         API CODE   Curve Description
#---------- ----------------  -----------------
DEPTH.M                    :  Measured Depth (MD)
CT   .MH/M                 :  True formation conductivity
FPRESS.PSI                  :  Formation/hydrostatic pressure
FTEMP.DEGC                 :  Formation temperature
HMC_POR.IN                   :  Mudcake from nuclear/porosity
HMC_RES.IN                   :  Mudcake from resistivity/sonic
RM   .OHMM                 :  Mud resistivity
RMC  .OHMM                 :  Mudcake resistivity
RMF  .OHMM                 :  Mud filtrate resistivity
~Parameter Information Block
#MNEM.UNIT            Value   Description
#---------- ----------------  -----------
CUR_INT_BOT.M                1963:  Current interpolated bottom
PROJECT.     New Zealand Log QC Project:  
SET  .            EC_CURVES:  
ELEVATION_AMSL.M                  10:  Elevation above mean sea level
ELEVATION_REF.                   RT:  Measurement reference
FORMATION_AT_TD.            Volcanics:  Formation at TD
LICENCE_NUMBER.               PPL685:  Licence number
ONSHORE_OR_OFFSHORE.             Offshore:  Onshore/offshore
PR_NUMBER.                PR648:  Petroleum report number
SEAFLOOR_ELEVATION_BMSL.M             74.0000:  Seafloor elevation below mean sea level
SPUD_DATE.           09/07/1975:  Spud date
STATUS_AT_COMPLETION.     Dry and abandoned:  Status at completion
TD_DATE.           27/07/1975:  Total depth date
TOTAL_DEPTH_DRILLED.M                1963:  Total depth drilled
WATER_DEPTH.M                  64:  Water depth
~Other Information Block
# 
~A       DEPTH             CT         FPRESS          FTEMP        HMC_POR        HMC_RES             RM            RMC            RMF 
# ...
     893.52120       0.754788      1522.9025        33.2149         0.0000         0.0000       0.411864       0.548525       0.287741
     893.67360       0.757153      1523.1622        33.2185         0.0000         0.0000       0.411837       0.548489       0.287722
     893.82600       0.759518      1523.4220        33.2221         0.0000         0.0000       0.411810       0.548453       0.287703
     893.97840       0.761883      1523.6818        33.2257         0.0000         0.0000       0.411782       0.548416       0.287684
     894.13080       0.762673      1523.9415        33.2294         0.0000         0.0000       0.411755       0.548380       0.287665
     894.28320       0.763202      1524.2013        33.2330         0.0000         0.0000       0.411728       0.548344       0.287646
     894.43560       0.763732      1524.4611        33.2366         0.0000         0.0000       0.411701       0.548308       0.287627
     894.58800       0.764391      1524.7208        33.2402         0.0000         0.0000       0.411674       0.548271       0.287608
     894.74040       0.765145      1524.9805        33.2438         0.0000         0.0000       0.411646       0.548235       0.287589
     894.89280       0.765899      1525.2402        33.2475         0.0000         0.0000       0.411619       0.548199       0.287570
     895.04520       0.766475      1525.5000        33.2511         0.0000         0.0000       0.411592       0.548163       0.287551
     895.19760       0.766630      1525.7598        33.2547         0.0000         0.0000       0.411565       0.548127       0.287532
     895.35000       0.766785      1526.0195        33.2583         0.0000         0.0000       0.411538       0.548090       0.287513
     895.50240       0.766912      1526.2793        33.2619         0.0000         0.0000       0.411510       0.548054       0.287494
     895.65480       0.765331      1526.5391        33.2655         0.0000         0.0000       0.411483       0.548018       0.287475
     895.80720       0.763750      1526.7988        33.2692         0.0000         0.0000       0.411456       0.547982       0.287456
     895.95960       0.762169      1527.0586        33.2728         0.0000         0.0000       0.411429       0.547945       0.287437
     896.11200       0.761395      1527.3184        33.2764         0.0000         0.0000       0.411402       0.547909       0.287418
     896.26440       0.760913      1527.5781        33.2800         0.0000         0.0000       0.411374       0.547873       0.287399
     896.41680       0.760430      1527.8378        33.2836         0.0000         0.0000       0.411347       0.547837       0.287380
     896.56920       0.762052      1528.0975        33.2873         0.0000         0.0000       0.411320       0.547801       0.287361
     896.72160       0.766204      1528.3573        33.2909         0.0000         0.0000       0.411293       0.547765       0.287342
     896.87400       0.770356      1528.6171        33.2945         0.0000         0.0000       0.411266       0.547728       0.287323
     897.02640       0.773518      1528.8768        33.2981         0.0000         0.0000       0.411239       0.547692       0.287304
     897.17880       0.771958      1529.1365        33.3017         0.0000         0.0000       0.411212       0.547656       0.287285
     897.33120       0.770399      1529.3962        33.3053         0.0000         0.0000       0.411184       0.547620       0.287266
     897.48360       0.768839      1529.6559        33.3090         0.0000         0.0000       0.411157       0.547584       0.287247
     897.63600       0.767124      1529.9156        33.3126         0.0000         0.0000       0.411130       0.547548       0.287228
     897.78840       0.765391      1530.1754        33.3162         0.0000         0.0000       0.411103       0.547512       0.287209
     897.94080       0.763659      1530.4352        33.3198         0.0000         0.0000       0.411076       0.547475       0.287190
     898.09320       0.762002      1530.6949        33.3234         0.0647         0.0647       0.411049       0.547439       0.287171
     898.24560       0.760394      1530.9547        33.3270         0.1705         0.1705       0.411022       0.547403       0.287152
     898.39800       0.758785      1531.2145        33.3307         0.2763         0.2763       0.410994       0.547367       0.287133
     898.55040       0.757878      1531.4742        33.3343         0.3287         0.3287       0.410967       0.547331       0.287114
     898.70280       0.758390      1531.7339        33.3379         0.2732         0.2732       0.410940       0.547295       0.287095
     898.85520       0.758902      1531.9937        33.3415         0.2177         0.2177       0.410913       0.547259       0.287076
     899.00760       0.759419      1532.2534        33.3451         0.1624         0.1624       0.410886       0.547223       0.287057
     899.16000       0.760036      1532.5132        33.3488         0.1122         0.1122       0.410859       0.547186       0.287038
     899.31240       0.760654      1532.7729        33.3524         0.0619         0.0619       0.410832       0.547150       0.287019
     899.46480       0.761271      1533.0327        33.3560         0.0116         0.0116       0.410805       0.547114       0.287001
     899.61720       0.761299      1533.2925        33.3596         0.0000         0.0000       0.410778       0.547078       0.286982
     899.76960       0.761150      1533.5522        33.3632         0.0000         0.0000       0.410751       0.547042       0.286963
     899.92200       0.761001      1533.8119        33.3669         0.0000         0.0000       0.410723       0.547006       0.286944
     900.07440       0.760614      1534.0717        33.3705         0.0000         0.0000       0.410696       0.546970       0.286925
     900.22680       0.759977      1534.3314        33.3741         0.0000         0.0000       0.410669       0.546934       0.286906
     900.37920       0.759341      1534.5912        33.3777         0.0000         0.0000       0.410642       0.546898       0.286887
     900.53160       0.759029      1534.8510        33.3813         0.0000         0.0000       0.410615       0.546862       0.286868
     900.68400       0.759957      1535.1107        33.3849         0.0000         0.0000       0.410588       0.546826       0.286849
     900.83640       0.760885      1535.3705        33.3886         0.0000         0.0000       0.410561       0.546790       0.286830
     900.98880       0.761813      1535.6302        33.3922         0.0000         0.0000       0.410534       0.546754       0.286811
     901.14120       0.760980      1535.8899        33.3958         0.0000         0.0000       0.410507       0.546718       0.286792
     901.29360       0.760008      1536.1497        33.3994         0.0000         0.0000       0.410480       0.546682       0.286774
     901.44600       0.759036      1536.4094        33.4030         0.0000         0.0000       0.410453       0.546646       0.286755
     901.59840       0.760445      1536.6692        33.4066         0.0000         0.0000       0.410426       0.546610       0.286736
     901.75080       0.763159      1536.9290        33.4103         0.0000         0.0000       0.410399       0.546574       0.286717
     901.90320       0.765874      1537.1887        33.4139         0.0000         0.0000       0.410372       0.546538       0.286698
     902.05560       0.761471      1537.4485        33.4175         0.0083         0.0083       0.410345       0.546502       0.286679
     902.20800       0.744677      1537.7083        33.4211         0.0311         0.0311       0.410318       0.546466       0.286660
     902.36040       0.727883      1537.9679        33.4247         0.0539         0.0539       0.410291       0.546430       0.286641
     902.51280       0.709526      1538.2277        33.4284         0.0729         0.0729       0.410264       0.546394       0.286622
