~Version Information Block
VERS .                 2.00:  CWLS LOG ASCII STANDARD - VERSION 2.00
WRAP .                   NO:  One line per depth step
~Well Information Block
#MNEM.UNIT        Data Type   Information
#---------- ----------------  -----------
STRT .M           377.95200:  START DEPTH
STOP .M          1955.59680:  STOP DEPTH
STEP .M             0.15240:  STEP
NULL .              -999.25:  NULL VALUE
COMP .                     :  COMPANY
WELL .         Resolution-1:  WELL
FLD  .                     :  FIELD
LOC  .                     :  LOCATION
CTRY .                     :  COUNTRY
STAT .                     :  STATE
CNTY .                     :  COUNTY
SRVC .     Shell BP Todd Canterbury Services Ltd:  SERVICE COMPANY
DATE .                     :  DATE
API  .                     :  API NUMBER
UWI  .         100000022150:  UNIQUE WELL ID
LATI .           -44.186126:  LATITUDE
LONG .          172.6362332:  LONGITUDE
~Curve Information Block
#MNEM.UNIT         API CODE   Curve Description
#---------- ----------------  -----------------
DEPTH.M                    :  
CALI .IN            UNKNOWN:  2  Caliper
DT   .US/F          UNKNOWN:  3  Sonic
LLD  .OHMM          UNKNOWN:  5  Latero-Log Deep
LLS  .OHMM          UNKNOWN:  6  Latero-Log Shallow
SP   .MV            UNKNOWN:  7  Spontaneous Potential
~Parameter Information Block
#MNEM.UNIT            Value   Description
#---------- ----------------  -----------
CUR_INT_BOT.M           1955.9016:  Current interpolated bottom
PROJECT.     New Zealand Log QC Project:  
SET  .      RAW_INTER_REF_D:  
ELEVATION_AMSL.M                  10:  Elevation above mean sea level
ELEVATION_REF.                   RT:  Measurement reference
FORMATION_AT_TD.            Volcanics:  Formation at TD
LICENCE_NUMBER.               PPL685:  Licence number
ONSHORE_OR_OFFSHORE.             Offshore:  Onshore/offshore
PR_NUMBER.                PR648:  Petroleum report number
SEAFLOOR_ELEVATION_BMSL.M             74.0000:  Seafloor elevation below mean sea level
SPUD_DATE.           09/07/1975:  Spud date
STATUS_AT_COMPLETION.     Dry and abandoned:  Status at completion
TD_DATE.           27/07/1975:  Total depth date
TOTAL_DEPTH_DRILLED.M                1963:  Total depth drilled
WATER_DEPTH.M                  64:  Water depth
~Other Information Block
# 
~A       DEPTH           CALI             DT            LLD            LLS             SP 
# ...
    1313.84040        12.5865        83.7482         4.7647         4.3648        51.7775
    1313.99280        12.5720        83.6686         4.7195         4.3527        51.9521
    1314.14520        12.5587        83.7668         4.6905         4.3674        51.7067
    1314.29760        12.5571        83.9545         4.7125         4.3928        51.4696
    1314.45000        12.5610        84.2507         4.7049         4.3751        51.3823
    1314.60240        12.5676        84.4867         4.6465         4.3528        51.3042
    1314.75480        12.5746        84.6143         4.6280         4.3765        51.2326
    1314.90720        12.5799        84.5681         4.6455         4.4217        51.2043
    1315.05960        12.5853        84.1521         4.7068         4.4977        51.1517
    1315.21200        12.5977        83.4872         4.7801         4.6098        51.1473
    1315.36440        12.6039        82.7658         4.8406         4.6849        51.1508
    1315.51680        12.6039        82.3588         4.7826         4.6191        51.2042
    1315.66920        12.5968        82.2776         4.6898         4.5258        51.2331
    1315.82160        12.5833        82.4629         4.6273         4.4579        51.2703
    1315.97400        12.5675        82.3933         4.6364         4.3773        51.2996
    1316.12640        12.5581        81.9718         4.7007         4.3609        51.3011
    1316.27880        12.5525        81.5802         4.7170         4.4649        51.2985
    1316.43120        12.5512        81.6774         4.6671         4.4446        51.2728
    1316.58360        12.5504        82.0677         4.6531         4.3808        51.2974
    1316.73600        12.5514        82.3850         4.6436         4.3329        51.2963
    1316.88840        12.5614        82.6073         4.6579         4.3117        51.2649
    1317.04080        12.5767        82.6717         4.7235         4.3610        51.2028
    1317.19320        12.5878        82.5238         4.7993         4.4308        51.1488
    1317.34560        12.5861        82.3475         4.8657         4.4604        51.2082
    1317.49800        12.5736        82.2738         4.9114         4.4736        51.3199
    1317.65040        12.5678        82.3969         4.9287         4.4591        51.4175
    1317.80280        12.5731        82.5536         4.9079         4.4358        51.5473
    1317.95520        12.5807        82.7392         4.8654         4.3761        51.6196
    1318.10760        12.5852        83.0645         4.7847         4.2811        51.6188
    1318.26000        12.5930        83.5702         4.6593         4.1709        51.5402
    1318.41240        12.6020        84.1873         4.5285         4.0533        51.3846
    1318.56480        12.5984        84.8651         4.4199         3.9402        51.3051
    1318.71720        12.5893        85.5489         4.3092         3.8677        51.3682
    1318.86960        12.5732        86.1610         4.2106         3.8109        51.5175
    1319.02200        12.5639        86.6475         4.1394         3.7406        51.5341
    1319.17440        12.5674        87.0408         4.0908         3.6686        51.4344
    1319.32680        12.5901        87.5824         3.9970         3.5850        51.3480
    1319.47920        12.6168        88.2903         3.8880         3.5155        51.2954
    1319.63160        12.6369        89.1145         3.8042         3.4738        51.3195
    1319.78400        12.6286        89.7864         3.7467         3.4494        51.3346
    1319.93640        12.6055        90.1899         3.7055         3.4287        51.3356
    1320.08880        12.5827        90.4472         3.6740         3.4015        51.3477
    1320.24120        12.5697        90.5870         3.6639         3.3818        51.4381
    1320.39360        12.5798        90.4152         3.6637         3.3672        51.5848
    1320.54600        12.6011        89.8360         3.6716         3.3615        51.7364
    1320.69840        12.6207        89.0269         3.7000         3.3712        51.8957
    1320.85080        12.6159        88.0299         3.7533         3.3577        52.0449
    1321.00320        12.5935        87.4730         3.7732         3.2819        52.1919
    1321.15560        12.5750        87.8653         3.6620         3.1831        52.2772
    1321.30800        12.5651        88.5580         3.4841         3.0933        52.2100
    1321.46040        12.5686        89.2573         3.3508         3.0803        52.0906
    1321.61280        12.5981        89.9258         3.4285         3.1319        52.3487
    1321.76520        12.6391        90.5833         3.4532         3.1895        52.2377
    1321.91760        12.6670        91.1394         3.4896         3.2534        52.1325
    1322.07000        12.6572        90.9091         3.5238         3.3158        51.9948
    1322.22240        12.6207        90.4718         3.5547         3.3615        51.9319
    1322.37480        12.5868        90.4460         3.5761         3.3627        51.8690
    1322.52720        12.5651        90.7424         3.5885         3.3361        51.7874
    1322.67960        12.5612        91.0689         3.6103         3.3002        51.6636
    1322.83200        12.5689        91.1103         3.6145         3.2787        51.5591
    1322.98440        12.5842        91.0387         3.5935         3.2552        51.4511
    1323.13680        12.5959        91.0371         3.5512         3.2139        51.3033
    1323.28920        12.6151        91.4059         3.4899         3.1461        51.1499
    1323.44160        12.6310        92.1474         3.4178         3.0601        51.1136
    1323.59400        12.6371        93.0178         3.3239         2.9950        51.3026
    1323.74640        12.6341        93.8653         3.2286         2.9368        51.6134
    1323.89880        12.6151        95.3388         3.1788         2.8420        51.8723
    1324.05120        12.5997        96.5788         3.0839         2.7180        52.0355
    1324.20360        12.5899        97.1673         2.9103         2.5824        52.0109
    1324.35600        12.5836        97.9299         2.7182         2.4683        51.8960
    1324.50840        12.6111        99.1249         2.5538         2.3604        51.8784
    1324.66080        12.6618       100.1483         2.4524         2.2885        51.8681
    1324.81320        12.6890       101.4792         2.4524         2.2641        51.9280
    1324.96560        12.6907       102.7444         2.4772         2.2913        51.9922
    1325.11800        12.6826       103.1379         2.4749         2.2766        52.0651
    1325.27040        12.6657       103.7635         2.3491         2.1939        52.0991
    1325.42280        12.6510       105.7026         2.1994         2.0917        52.1429
    1325.57520        12.6558       108.7112         2.0822         1.9989        52.1468
    1325.72760        12.6745       112.5216         2.0459         1.9463        52.1478
    1325.88000        12.6941       110.0033         2.1022         1.9924        52.1486
    1326.03240        12.7040       108.3719         2.1655         2.0354        52.1441
    1326.18480        12.7107       106.9900         2.1957         2.0395        52.1076
    1326.33720        12.7182       105.6560         2.1328         2.0185        52.1243
    1326.48960        12.7310       106.2138         2.1069         1.9783        52.1842
    1326.64200        12.7335       106.3184         2.1303         1.9917        52.2290
    1326.79440        12.7256       104.6745         2.1678         2.0316        52.2330
    1326.94680        12.7201       103.8329         2.2190         2.0652        52.2342
    1327.09920        12.7188       103.4116         2.2704         2.1045        52.2410
    1327.25160        12.7180       102.9944         2.3318         2.1416        52.2662
