~Version Information Block
VERS .                 2.00:  CWLS LOG ASCII STANDARD - VERSION 2.00
WRAP .                   NO:  One line per depth step
~Well Information Block
#MNEM.UNIT        Data Type   Information
#---------- ----------------  -----------
STRT .M            74.52360:  START DEPTH
STOP .M          1955.44440:  STOP DEPTH
STEP .M             0.15240:  STEP
NULL .              -999.25:  NULL VALUE
COMP .                     :  COMPANY
WELL .         Resolution-1:  WELL
FLD  .                     :  FIELD
LOC  .                     :  LOCATION
CTRY .                     :  COUNTRY
STAT .                     :  STATE
CNTY .                     :  COUNTY
SRVC .     Shell BP Todd Canterbury Services Ltd:  SERVICE COMPANY
DATE .                     :  DATE
API  .                     :  API NUMBER
UWI  .         100000022150:  UNIQUE WELL ID
LATI .           -44.186126:  LATITUDE
LONG .          172.6362332:  LONGITUDE
~Curve Information Block
#MNEM.UNIT         API CODE   Curve Description
#---------- ----------------  -----------------
DEPTH.M                    :  
BS   .IN                   :  Bit Size (Created in Geolog)
CALI .IN            UNKNOWN:  Caliper (CALI)
DTC  .US/F          UNKNOWN:  Sonic (DT)
GR   .GAPI          UNKNOWN:  Gamma Ray (GR)
GR_CORR.GAPI                 :  Gamma ray corrected
RESD .OHMM          UNKNOWN:  Laterolog Deep Resistivity (LLD)
RESS .OHMM          UNKNOWN:  Shallow Laterolog (LLS)
SP   .MV            UNKNOWN:  Spontaneous Potential (SP)
~Parameter Information Block
#MNEM.UNIT            Value   Description
#---------- ----------------  -----------
CUR_INT_BOT.M                1963:  Current interpolated bottom
PROJECT.     New Zealand Log QC Project:  
SET  .     A0_FINAL_INTER_REF_D:  
ELEVATION_AMSL.M                  10:  Elevation above mean sea level
ELEVATION_REF.                   RT:  Measurement reference
FORMATION_AT_TD.            Volcanics:  Formation at TD
LICENCE_NUMBER.               PPL685:  Licence number
ONSHORE_OR_OFFSHORE.             Offshore:  Onshore/offshore
PR_NUMBER.                PR648:  Petroleum report number
SEAFLOOR_ELEVATION_BMSL.M             74.0000:  Seafloor elevation below mean sea level
SPUD_DATE.           09/07/1975:  Spud date
STATUS_AT_COMPLETION.     Dry and abandoned:  Status at completion
TD_DATE.           27/07/1975:  Total depth date
TOTAL_DEPTH_DRILLED.M                1963:  Total depth drilled
WATER_DEPTH.M                  64:  Water depth
~Other Information Block
# 
~A       DEPTH             BS           CALI            DTC             GR        GR_CORR           RESD           RESS             SP 
# ...
    1638.14760        12.2500        13.6531       115.7345        34.2171      -999.2500         2.8580         2.3053        81.9470
    1638.30000        12.2500        13.8086       115.8523        33.3925      -999.2500         2.8234         2.2886        81.7464
    1638.45240        12.2500        13.9642       115.9701        32.5679      -999.2500         2.7888         2.2720        81.5459
    1638.60480        12.2500        14.0709       115.9338        32.9650      -999.2500         2.7835         2.2719        81.4681
    1638.75720        12.2500        14.1555       115.8275        33.9170      -999.2500         2.7917         2.2793        81.4461
    1638.90960        12.2500        14.2401       115.7213        34.8690      -999.2500         2.7998         2.2867        81.4241
    1639.06200        12.2500        14.3106       115.8003        35.3003      -999.2500         2.8066         2.2923        81.4907
    1639.21440        12.2500        14.3604       116.1496        34.9721      -999.2500         2.8115         2.2950        81.6866
    1639.36680        12.2500        14.4103       116.4988        34.6440      -999.2500         2.8164         2.2977        81.8825
    1639.51920        12.2500        14.4494       116.8519        34.4558      -999.2500         2.8241         2.3029        82.0973
    1639.67160        12.2500        14.4133       117.2323        35.2382      -999.2500         2.8513         2.3248        82.4436
    1639.82400        12.2500        14.3773       117.6126        36.0206      -999.2500         2.8785         2.3468        82.7898
    1639.97640        12.2500        14.3413       117.9929        36.8029      -999.2500         2.9057         2.3687        83.1360
    1640.12880        12.2500        14.1070       117.7974        36.5490      -999.2500         2.9329         2.3809        83.2758
    1640.28120        12.2500        13.8364       117.4963        36.1051      -999.2500         2.9600         2.3912        83.3778
    1640.43360        12.2500        13.5658       117.1951        35.6613      -999.2500         2.9872         2.4015        83.4798
    1640.58600        12.2500        13.3967       116.5114        35.5192      -999.2500         2.9950         2.3912        83.4564
    1640.73840        12.2500        13.3060       115.5323        35.6100      -999.2500         2.9879         2.3650        83.3362
    1640.89080        12.2500        13.2154       114.5532        35.7009      -999.2500         2.9809         2.3388        83.2160
    1641.04320        12.2500        13.1511       113.7547        35.8389      -999.2500         2.9751         2.3227        83.0622
    1641.19560        12.2500        13.1536       113.4129        36.0963      -999.2500         2.9727         2.3321        82.8235
    1641.34800        12.2500        13.1560       113.0712        36.3537      -999.2500         2.9702         2.3414        82.5848
    1641.50040        12.2500        13.1585       112.7310        36.6105      -999.2500         2.9677         2.3508        82.3463
    1641.65280        12.2500        13.1994       113.0186        36.6442      -999.2500         2.9697         2.3618        82.1585
    1641.80520        12.2500        13.2403       113.3062        36.6778      -999.2500         2.9716         2.3728        81.9707
    1641.95760        12.2500        13.2812       113.5938        36.7115      -999.2500         2.9736         2.3838        81.7829
    1642.11000        12.2500        13.3424       113.4741        36.4748      -999.2500         2.9811         2.3988        81.6649
    1642.26240        12.2500        13.4114       113.1973        36.1337      -999.2500         2.9908         2.4154        81.5738
    1642.41480        12.2500        13.4804       112.9205        35.7927      -999.2500         3.0005         2.4320        81.4827
    1642.56720        12.2500        13.5090       112.6260        35.4028      -999.2500         3.0104         2.4466        81.4893
    1642.71960        12.2500        13.4865       112.3091        34.9510      -999.2500         3.0207         2.4586        81.6196
    1642.87200        12.2500        13.4640       111.9921        34.4992      -999.2500         3.0309         2.4707        81.7500
    1643.02440        12.2500        13.4524       111.8142        34.1088      -999.2500         3.0412         2.4798        81.9004
    1643.17680        12.2500        13.4982       112.3660        34.0403      -999.2500         3.0519         2.4735        82.1563
    1643.32920        12.2500        13.5440       112.9177        33.9717      -999.2500         3.0626         2.4671        82.4122
    1643.48160        12.2500        13.5898       113.4694        33.9032      -999.2500         3.0734         2.4608        82.6681
    1643.63400        12.2500        13.6473       113.6914        33.9016      -999.2500         3.0719         2.4494        82.8760
    1643.78640        12.2500        13.7064       113.8682        33.9092      -999.2500         3.0688         2.4373        83.0774
    1643.93880        12.2500        13.7655       114.0449        33.9167      -999.2500         3.0657         2.4252        83.2788
    1644.09120        12.2500        13.7694       114.1658        33.9677      -999.2500         3.0722         2.4219        83.3826
    1644.24360        12.2500        13.7361       114.2493        34.0479      -999.2500         3.0852         2.4245        83.4209
    1644.39600        12.2500        13.7029       114.3328        34.1280      -999.2500         3.0982         2.4271        83.4592
    1644.54840        12.2500        13.6867       114.5265        34.4431      -999.2500         3.1018         2.4220        83.4274
    1644.70080        12.2500        13.7074       114.9570        35.2630      -999.2500         3.0852         2.4001        83.2449
    1644.85320        12.2500        13.7281       115.3874        36.0829      -999.2500         3.0686         2.3783        83.0625
    1645.00560        12.2500        13.7479       115.8148        36.8639      -999.2500         3.0511         2.3567        82.8794
    1645.15800        12.2500        13.7463       116.1615        36.6223      -999.2500         3.0090         2.3427        82.6798
    1645.31040        12.2500        13.7446       116.5082        36.3808      -999.2500         2.9670         2.3287        82.4803
    1645.46280        12.2500        13.7430       116.8549        36.1392      -999.2500         2.9249         2.3147        82.2807
    1645.61520        12.2500        13.7585       117.0341        35.3135      -999.2500         2.8979         2.3010        82.2302
    1645.76760        12.2500        13.7795       117.1593        34.2991      -999.2500         2.8759         2.2875        82.2278
    1645.92000        12.2500        13.8006       117.2844        33.2847      -999.2500         2.8538         2.2739        82.2254
    1646.07240        12.2500        13.8556       117.3485        32.8144      -999.2500         2.8473         2.2672        82.2920
    1646.22480        12.2500        13.9483       117.3451        32.9453      -999.2500         2.8582         2.2680        82.4349
    1646.37720        12.2500        14.0410       117.3416        33.0762      -999.2500         2.8691         2.2688        82.5778
    1646.52960        12.2500        14.1281       117.3221        33.1972      -999.2500         2.8834         2.2731        82.7273
    1646.68200        12.2500        14.1922       117.2360        33.2772      -999.2500         2.9121         2.2925        82.9045
    1646.83440        12.2500        14.2563       117.1498        33.3571      -999.2500         2.9408         2.3118        83.0817
    1646.98680        12.2500        14.3205       117.0637        33.4370      -999.2500         2.9695         2.3312        83.2588
    1647.13920        12.2500        14.3682       117.2838        33.0190      -999.2500         2.9336         2.3050        83.3513
