~Version Information Block
VERS .                 2.00:  CWLS LOG ASCII STANDARD - VERSION 2.00
WRAP .                   NO:  One line per depth step
~Well Information Block
#MNEM.UNIT        Data Type   Information
#---------- ----------------  -----------
STRT .M           377.95200:  START DEPTH
STOP .M          1955.59680:  STOP DEPTH
STEP .M             0.15240:  STEP
NULL .              -999.25:  NULL VALUE
COMP .                     :  COMPANY
WELL .         Resolution-1:  WELL
FLD  .                     :  FIELD
LOC  .                     :  LOCATION
CTRY .                     :  COUNTRY
STAT .                     :  STATE
CNTY .                     :  COUNTY
SRVC .     Shell BP Todd Canterbury Services Ltd:  SERVICE COMPANY
DATE .                     :  DATE
API  .                     :  API NUMBER
UWI  .         100000022150:  UNIQUE WELL ID
LATI .           -44.186126:  LATITUDE
LONG .          172.6362332:  LONGITUDE
~Curve Information Block
#MNEM.UNIT         API CODE   Curve Description
#---------- ----------------  -----------------
DEPTH.M                    :  
CALI .IN            UNKNOWN:  2  Caliper
DT   .US/F          UNKNOWN:  3  Sonic
LLD  .OHMM          UNKNOWN:  5  Latero-Log Deep
LLS  .OHMM          UNKNOWN:  6  Latero-Log Shallow
SP   .MV            UNKNOWN:  7  Spontaneous Potential
~Parameter Information Block
#MNEM.UNIT            Value   Description
#---------- ----------------  -----------
CUR_INT_BOT.M           1955.9016:  Current interpolated bottom
PROJECT.     New Zealand Log QC Project:  
SET  .      RAW_INTER_REF_D:  
ELEVATION_AMSL.M                  10:  Elevation above mean sea level
ELEVATION_REF.                   RT:  Measurement reference
FORMATION_AT_TD.            Volcanics:  Formation at TD
LICENCE_NUMBER.               PPL685:  Licence number
ONSHORE_OR_OFFSHORE.             Offshore:  Onshore/offshore
PR_NUMBER.                PR648:  Petroleum report number
SEAFLOOR_ELEVATION_BMSL.M             74.0000:  Seafloor elevation below mean sea level
SPUD_DATE.           09/07/1975:  Spud date
STATUS_AT_COMPLETION.     Dry and abandoned:  Status at completion
TD_DATE.           27/07/1975:  Total depth date
TOTAL_DEPTH_DRILLED.M                1963:  Total depth drilled
WATER_DEPTH.M                  64:  Water depth
~Other Information Block
# 
~A       DEPTH           CALI             DT            LLD            LLS             SP 
# ...
    1829.25720        13.8747        94.9360         4.1168         3.4875        78.4416
    1829.40960        13.8524        97.1562         3.7449         3.2292        78.4401
    1829.56200        13.8680        99.7282         3.4709         2.9742        78.5072
    1829.71440        13.9211        99.0182         3.6122         2.9053        78.6254
    1829.86680        14.0095        93.5104         4.2832         3.3021        78.8094
    1830.01920        14.0898        90.6523         5.0388         3.8433        79.0015
    1830.17160        14.1402        89.1517         5.5101         4.3139        79.1786
    1830.32400        14.1920        87.6604         5.3261         4.3094        79.3813
    1830.47640        14.2616        87.3766         4.9454         3.9922        79.5657
    1830.62880        14.3392        88.3508         4.5884         3.7214        79.7223
    1830.78120        14.4060        90.7044         4.3102         3.5070        79.7520
    1830.93360        14.4483        94.5991         4.2057         3.3800        79.6756
    1831.08600        14.4234        97.3049         4.1920         3.2856        79.5765
    1831.23840        14.3799        97.9353         4.2952         3.3034        79.3828
    1831.39080        14.3604        97.0174         4.4500         3.3877        79.1431
    1831.54320        14.3640        94.3440         4.4386         3.4241        78.8085
    1831.69560        14.3955        92.1550         4.3316         3.3720        78.4748
    1831.84800        14.4222        92.4367         4.2458         3.3024        78.1943
    1832.00040        14.4508        92.6330         4.1920         3.2348        78.1263
    1832.15280        14.4256        93.3371         4.1528         3.1734        78.2330
    1832.30520        14.3806        94.0569         4.1325         3.1280        78.6473
    1832.45760        14.3640        94.5070         4.0919         3.0966        79.1347
    1832.61000        14.3677        94.3256         4.0328         3.0749        79.5518
    1832.76240        14.3852        94.3944         3.9593         3.0622        79.8452
    1832.91480        14.4072        94.8957         3.8719         3.0434        79.8905
    1833.06720        14.4329        95.4194         3.8257         3.0183        79.8479
    1833.21960        14.4464        95.6738         3.8129         2.9970        79.6807
    1833.37200        14.4462        95.6343         3.8451         2.9890        79.4489
    1833.52440        14.4201        95.6921         3.8965         2.9878        79.1495
    1833.67680        14.4018        95.8068         3.9023         2.9647        78.8127
    1833.82920        14.3897        95.9947         3.8255         2.9318        78.4432
    1833.98160        14.3933        96.1287         3.7410         2.9128        78.0602
    1834.13400        14.4143        96.1588         3.7098         2.9320        77.6929
    1834.28640        14.4338        96.0616         3.7435         2.9668        77.5193
    1834.43880        14.4491        95.6638         3.8103         3.0089        77.4463
    1834.59120        14.4490        95.1833         3.8824         3.0571        77.4713
    1834.74360        14.4339        95.0209         3.9553         3.1083        77.5350
    1834.89600        14.4086        94.9007         4.0319         3.1484        77.6932
    1835.04840        14.3834        94.8710         4.1085         3.1950        77.8516
    1835.20080        14.3671        94.9885         4.1875         3.2614        78.0177
    1835.35320        14.3697        94.9823         4.2668         3.3418        78.1210
    1835.50560        14.3875        94.8908         4.3357         3.4406        78.1173
    1835.65800        14.4041        94.8440         4.4012         3.5394        78.0076
    1835.81040        14.4242        94.7671         4.4616         3.6106        77.7632
    1835.96280        14.4346        94.6774         4.5408         3.6522        77.4294
    1836.11520        14.4197        94.6394         4.6339         3.7089        77.0177
    1836.26760        14.4002        94.4225         4.7600         3.7808        76.5189
    1836.42000        14.3816        93.7634         5.0171         3.8940        75.9987
    1836.57240        14.3596        92.9168         5.3081         4.0567        75.4850
    1836.72480        14.3444        92.0459         5.5801         4.2224        75.2610
    1836.87720        14.3462        91.2716         5.8131         4.3694        75.3222
    1837.02960        14.3555        90.6928         5.9283         4.4743        75.6393
    1837.18200        14.3771        90.9462         5.9321         4.4546        75.8301
    1837.33440        14.4087        91.5482         5.8355         4.3884        75.7061
    1837.48680        14.4469        91.5950         5.6753         4.3116        75.4563
    1837.63920        14.4642        90.7586         5.4644         4.2251        75.2531
    1837.79160        14.4435        90.7220         5.2632         4.1210        74.9950
    1837.94400        14.4026        92.1361         5.1155         4.0407        74.6975
    1838.09640        14.3742        93.7505         5.0031         3.9835        74.4622
    1838.24880        14.3593        94.8195         4.9125         3.9436        74.3398
    1838.40120        14.3526        94.6480         4.8449         3.9200        74.4348
    1838.55360        14.3518        95.3397         4.8076         3.9025        74.6796
    1838.70600        14.3568        96.2171         4.8041         3.8929        74.9818
    1838.85840        14.3598        95.5149         4.8107         3.9030        75.1254
    1839.01080        14.3778        94.4361         4.8363         3.9247        75.1292
    1839.16320        14.3959        93.5654         4.8703         3.9573        74.9711
    1839.31560        14.4080        93.0676         4.9132         3.9910        74.8065
    1839.46800        14.4136        92.7485         4.9349         4.0073        74.6365
    1839.62040        14.4168        92.4391         4.9212         3.9899        74.5422
    1839.77280        14.4009        92.2777         4.8925         3.9619        74.3819
    1839.92520        14.3677        92.3643         4.8554         3.9201        74.2883
    1840.07760        14.3558        92.4443         4.8313         3.8973        74.2855
    1840.23000        14.3515        92.4060         4.8346         3.8920        74.2423
    1840.38240        14.3643        92.2583         4.8492         3.9045        74.1301
    1840.53480        14.3892        92.0779         4.8952         3.9366        73.9854
    1840.68720        14.4019        91.6665         4.9636         3.9856        73.8300
    1840.83960        14.4024        91.1471         5.0449         4.0385        73.6405
    1840.99200        14.3922        90.6424         5.1106         4.0887        73.3052
    1841.14440        14.3826        90.1333         5.1374         4.1040        72.9598
    1841.29680        14.3834        89.6137         5.1381         4.0816        72.8492
    1841.44920        14.4049        89.1846         5.1194         4.0752        72.9366
    1841.60160        14.4192        88.9382         5.1435         4.1075        73.1726
    1841.75400        14.3996        88.7218         5.2086         4.1821        73.5262
    1841.90640        14.3824        88.3113         5.3034         4.2324        73.9842
    1842.05880        14.3726        87.7982         5.3851         4.2016        74.3887
    1842.21120        14.3813        87.5278         5.3189         4.1146        74.4590
    1842.36360        14.3939        88.3232         5.0657         4.0287        74.3739
    1842.51600        14.4061        89.3608         4.8750         3.9631        74.2499
    1842.66840        14.4097        90.2505         4.8375         3.9305        74.1541
