~Version Information Block
VERS .                 2.00:  CWLS LOG ASCII STANDARD - VERSION 2.00
WRAP .                   NO:  One line per depth step
~Well Information Block
#MNEM.UNIT        Data Type   Information
#---------- ----------------  -----------
STRT .M           390.60120:  START DEPTH
STOP .M          1234.44000:  STOP DEPTH
STEP .M             0.15240:  STEP
NULL .              -999.25:  NULL VALUE
COMP .                     :  COMPANY
WELL .         Resolution-1:  WELL
FLD  .                     :  FIELD
LOC  .                     :  LOCATION
CTRY .                     :  COUNTRY
STAT .                     :  STATE
CNTY .                     :  COUNTY
SRVC .     Shell BP Todd Canterbury Services Ltd:  SERVICE COMPANY
DATE .                     :  DATE
API  .                     :  API NUMBER
UWI  .         100000022150:  UNIQUE WELL ID
LATI .           -44.186126:  LATITUDE
LONG .          172.6362332:  LONGITUDE
~Curve Information Block
#MNEM.UNIT         API CODE   Curve Description
#---------- ----------------  -----------------
DEPTH.M                    :  Measured Depth (MD)
CT   .MH/M                 :  True formation conductivity
FPRESS.PSI                  :  Formation/hydrostatic pressure
FTEMP.DEGC                 :  Formation temperature
HMC_POR.IN                   :  Mudcake from nuclear/porosity
HMC_RES.IN                   :  Mudcake from resistivity/sonic
RM   .OHMM                 :  Mud resistivity
RMC  .OHMM                 :  Mudcake resistivity
RMF  .OHMM                 :  Mud filtrate resistivity
~Parameter Information Block
#MNEM.UNIT            Value   Description
#---------- ----------------  -----------
CUR_INT_BOT.M                1963:  Current interpolated bottom
PROJECT.     New Zealand Log QC Project:  
SET  .            EC_CURVES:  
ELEVATION_AMSL.M                  10:  Elevation above mean sea level
ELEVATION_REF.                   RT:  Measurement reference
FORMATION_AT_TD.            Volcanics:  Formation at TD
LICENCE_NUMBER.               PPL685:  Licence number
ONSHORE_OR_OFFSHORE.             Offshore:  Onshore/offshore
PR_NUMBER.                PR648:  Petroleum report number
SEAFLOOR_ELEVATION_BMSL.M             74.0000:  Seafloor elevation below mean sea level
SPUD_DATE.           09/07/1975:  Spud date
STATUS_AT_COMPLETION.     Dry and abandoned:  Status at completion
TD_DATE.           27/07/1975:  Total depth date
TOTAL_DEPTH_DRILLED.M                1963:  Total depth drilled
WATER_DEPTH.M                  64:  Water depth
~Other Information Block
# 
~A       DEPTH             CT         FPRESS          FTEMP        HMC_POR        HMC_RES             RM            RMC            RMF 
# ...
     610.05720       0.475127      1039.7712        26.4854         0.0000         0.0000       0.469624       0.625451       0.328094
     610.20960       0.476236      1040.0310        26.4890         0.0000         0.0000       0.469589       0.625404       0.328069
     610.36200       0.477344      1040.2908        26.4926         0.0000         0.0000       0.469554       0.625357       0.328044
     610.51440       0.478171      1040.5505        26.4962         0.0000         0.0000       0.469518       0.625310       0.328020
     610.66680       0.476306      1040.8103        26.4998         0.0000         0.0000       0.469483       0.625262       0.327995
     610.81920       0.474440      1041.0701        26.5035         0.0000         0.0000       0.469447       0.625215       0.327970
     610.97160       0.472575      1041.3297        26.5071         0.0000         0.0000       0.469412       0.625168       0.327945
     611.12400       0.470437      1041.5895        26.5107         0.0000         0.0000       0.469377       0.625121       0.327921
     611.27640       0.468237      1041.8492        26.5143         0.0000         0.0000       0.469341       0.625074       0.327896
     611.42880       0.466036      1042.1090        26.5179         0.0000         0.0000       0.469306       0.625027       0.327871
     611.58120       0.466030      1042.3688        26.5215         0.0000         0.0000       0.469271       0.624980       0.327847
     611.73360       0.467948      1042.6285        26.5252         0.0000         0.0000       0.469235       0.624933       0.327822
     611.88600       0.469867      1042.8882        26.5288         0.0000         0.0000       0.469200       0.624886       0.327797
     612.03840       0.469966      1043.1479        26.5324         0.0000         0.0000       0.469165       0.624839       0.327772
     612.19080       0.464666      1043.4077        26.5360         0.0000         0.0000       0.469129       0.624792       0.327748
     612.34320       0.459365      1043.6675        26.5396         0.0000         0.0000       0.469094       0.624744       0.327723
     612.49560       0.454065      1043.9272        26.5433         0.0000         0.0000       0.469059       0.624697       0.327698
     612.64800       0.447012      1044.1869        26.5469         0.0000         0.0000       0.469023       0.624650       0.327674
     612.80040       0.439907      1044.4467        26.5505         0.0000         0.0000       0.468988       0.624603       0.327649
     612.95280       0.432803      1044.7064        26.5541         0.0000         0.0000       0.468953       0.624556       0.327624
     613.10520       0.437621      1044.9662        26.5577         0.0000         0.0000       0.468917       0.624509       0.327600
     613.25760       0.447789      1045.2260        26.5613         0.0000         0.0000       0.468882       0.624462       0.327575
     613.41000       0.457956      1045.4857        26.5650         0.0000         0.0000       0.468847       0.624415       0.327550
     613.56240       0.466871      1045.7455        26.5686         0.0000         0.0000       0.468811       0.624368       0.327526
     613.71480       0.473979      1046.0052        26.5722         0.0000         0.0000       0.468776       0.624321       0.327501
     613.86720       0.481086      1046.2649        26.5758         0.0000         0.0000       0.468741       0.624274       0.327476
     614.01960       0.487567      1046.5247        26.5794         0.0000         0.0000       0.468706       0.624227       0.327452
     614.17200       0.489801      1046.7844        26.5831         0.0000         0.0000       0.468670       0.624180       0.327427
     614.32440       0.492035      1047.0442        26.5867         0.0000         0.0000       0.468635       0.624133       0.327403
     614.47680       0.494269      1047.3040        26.5903         0.0000         0.0000       0.468600       0.624086       0.327378
     614.62920       0.491903      1047.5637        26.5939         0.0000         0.0000       0.468565       0.624040       0.327353
     614.78160       0.488711      1047.8235        26.5975         0.0000         0.0000       0.468529       0.623993       0.327329
     614.93400       0.485519      1048.0833        26.6011         0.0000         0.0000       0.468494       0.623946       0.327304
     615.08640       0.478996      1048.3430        26.6048         0.0000         0.0000       0.468459       0.623899       0.327279
     615.23880       0.469929      1048.6028        26.6084         0.0000         0.0000       0.468424       0.623852       0.327255
     615.39120       0.460862      1048.8624        26.6120         0.0000         0.0000       0.468388       0.623805       0.327230
     615.54360       0.454967      1049.1222        26.6156         0.0000         0.0000       0.468353       0.623758       0.327206
     615.69600       0.456986      1049.3820        26.6192         0.0000         0.0000       0.468318       0.623711       0.327181
     615.84840       0.459005      1049.6416        26.6229         0.0000         0.0000       0.468283       0.623664       0.327156
     616.00080       0.460965      1049.9014        26.6265         0.0000         0.0000       0.468248       0.623617       0.327132
     616.15320       0.451804      1050.1611        26.6301         0.0000         0.0000       0.468212       0.623570       0.327107
     616.30560       0.442642      1050.4209        26.6337         0.0000         0.0000       0.468177       0.623524       0.327083
     616.45800       0.433480      1050.6807        26.6373         0.0000         0.0000       0.468142       0.623477       0.327058
     616.61040       0.427927      1050.9404        26.6409         0.0000         0.0000       0.468107       0.623430       0.327033
     616.76280       0.423747      1051.2002        26.6446         0.0000         0.0000       0.468072       0.623383       0.327009
     616.91520       0.419568      1051.4600        26.6482         0.0000         0.0000       0.468036       0.623336       0.326984
     617.06760       0.416481      1051.7197        26.6518         0.0000         0.0000       0.468001       0.623289       0.326960
     617.22000       0.414765      1051.9795        26.6554         0.0000         0.0000       0.467966       0.623242       0.326935
     617.37240       0.413050      1052.2391        26.6590         0.0000         0.0000       0.467931       0.623196       0.326911
     617.52480       0.411333      1052.4989        26.6627         0.0000         0.0000       0.467896       0.623149       0.326886
     617.67720       0.409610      1052.7587        26.6663         0.0000         0.0000       0.467861       0.623102       0.326862
     617.82960       0.407887      1053.0184        26.6699         0.0000         0.0000       0.467825       0.623055       0.326837
     617.98200       0.406164      1053.2782        26.6735         0.0000         0.0000       0.467790       0.623008       0.326812
     618.13440       0.402815      1053.5378        26.6771         0.0000         0.0000       0.467755       0.622962       0.326788
     618.28680       0.399247      1053.7976        26.6807         0.0000         0.0000       0.467720       0.622915       0.326763
     618.43920       0.395680      1054.0574        26.6844         0.0000         0.0000       0.467685       0.622868       0.326739
     618.59160       0.396416      1054.3171        26.6880         0.0000         0.0000       0.467650       0.622821       0.326714
     618.74400       0.400010      1054.5769        26.6916         0.0000         0.0000       0.467615       0.622775       0.326690
     618.89640       0.403604      1054.8367        26.6952         0.0000         0.0000       0.467580       0.622728       0.326665
     619.04880       0.406372      1055.0964        26.6988         0.0000         0.0000       0.467545       0.622681       0.326641
