~Version Information Block
VERS .                 2.00:  CWLS LOG ASCII STANDARD - VERSION 2.00
WRAP .                   NO:  One line per depth step
~Well Information Block
#MNEM.UNIT        Data Type   Information
#---------- ----------------  -----------
STRT .M            74.52360:  START DEPTH
STOP .M          1955.44440:  STOP DEPTH
STEP .M             0.15240:  STEP
NULL .              -999.25:  NULL VALUE
COMP .                     :  COMPANY
WELL .         Resolution-1:  WELL
FLD  .                     :  FIELD
LOC  .                     :  LOCATION
CTRY .                     :  COUNTRY
STAT .                     :  STATE
CNTY .                     :  COUNTY
SRVC .     Shell BP Todd Canterbury Services Ltd:  SERVICE COMPANY
DATE .                     :  DATE
API  .                     :  API NUMBER
UWI  .         100000022150:  UNIQUE WELL ID
LATI .           -44.186126:  LATITUDE
LONG .          172.6362332:  LONGITUDE
~Curve Information Block
#MNEM.UNIT         API CODE   Curve Description
#---------- ----------------  -----------------
DEPTH.M                    :  
BS   .IN                   :  Bit Size (Created in Geolog)
CALI .IN            UNKNOWN:  Caliper (CALI)
DTC  .US/F          UNKNOWN:  Sonic (DT)
GR   .GAPI          UNKNOWN:  Gamma Ray (GR)
GR_CORR.GAPI                 :  Gamma ray corrected
RESD .OHMM          UNKNOWN:  Laterolog Deep Resistivity (LLD)
RESS .OHMM          UNKNOWN:  Shallow Laterolog (LLS)
SP   .MV            UNKNOWN:  Spontaneous Potential (SP)
~Parameter Information Block
#MNEM.UNIT            Value   Description
#---------- ----------------  -----------
CUR_INT_BOT.M                1963:  Current interpolated bottom
PROJECT.     New Zealand Log QC Project:  
SET  .     A0_FINAL_INTER_REF_D:  
ELEVATION_AMSL.M                  10:  Elevation above mean sea level
ELEVATION_REF.                   RT:  Measurement reference
FORMATION_AT_TD.            Volcanics:  Formation at TD
LICENCE_NUMBER.               PPL685:  Licence number
ONSHORE_OR_OFFSHORE.             Offshore:  Onshore/offshore
PR_NUMBER.                PR648:  Petroleum report number
SEAFLOOR_ELEVATION_BMSL.M             74.0000:  Seafloor elevation below mean sea level
SPUD_DATE.           09/07/1975:  Spud date
STATUS_AT_COMPLETION.     Dry and abandoned:  Status at completion
TD_DATE.           27/07/1975:  Total depth date
TOTAL_DEPTH_DRILLED.M                1963:  Total depth drilled
WATER_DEPTH.M                  64:  Water depth
~Other Information Block
# 
~A       DEPTH             BS           CALI            DTC             GR        GR_CORR           RESD           RESS             SP 
# ...
     385.41960        26.0000      -999.2500      -999.2500      -999.2500      -999.2500      -999.2500      -999.2500      -999.2500
     385.57200        26.0000      -999.2500      -999.2500      -999.2500      -999.2500      -999.2500      -999.2500      -999.2500
     385.72440        26.0000      -999.2500      -999.2500      -999.2500      -999.2500      -999.2500      -999.2500      -999.2500
     385.87680        26.0000      -999.2500      -999.2500      -999.2500      -999.2500      -999.2500      -999.2500      -999.2500
     386.02920        26.0000      -999.2500      -999.2500      -999.2500      -999.2500      -999.2500      -999.2500      -999.2500
     386.18160        26.0000      -999.2500      -999.2500      -999.2500      -999.2500      -999.2500      -999.2500      -999.2500
     386.33400        26.0000      -999.2500      -999.2500      -999.2500      -999.2500      -999.2500      -999.2500      -999.2500
     386.48640        26.0000      -999.2500      -999.2500      -999.2500      -999.2500      -999.2500      -999.2500      -999.2500
     386.63880        26.0000      -999.2500      -999.2500      -999.2500      -999.2500      -999.2500      -999.2500      -999.2500
     386.79120        26.0000      -999.2500      -999.2500      -999.2500      -999.2500      -999.2500      -999.2500      -999.2500
     386.94360        26.0000      -999.2500      -999.2500      -999.2500      -999.2500      -999.2500      -999.2500      -999.2500
     387.09600        26.0000      -999.2500      -999.2500      -999.2500      -999.2500      -999.2500      -999.2500      -999.2500
     387.24840        26.0000      -999.2500      -999.2500      -999.2500      -999.2500      -999.2500      -999.2500      -999.2500
     387.40080        26.0000      -999.2500      -999.2500      -999.2500      -999.2500      -999.2500      -999.2500      -999.2500
     387.55320        26.0000      -999.2500      -999.2500      -999.2500      -999.2500      -999.2500      -999.2500      -999.2500
     387.70560        26.0000      -999.2500      -999.2500      -999.2500      -999.2500      -999.2500      -999.2500      -999.2500
     387.85800        26.0000      -999.2500      -999.2500      -999.2500      -999.2500      -999.2500      -999.2500      -999.2500
     388.01040        26.0000      -999.2500      -999.2500      -999.2500      -999.2500      -999.2500      -999.2500      -999.2500
     388.16280        26.0000      -999.2500      -999.2500      -999.2500      -999.2500      -999.2500      -999.2500      -999.2500
     388.31520        26.0000      -999.2500      -999.2500      -999.2500      -999.2500      -999.2500      -999.2500      -999.2500
     388.46760        26.0000      -999.2500      -999.2500      -999.2500      -999.2500      -999.2500      -999.2500      -999.2500
     388.62000        26.0000      -999.2500      -999.2500      -999.2500      -999.2500      -999.2500      -999.2500      -999.2500
     388.77240        26.0000      -999.2500      -999.2500      -999.2500      -999.2500      -999.2500      -999.2500      -999.2500
     388.92480        26.0000      -999.2500      -999.2500      -999.2500      -999.2500      -999.2500      -999.2500      -999.2500
     389.07720        26.0000      -999.2500      -999.2500      -999.2500      -999.2500      -999.2500      -999.2500      -999.2500
     389.22960        26.0000      -999.2500      -999.2500      -999.2500      -999.2500      -999.2500      -999.2500      -999.2500
     389.38200        26.0000      -999.2500      -999.2500      -999.2500      -999.2500      -999.2500      -999.2500      -999.2500
     389.53440        25.7122      -999.2500      -999.2500      -999.2500      -999.2500      -999.2500      -999.2500      -999.2500
     389.68680        24.4372      -999.2500      -999.2500      -999.2500      -999.2500      -999.2500      -999.2500      -999.2500
     389.83920        23.1622      -999.2500      -999.2500      -999.2500      -999.2500      -999.2500      -999.2500      -999.2500
     389.99160        21.8872      -999.2500      -999.2500      -999.2500      -999.2500      -999.2500      -999.2500      -999.2500
     390.14400        20.5737        20.7723       165.8319        68.3533        74.5818         7.4463         5.0048        -3.7793
     390.29640        19.2579        20.7053       166.2542        68.9679        79.7953         7.4638         5.0373        -4.2178
     390.44880        17.9421        20.6382       166.6765        69.5826        85.0088         7.4813         5.0699        -4.6563
     390.60120        17.5000        20.5079       166.8343        69.0867        85.8872         7.4876         5.1485        -4.7458
     390.75360        17.5000        20.3457       166.8582        68.0291        84.5724         7.4883         5.2505        -4.6587
     390.90600        17.5000        20.1834       166.8821        66.9714        83.2575         7.4889         5.3524        -4.5716
     391.05840        17.5000        20.0910       166.9581        66.4915        82.6609         7.4677         5.4070        -4.2948
     391.21080        17.5000        20.1110       167.1178        66.9417        83.2206         7.4114         5.3853        -3.7128
     391.36320        17.5000        20.1309       167.2775        67.3919        83.7803         7.3551         5.3636        -3.1309
     391.51560        17.5000        20.1450       167.3931        67.7686        84.2485         7.2985         5.3250        -2.5257
     391.66800        17.5000        20.1072       167.1223        67.5002        83.9149         7.2403         5.1377        -1.7169
     391.82040        17.5000        20.0695       166.8516        67.2319        83.5813         7.1820         4.9504        -0.9082
     391.97280        17.5000        20.0317       166.5809        66.9635        83.2477         7.1238         4.7631        -0.0995
     392.12520        17.5000        20.0084       167.1259        67.0389        83.3415         6.9898         4.6340         0.2024
     392.27760        17.5000        19.9883       167.8482        67.1890        83.5281         6.8395         4.5176         0.3943
     392.43000        17.5000        19.9683       168.5705        67.3392        83.7147         6.6891         4.4012         0.5861
     392.58240        17.5000        19.9764       168.6255        66.8179        83.0667         6.6237         4.3563         0.5777
     392.73480        17.5000        20.0086       168.1135        65.7263        81.7097         6.6305         4.3723         0.3992
     392.88720        17.5000        20.0408       167.6016        64.6347        80.3526         6.6372         4.3882         0.2208
     393.03960        17.5000        20.1096       167.9292        63.7967        79.3107         6.6485         4.4165        -0.0070
     393.19200        17.5000        20.2827       170.6484        63.6807        79.1666         6.6727         4.4800        -0.3754
     393.34440        17.5000        20.4558       173.3675        63.5648        79.0224         6.6970         4.5435        -0.7438
     393.49680        17.5000        20.6290       176.0867        63.4488        78.8783         6.7212         4.6069        -1.1121
     393.64920        17.5000        20.9049       176.5852        64.8266        80.5911         6.7918         4.6673        -1.2472
     393.80160        17.5000        21.1830       177.0362        66.2365        82.3438         6.8634         4.7275        -1.3772
     393.95400        17.5000        21.4611       177.4872        67.6463        84.0965         6.9350         4.7878        -1.5073
     394.10640        17.5000        21.5572       174.8462        69.0233        85.8084         6.9619         4.8315        -1.5918
     394.25880        17.5000        21.5746       170.8684        70.3861        87.5026         6.9694         4.8679        -1.6566
     394.41120        17.5000        21.5919       166.8907        71.7490        89.1969         6.9769         4.9044        -1.7214
