~Version Information Block
VERS .                 2.00:  CWLS LOG ASCII STANDARD - VERSION 2.00
WRAP .                   NO:  One line per depth step
~Well Information Block
#MNEM.UNIT        Data Type   Information
#---------- ----------------  -----------
STRT .M            74.52360:  START DEPTH
STOP .M          1955.44440:  STOP DEPTH
STEP .M             0.15240:  STEP
NULL .              -999.25:  NULL VALUE
COMP .                     :  COMPANY
WELL .         Resolution-1:  WELL
FLD  .                     :  FIELD
LOC  .                     :  LOCATION
CTRY .                     :  COUNTRY
STAT .                     :  STATE
CNTY .                     :  COUNTY
SRVC .     Shell BP Todd Canterbury Services Ltd:  SERVICE COMPANY
DATE .                     :  DATE
API  .                     :  API NUMBER
UWI  .         100000022150:  UNIQUE WELL ID
LATI .           -44.186126:  LATITUDE
LONG .          172.6362332:  LONGITUDE
~Curve Information Block
#MNEM.UNIT         API CODE   Curve Description
#---------- ----------------  -----------------
DEPTH.M                    :  
BS   .IN                   :  Bit Size (Created in Geolog)
CALI .IN            UNKNOWN:  Caliper (CALI)
DTC  .US/F          UNKNOWN:  Sonic (DT)
GR   .GAPI          UNKNOWN:  Gamma Ray (GR)
GR_CORR.GAPI                 :  Gamma ray corrected
RESD .OHMM          UNKNOWN:  Laterolog Deep Resistivity (LLD)
RESS .OHMM          UNKNOWN:  Shallow Laterolog (LLS)
SP   .MV            UNKNOWN:  Spontaneous Potential (SP)
~Parameter Information Block
#MNEM.UNIT            Value   Description
#---------- ----------------  -----------
CUR_INT_BOT.M                1963:  Current interpolated bottom
PROJECT.     New Zealand Log QC Project:  
SET  .     A0_FINAL_INTER_REF_D:  
ELEVATION_AMSL.M                  10:  Elevation above mean sea level
ELEVATION_REF.                   RT:  Measurement reference
FORMATION_AT_TD.            Volcanics:  Formation at TD
LICENCE_NUMBER.               PPL685:  Licence number
ONSHORE_OR_OFFSHORE.             Offshore:  Onshore/offshore
PR_NUMBER.                PR648:  Petroleum report number
SEAFLOOR_ELEVATION_BMSL.M             74.0000:  Seafloor elevation below mean sea level
SPUD_DATE.           09/07/1975:  Spud date
STATUS_AT_COMPLETION.     Dry and abandoned:  Status at completion
TD_DATE.           27/07/1975:  Total depth date
TOTAL_DEPTH_DRILLED.M                1963:  Total depth drilled
WATER_DEPTH.M                  64:  Water depth
~Other Information Block
# 
~A       DEPTH             BS           CALI            DTC             GR        GR_CORR           RESD           RESS             SP 
# ...
     897.48360        17.5000        17.9977       134.8948        47.6518        59.2398         1.3005         1.2141        23.7046
     897.63600        17.5000        17.9351       135.2424        48.2885        60.0313         1.3034         1.2205        23.6389
     897.78840        17.5000        17.8622       135.5461        49.0416        60.9676         1.3064         1.2275        23.6117
     897.94080        17.5000        17.7894       135.8498        49.7948        61.9039         1.3094         1.2345        23.5845
     898.09320        17.5000        17.6488       135.4986        50.8321        63.1935         1.3123         1.2357        23.7353
     898.24560        17.5000        17.4652       134.7315        52.0500        64.7075         1.3150         1.2332        23.9991
     898.39800        17.5000        17.2816       133.9644        53.2678        66.2215         1.3178         1.2307        24.2628
     898.55040        17.5000        17.1761       133.4262        53.9879        67.1167         1.3193         1.2290        24.6257
     898.70280        17.5000        17.2290       133.3516        53.7007        66.7597         1.3184         1.2291        25.1891
     898.85520        17.5000        17.2818       133.2770        53.4135        66.4026         1.3176         1.2292        25.7525
     899.00760        17.5000        17.3361       133.2124        53.1408        66.0636         1.3167         1.2294        26.3045
     899.16000        17.5000        17.4169       133.3407        53.1447        66.0684         1.3156         1.2302        26.6388
     899.31240        17.5000        17.4978       133.4690        53.1485        66.0732         1.3146         1.2311        26.9730
     899.46480        17.5000        17.5786       133.5973        53.1524        66.0779         1.3135         1.2320        27.3073
     899.61720        17.5000        17.6624       133.7048        53.0300        65.9258         1.3135         1.2319        27.7174
     899.76960        17.5000        17.7471       133.8061        52.8697        65.7265         1.3138         1.2315        28.1502
     899.92200        17.5000        17.8318       133.9073        52.7094        65.5272         1.3141         1.2311        28.5830
     900.07440        17.5000        17.8800       133.5660        52.3626        65.0962         1.3148         1.2315        28.5045
     900.22680        17.5000        17.8901       132.7607        51.8204        64.4221         1.3158         1.2327        27.8899
     900.37920        17.5000        17.9002       131.9553        51.2782        63.7481         1.3169         1.2340        27.2753
     900.53160        17.5000        17.9045       131.3781        50.8715        63.2424         1.3174         1.2357        26.7296
     900.68400        17.5000        17.8868       131.6727        50.9825        63.3804         1.3158         1.2392        26.4478
     900.83640        17.5000        17.8691       131.9674        51.0936        63.5185         1.3142         1.2427        26.1660
     900.98880        17.5000        17.8514       132.2621        51.2046        63.6565         1.3127         1.2462        25.8841
     901.14120        17.5000        17.7885       132.7531        51.7448        64.3281         1.3140         1.2480        25.9456
     901.29360        17.5000        17.7220       133.2597        52.3190        65.0419         1.3156         1.2496        26.0344
     901.44600        17.5000        17.6555       133.7663        52.8932        65.7558         1.3172         1.2513        26.1231
     901.59840        17.5000        17.6275       134.2957        53.1027        66.0162         1.3148         1.2539        26.0928
     901.75080        17.5000        17.6207       134.8377        53.1119        66.0277         1.3103         1.2569        25.9971
     901.90320        17.5000        17.6139       135.3798        53.1212        66.0392         1.3058         1.2600        25.9015
     902.05560        17.5000        17.5893       135.6100        53.0644        65.9686         1.3159         1.2749        25.7482
     902.20800        17.5000        17.5337       135.2974        52.8927        65.7551         1.3515         1.3106        25.4946
     902.36040        17.5000        17.4781       134.9848        52.7210        65.5416         1.3870         1.3463        25.2410
     902.51280        17.5000        17.4440       133.6491        52.6513        65.4550         1.4264         1.3870        24.9870
     902.66520        17.5000        17.6450       121.1554        53.6942        66.7516         1.5080         1.4828        24.7290
     902.81760        17.5000        17.8460       108.6617        54.7372        68.0482         1.5895         1.5786        24.4710
     902.97000        17.5000        18.0470        96.1679        55.7802        69.3448         1.6710         1.6745        24.2130
     903.12240        17.5000        18.3230       101.1307        56.0138        69.6352         1.6013         1.5907        24.3589
     903.27480        17.5000        18.6173       110.3720        56.0490        69.6790         1.4944         1.4630        24.6039
     903.42720        17.5000        18.9117       119.6133        56.0842        69.7227         1.3876         1.3353        24.8489
     903.57960        17.5000        18.8549       125.2236        56.0369        69.6640         1.3410         1.2729        25.1883
     903.73200        17.5000        18.4768       127.5131        55.9143        69.5115         1.3494         1.2703        25.6140
     903.88440        17.5000        18.0987       129.8027        55.7916        69.3590         1.3578         1.2676        26.0397
     904.03680        17.5000        17.8285       131.5998        55.5232        69.0253         1.3654         1.2672        26.3955
     904.18920        17.5000        17.8971       131.8499        54.7968        68.1223         1.3704         1.2739        26.5316
     904.34160        17.5000        17.9657       132.1001        54.0704        67.2193         1.3754         1.2805        26.6676
     904.49400        17.5000        18.0344       132.3502        53.3441        66.3163         1.3804         1.2871        26.8037
     904.64640        17.5000        18.0109       132.4390        52.1844        64.8746         1.3801         1.2854        26.5673
     904.79880        17.5000        17.9837       132.5211        51.0070        63.4108         1.3797         1.2833        26.3156
     904.95120        17.5000        17.9565       132.6033        49.8296        61.9471         1.3792         1.2813        26.0639
     905.10360        17.5000        17.9347       132.3066        49.7828        61.8890         1.3791         1.2789        25.8901
     905.25600        17.5000        17.9153       131.8315        50.2687        62.4930         1.3793         1.2764        25.7529
     905.40840        17.5000        17.8960       131.3564        50.7545        63.0970         1.3794         1.2739        25.6157
     905.56080        17.5000        17.8881       131.1673        51.2335        63.6925         1.3802         1.2717        25.3865
     905.71320        17.5000        17.8975       131.4090        51.7023        64.2753         1.3818         1.2700        25.0188
     905.86560        17.5000        17.9070       131.6508        52.1711        64.8581         1.3835         1.2684        24.6511
     906.01800        17.5000        17.9200       131.8577        52.5563        65.3370         1.3859         1.2679        24.3375
     906.17040        17.5000        17.9600       131.8050        52.3175        65.0401         1.3936         1.2763        24.4281
     906.32280        17.5000        17.9999       131.7523        52.0787        64.7432         1.4013         1.2847        24.5186
     906.47520        17.5000        18.0398       131.6995        51.8399        64.4464         1.4090         1.2931        24.6092
