~Version Information Block
VERS .                 2.00:  CWLS LOG ASCII STANDARD - VERSION 2.00
WRAP .                   NO:  One line per depth step
~Well Information Block
#MNEM.UNIT        Data Type   Information
#---------- ----------------  -----------
STRT .M            74.52360:  START DEPTH
STOP .M          1955.44440:  STOP DEPTH
STEP .M             0.15240:  STEP
NULL .              -999.25:  NULL VALUE
COMP .                     :  COMPANY
WELL .         Resolution-1:  WELL
FLD  .                     :  FIELD
LOC  .                     :  LOCATION
CTRY .                     :  COUNTRY
STAT .                     :  STATE
CNTY .                     :  COUNTY
SRVC .     Shell BP Todd Canterbury Services Ltd:  SERVICE COMPANY
DATE .                     :  DATE
API  .                     :  API NUMBER
UWI  .         100000022150:  UNIQUE WELL ID
LATI .           -44.186126:  LATITUDE
LONG .          172.6362332:  LONGITUDE
~Curve Information Block
#MNEM.UNIT         API CODE   Curve Description
#---------- ----------------  -----------------
DEPTH.M                    :  
BS   .IN                   :  Bit Size (Created in Geolog)
CALI .IN            UNKNOWN:  Caliper (CALI)
DTC  .US/F          UNKNOWN:  Sonic (DT)
GR   .GAPI          UNKNOWN:  Gamma Ray (GR)
GR_CORR.GAPI                 :  Gamma ray corrected
RESD .OHMM          UNKNOWN:  Laterolog Deep Resistivity (LLD)
RESS .OHMM          UNKNOWN:  Shallow Laterolog (LLS)
SP   .MV            UNKNOWN:  Spontaneous Potential (SP)
~Parameter Information Block
#MNEM.UNIT            Value   Description
#---------- ----------------  -----------
CUR_INT_BOT.M                1963:  Current interpolated bottom
PROJECT.     New Zealand Log QC Project:  
SET  .     A0_FINAL_INTER_REF_D:  
ELEVATION_AMSL.M                  10:  Elevation above mean sea level
ELEVATION_REF.                   RT:  Measurement reference
FORMATION_AT_TD.            Volcanics:  Formation at TD
LICENCE_NUMBER.               PPL685:  Licence number
ONSHORE_OR_OFFSHORE.             Offshore:  Onshore/offshore
PR_NUMBER.                PR648:  Petroleum report number
SEAFLOOR_ELEVATION_BMSL.M             74.0000:  Seafloor elevation below mean sea level
SPUD_DATE.           09/07/1975:  Spud date
STATUS_AT_COMPLETION.     Dry and abandoned:  Status at completion
TD_DATE.           27/07/1975:  Total depth date
TOTAL_DEPTH_DRILLED.M                1963:  Total depth drilled
WATER_DEPTH.M                  64:  Water depth
~Other Information Block
# 
~A       DEPTH             BS           CALI            DTC             GR        GR_CORR           RESD           RESS             SP 
# ...
    1336.39560        12.2500        13.9431       131.9357        50.4459      -999.2500         1.1448         1.0479        52.0318
    1336.54800        12.2500        13.9818       131.6200        50.9568      -999.2500         1.1442         1.0474        52.0684
    1336.70040        12.2500        14.0518       131.9500        51.8447      -999.2500         1.1506         1.0545        52.0894
    1336.85280        12.2500        14.1219       132.2799        52.7326      -999.2500         1.1570         1.0617        52.1105
    1337.00520        12.2500        14.1886       132.5799        53.5557      -999.2500         1.1635         1.0690        52.1295
    1337.15760        12.2500        14.1609       132.0333        52.5454      -999.2500         1.1730         1.0794        52.0906
    1337.31000        12.2500        14.1331       131.4868        51.5351      -999.2500         1.1825         1.0898        52.0516
    1337.46240        12.2500        14.1054       130.9402        50.5247      -999.2500         1.1920         1.1003        52.0126
    1337.61480        12.2500        14.0699       131.1519        50.1690      -999.2500         1.1879         1.0987        51.9527
    1337.76720        12.2500        14.0320       131.6118        50.0276      -999.2500         1.1793         1.0933        51.8858
    1337.91960        12.2500        13.9940       132.0718        49.8862      -999.2500         1.1707         1.0879        51.8190
    1338.07200        12.2500        14.0055       132.3363        49.9674      -999.2500         1.1665         1.0815        51.7983
    1338.22440        12.2500        14.0722       132.3823        50.2970      -999.2500         1.1673         1.0741        51.8292
    1338.37680        12.2500        14.1389       132.4284        50.6266      -999.2500         1.1681         1.0668        51.8600
    1338.52920        12.2500        14.1893       132.5791        51.0092      -999.2500         1.1660         1.0592        51.9014
    1338.68160        12.2500        14.1709       133.1713        51.6152      -999.2500         1.1518         1.0511        51.9870
    1338.83400        12.2500        14.1525       133.7636        52.2212      -999.2500         1.1375         1.0429        52.0726
    1338.98640        12.2500        14.1340       134.3558        52.8272      -999.2500         1.1232         1.0347        52.1582
    1339.13880        12.2500        14.1707       133.9982        52.6067      -999.2500         1.1187         1.0297        52.3576
    1339.29120        12.2500        14.2127       133.5476        52.3051      -999.2500         1.1151         1.0249        52.5681
    1339.44360        12.2500        14.2548       133.0970        52.0036      -999.2500         1.1115         1.0202        52.7786
    1339.59600        12.2500        14.2726       132.2147        51.8673      -999.2500         1.1223         1.0290        52.8018
    1339.74840        12.2500        14.2762       131.0789        51.8280      -999.2500         1.1417         1.0458        52.7149
    1339.90080        12.2500        14.2799       129.9431        51.7887      -999.2500         1.1610         1.0627        52.6281
    1340.05320        12.2500        14.2652       129.1803        51.6874      -999.2500         1.1791         1.0793        52.5515
    1340.20560        12.2500        14.2166       129.1134        51.4702      -999.2500         1.1951         1.0957        52.4944
    1340.35800        12.2500        14.1679       129.0464        51.2530      -999.2500         1.2110         1.1121        52.4372
    1340.51040        12.2500        14.1198       128.9971        50.9947      -999.2500         1.2268         1.1282        52.3833
    1340.66280        12.2500        14.0791       129.1907        50.1750      -999.2500         1.2402         1.1397        52.3746
    1340.81520        12.2500        14.0383       129.3842        49.3553      -999.2500         1.2536         1.1512        52.3659
    1340.96760        12.2500        13.9976       129.5777        48.5357      -999.2500         1.2669         1.1628        52.3572
    1341.12000        12.2500        14.0029       130.3413        48.3380      -999.2500         1.2501         1.1573        52.3390
    1341.27240        12.2500        14.0206       131.2589        48.3084      -999.2500         1.2250         1.1473        52.3182
    1341.42480        12.2500        14.0383       132.1764        48.2787      -999.2500         1.2000         1.1374        52.2974
    1341.57720        12.2500        14.0536       132.7408        48.6513      -999.2500         1.1831         1.1280        52.3192
    1341.72960        12.2500        14.0667       132.9612        49.4157      -999.2500         1.1743         1.1193        52.3826
    1341.88200        12.2500        14.0797       133.1817        50.1801      -999.2500         1.1654         1.1107        52.4460
    1342.03440        12.2500        14.0808       133.1303        50.9126      -999.2500         1.1618         1.1075        52.5036
    1342.18680        12.2500        14.0409       132.1468        51.5352      -999.2500         1.1762         1.1235        52.5415
    1342.33920        12.2500        14.0010       131.1633        52.1578      -999.2500         1.1907         1.1395        52.5794
    1342.49160        12.2500        13.9611       130.1798        52.7805      -999.2500         1.2052         1.1555        52.6173
    1342.64400        12.2500        13.9972       130.7437        52.1443      -999.2500         1.1964         1.1431        52.5429
    1342.79640        12.2500        14.0376       131.3979        51.4347      -999.2500         1.1863         1.1291        52.4620
    1342.94880        12.2500        14.0780       132.0521        50.7250      -999.2500         1.1762         1.1152        52.3811
    1343.10120        12.2500        14.0727       132.5326        50.5239      -999.2500         1.1656         1.1056        52.3463
    1343.25360        12.2500        14.0442       132.9253        50.5800      -999.2500         1.1548         1.0984        52.3349
    1343.40600        12.2500        14.0157       133.3180        50.6361      -999.2500         1.1440         1.0911        52.3235
    1343.55840        12.2500        13.9723       133.1754        50.6673      -999.2500         1.1446         1.0929        52.3655
    1343.71080        12.2500        13.9048       132.1713        50.6583      -999.2500         1.1637         1.1091        52.4935
    1343.86320        12.2500        13.8374       131.1672        50.6493      -999.2500         1.1828         1.1253        52.6214
    1344.01560        12.2500        13.7732       130.1951        50.6811      -999.2500         1.2032         1.1413        52.7475
    1344.16800        12.2500        13.7379       129.5033        51.0708      -999.2500         1.2351         1.1557        52.8568
    1344.32040        12.2500        13.7025       128.8116        51.4606      -999.2500         1.2671         1.1701        52.9661
    1344.47280        12.2500        13.6672       128.1198        51.8503      -999.2500         1.2990         1.1845        53.0754
    1344.62520        12.2500        13.6234       128.0086        51.7295      -999.2500         1.3006         1.1845        53.1409
    1344.77760        12.2500        13.5777       128.0235        51.4979      -999.2500         1.2956         1.1815        53.1968
    1344.93000        12.2500        13.5320       128.0385        51.2662      -999.2500         1.2906         1.1784        53.2527
    1345.08240        12.2500        13.5151       128.4244        51.2435      -999.2500         1.2773         1.1707        53.2952
    1345.23480        12.2500        13.5226       129.1255        51.3982      -999.2500         1.2568         1.1591        53.3264
    1345.38720        12.2500        13.5300       129.8266        51.5529      -999.2500         1.2364         1.1474        53.3576
