~Version Information Block
VERS .                 2.00:  CWLS LOG ASCII STANDARD - VERSION 2.00
WRAP .                   NO:  One line per depth step
~Well Information Block
#MNEM.UNIT        Data Type   Information
#---------- ----------------  -----------
STRT .M           390.60120:  START DEPTH
STOP .M          1234.44000:  STOP DEPTH
STEP .M             0.15240:  STEP
NULL .              -999.25:  NULL VALUE
COMP .                     :  COMPANY
WELL .         Resolution-1:  WELL
FLD  .                     :  FIELD
LOC  .                     :  LOCATION
CTRY .                     :  COUNTRY
STAT .                     :  STATE
CNTY .                     :  COUNTY
SRVC .     Shell BP Todd Canterbury Services Ltd:  SERVICE COMPANY
DATE .                     :  DATE
API  .                     :  API NUMBER
UWI  .         100000022150:  UNIQUE WELL ID
LATI .           -44.186126:  LATITUDE
LONG .          172.6362332:  LONGITUDE
~Curve Information Block
#MNEM.UNIT         API CODE   Curve Description
#---------- ----------------  -----------------
DEPTH.M                    :  Measured Depth (MD)
CT   .MH/M                 :  True formation conductivity
FPRESS.PSI                  :  Formation/hydrostatic pressure
FTEMP.DEGC                 :  Formation temperature
HMC_POR.IN                   :  Mudcake from nuclear/porosity
HMC_RES.IN                   :  Mudcake from resistivity/sonic
RM   .OHMM                 :  Mud resistivity
RMC  .OHMM                 :  Mudcake resistivity
RMF  .OHMM                 :  Mud filtrate resistivity
~Parameter Information Block
#MNEM.UNIT            Value   Description
#---------- ----------------  -----------
CUR_INT_BOT.M                1963:  Current interpolated bottom
PROJECT.     New Zealand Log QC Project:  
SET  .            EC_CURVES:  
ELEVATION_AMSL.M                  10:  Elevation above mean sea level
ELEVATION_REF.                   RT:  Measurement reference
FORMATION_AT_TD.            Volcanics:  Formation at TD
LICENCE_NUMBER.               PPL685:  Licence number
ONSHORE_OR_OFFSHORE.             Offshore:  Onshore/offshore
PR_NUMBER.                PR648:  Petroleum report number
SEAFLOOR_ELEVATION_BMSL.M             74.0000:  Seafloor elevation below mean sea level
SPUD_DATE.           09/07/1975:  Spud date
STATUS_AT_COMPLETION.     Dry and abandoned:  Status at completion
TD_DATE.           27/07/1975:  Total depth date
TOTAL_DEPTH_DRILLED.M                1963:  Total depth drilled
WATER_DEPTH.M                  64:  Water depth
~Other Information Block
# 
~A       DEPTH             CT         FPRESS          FTEMP        HMC_POR        HMC_RES             RM            RMC            RMF 
# ...
     500.32920       0.125507       852.7527        23.8804         0.0000         0.0000       0.496582       0.661354       0.346927
     500.48160       0.125833       853.0125        23.8840         0.0000         0.0000       0.496543       0.661301       0.346900
     500.63400       0.126015       853.2722        23.8876         0.0000         0.0000       0.496503       0.661249       0.346872
     500.78640       0.126176       853.5319        23.8912         0.0000         0.0000       0.496464       0.661196       0.346844
     500.93880       0.126338       853.7917        23.8949         0.0000         0.0000       0.496424       0.661143       0.346817
     501.09120       0.126424       854.0515        23.8985         0.0000         0.0000       0.496384       0.661090       0.346789
     501.24360       0.126459       854.3112        23.9021         0.0000         0.0000       0.496345       0.661038       0.346761
     501.39600       0.126495       854.5709        23.9057         0.0000         0.0000       0.496305       0.660985       0.346734
     501.54840       0.126437       854.8307        23.9093         0.0000         0.0000       0.496266       0.660932       0.346706
     501.70080       0.126176       855.0905        23.9130         0.0000         0.0000       0.496226       0.660880       0.346679
     501.85320       0.125916       855.3502        23.9166         0.0000         0.0000       0.496187       0.660827       0.346651
     502.00560       0.125663       855.6099        23.9202         0.0000         0.0000       0.496147       0.660774       0.346623
     502.15800       0.125576       855.8697        23.9238         0.0000         0.0000       0.496108       0.660722       0.346596
     502.31040       0.125489       856.1295        23.9274         0.0000         0.0000       0.496068       0.660669       0.346568
     502.46280       0.125402       856.3892        23.9310         0.0000         0.0000       0.496029       0.660617       0.346541
     502.61520       0.125423       856.6490        23.9347         0.0000         0.0000       0.495989       0.660564       0.346513
     502.76760       0.125479       856.9087        23.9383         0.0000         0.0000       0.495950       0.660511       0.346485
     502.92000       0.125536       857.1684        23.9419         0.0000         0.0000       0.495910       0.660459       0.346458
     503.07240       0.125827       857.4282        23.9455         0.0000         0.0000       0.495871       0.660406       0.346430
     503.22480       0.126376       857.6879        23.9491         0.0000         0.0000       0.495831       0.660354       0.346403
     503.37720       0.126926       857.9476        23.9528         0.0000         0.0000       0.495792       0.660301       0.346375
     503.52960       0.127235       858.2074        23.9564         0.0000         0.0000       0.495752       0.660248       0.346347
     503.68200       0.126548       858.4672        23.9600         0.0000         0.0000       0.495713       0.660196       0.346320
     503.83440       0.125861       858.7269        23.9636         0.0000         0.0000       0.495673       0.660143       0.346292
     503.98680       0.125174       858.9866        23.9672         0.0000         0.0000       0.495634       0.660091       0.346265
     504.13920       0.124279       859.2464        23.9708         0.0000         0.0000       0.495595       0.660038       0.346237
     504.29160       0.123365       859.5062        23.9745         0.0000         0.0000       0.495555       0.659986       0.346210
     504.44400       0.122452       859.7659        23.9781         0.0000         0.0000       0.495516       0.659933       0.346182
     504.59640       0.121472       860.0256        23.9817         0.0000         0.0000       0.495476       0.659881       0.346155
     504.74880       0.120455       860.2853        23.9853         0.0000         0.0000       0.495437       0.659828       0.346127
     504.90120       0.119438       860.5451        23.9889         0.0000         0.0000       0.495397       0.659776       0.346100
     505.05360       0.119095       860.8049        23.9926         0.0000         0.0000       0.495358       0.659723       0.346072
     505.20600       0.119997       861.0646        23.9962         0.0000         0.0000       0.495319       0.659671       0.346045
     505.35840       0.120898       861.3244        23.9998         0.0000         0.0000       0.495279       0.659618       0.346017
     505.51080       0.121637       861.5842        24.0034         0.0000         0.0000       0.495240       0.659566       0.345989
     505.66320       0.120245       861.8439        24.0070         0.0000         0.0000       0.495200       0.659514       0.345962
     505.81560       0.118854       862.1036        24.0106         0.0000         0.0000       0.495161       0.659461       0.345934
     505.96800       0.117462       862.3633        24.0143         0.0000         0.0000       0.495122       0.659409       0.345907
     506.12040       0.117070       862.6231        24.0179         0.0000         0.0000       0.495082       0.659356       0.345879
     506.27280       0.116943       862.8829        24.0215         0.0000         0.0000       0.495043       0.659304       0.345852
     506.42520       0.116816       863.1426        24.0251         0.0000         0.0000       0.495004       0.659252       0.345825
     506.57760       0.117105       863.4023        24.0287         0.0000         0.0000       0.494964       0.659199       0.345797
     506.73000       0.117795       863.6621        24.0324         0.0000         0.0000       0.494925       0.659147       0.345770
     506.88240       0.118485       863.9218        24.0360         0.0000         0.0000       0.494886       0.659094       0.345742
     507.03480       0.118806       864.1816        24.0396         0.0000         0.0000       0.494846       0.659042       0.345715
     507.18720       0.117883       864.4413        24.0432         0.0000         0.0000       0.494807       0.658990       0.345687
     507.33960       0.116960       864.7011        24.0468         0.0000         0.0000       0.494768       0.658937       0.345660
     507.49200       0.116037       864.9609        24.0504         0.0000         0.0000       0.494728       0.658885       0.345632
     507.64440       0.115538       865.2206        24.0541         0.0000         0.0000       0.494689       0.658833       0.345605
     507.79680       0.115063       865.4803        24.0577         0.0000         0.0000       0.494650       0.658780       0.345577
     507.94920       0.114587       865.7401        24.0613         0.0000         0.0000       0.494611       0.658728       0.345550
     508.10160       0.116609       865.9999        24.0649         0.0000         0.0000       0.494571       0.658676       0.345522
     508.25400       0.119880       866.2596        24.0685         0.0000         0.0000       0.494532       0.658623       0.345495
     508.40640       0.123151       866.5193        24.0721         0.0000         0.0000       0.494493       0.658571       0.345468
     508.55880       0.126663       866.7791        24.0758         0.0000         0.0000       0.494454       0.658519       0.345440
     508.71120       0.130561       867.0388        24.0794         0.0000         0.0000       0.494414       0.658467       0.345413
     508.86360       0.134459       867.2985        24.0830         0.0000         0.0000       0.494375       0.658414       0.345385
     509.01600       0.137746       867.5583        24.0866         0.0000         0.0000       0.494336       0.658362       0.345358
     509.16840       0.135822       867.8181        24.0902         0.0000         0.0000       0.494297       0.658310       0.345331
     509.32080       0.133899       868.0778        24.0939         0.0000         0.0000       0.494257       0.658258       0.345303
