~Version Information Block
VERS .                 2.00:  CWLS LOG ASCII STANDARD - VERSION 2.00
WRAP .                   NO:  One line per depth step
~Well Information Block
#MNEM.UNIT        Data Type   Information
#---------- ----------------  -----------
STRT .M           390.60120:  START DEPTH
STOP .M          1234.44000:  STOP DEPTH
STEP .M             0.15240:  STEP
NULL .              -999.25:  NULL VALUE
COMP .                     :  COMPANY
WELL .         Resolution-1:  WELL
FLD  .                     :  FIELD
LOC  .                     :  LOCATION
CTRY .                     :  COUNTRY
STAT .                     :  STATE
CNTY .                     :  COUNTY
SRVC .     Shell BP Todd Canterbury Services Ltd:  SERVICE COMPANY
DATE .                     :  DATE
API  .                     :  API NUMBER
UWI  .         100000022150:  UNIQUE WELL ID
LATI .           -44.186126:  LATITUDE
LONG .          172.6362332:  LONGITUDE
~Curve Information Block
#MNEM.UNIT         API CODE   Curve Description
#---------- ----------------  -----------------
DEPTH.M                    :  Measured Depth (MD)
CT   .MH/M                 :  True formation conductivity
FPRESS.PSI                  :  Formation/hydrostatic pressure
FTEMP.DEGC                 :  Formation temperature
HMC_POR.IN                   :  Mudcake from nuclear/porosity
HMC_RES.IN                   :  Mudcake from resistivity/sonic
RM   .OHMM                 :  Mud resistivity
RMC  .OHMM                 :  Mudcake resistivity
RMF  .OHMM                 :  Mud filtrate resistivity
~Parameter Information Block
#MNEM.UNIT            Value   Description
#---------- ----------------  -----------
CUR_INT_BOT.M                1963:  Current interpolated bottom
PROJECT.     New Zealand Log QC Project:  
SET  .            EC_CURVES:  
ELEVATION_AMSL.M                  10:  Elevation above mean sea level
ELEVATION_REF.                   RT:  Measurement reference
FORMATION_AT_TD.            Volcanics:  Formation at TD
LICENCE_NUMBER.               PPL685:  Licence number
ONSHORE_OR_OFFSHORE.             Offshore:  Onshore/offshore
PR_NUMBER.                PR648:  Petroleum report number
SEAFLOOR_ELEVATION_BMSL.M             74.0000:  Seafloor elevation below mean sea level
SPUD_DATE.           09/07/1975:  Spud date
STATUS_AT_COMPLETION.     Dry and abandoned:  Status at completion
TD_DATE.           27/07/1975:  Total depth date
TOTAL_DEPTH_DRILLED.M                1963:  Total depth drilled
WATER_DEPTH.M                  64:  Water depth
~Other Information Block
# 
~A       DEPTH             CT         FPRESS          FTEMP        HMC_POR        HMC_RES             RM            RMC            RMF 
# ...
    1167.84120       0.636319      1990.4489        39.7273         0.0001         0.0001       0.368056       0.490181       0.257135
    1167.99360       0.636666      1990.7086        39.7310         0.0000         0.0000       0.368034       0.490152       0.257120
    1168.14600       0.637975      1990.9684        39.7346         0.0005         0.0005       0.368013       0.490123       0.257105
    1168.29840       0.639326      1991.2281        39.7382         0.0011         0.0011       0.367991       0.490095       0.257090
    1168.45080       0.640678      1991.4879        39.7418         0.0017         0.0017       0.367969       0.490066       0.257074
    1168.60320       0.639668      1991.7477        39.7454         0.0087         0.0087       0.367947       0.490037       0.257059
    1168.75560       0.637532      1992.0074        39.7490         0.0188         0.0188       0.367926       0.490008       0.257044
    1168.90800       0.635397      1992.2671        39.7527         0.0289         0.0289       0.367904       0.489979       0.257029
    1169.06040       0.634955      1992.5269        39.7563         0.0361         0.0361       0.367882       0.489950       0.257014
    1169.21280       0.637091      1992.7866        39.7599         0.0389         0.0389       0.367861       0.489921       0.256998
    1169.36520       0.639228      1993.0464        39.7635         0.0418         0.0418       0.367839       0.489892       0.256983
    1169.51760       0.641482      1993.3062        39.7671         0.0433         0.0433       0.367817       0.489863       0.256968
    1169.67000       0.644637      1993.5659        39.7708         0.0348         0.0348       0.367795       0.489834       0.256953
    1169.82240       0.647792      1993.8257        39.7744         0.0263         0.0263       0.367774       0.489805       0.256938
    1169.97480       0.650948      1994.0854        39.7780         0.0178         0.0178       0.367752       0.489776       0.256923
    1170.12720       0.645123      1994.3452        39.7816         0.0128         0.0128       0.367730       0.489747       0.256907
    1170.27960       0.637520      1994.6050        39.7852         0.0084         0.0084       0.367709       0.489718       0.256892
    1170.43200       0.629916      1994.8647        39.7888         0.0041         0.0041       0.367687       0.489689       0.256877
    1170.58440       0.624573      1995.1244        39.7925         0.0018         0.0018       0.367665       0.489661       0.256862
    1170.73680       0.621051      1995.3842        39.7961         0.0011         0.0011       0.367643       0.489632       0.256847
    1170.88920       0.617529      1995.6439        39.7997         0.0005         0.0005       0.367622       0.489603       0.256832
    1171.04160       0.615576      1995.9037        39.8033         0.0000         0.0000       0.367600       0.489574       0.256816
    1171.19400       0.617800      1996.1635        39.8069         0.0000         0.0000       0.367578       0.489545       0.256801
    1171.34640       0.620024      1996.4231        39.8105         0.0000         0.0000       0.367557       0.489516       0.256786
    1171.49880       0.622248      1996.6829        39.8142         0.0000         0.0000       0.367535       0.489487       0.256771
    1171.65120       0.626686      1996.9426        39.8178         0.0000         0.0000       0.367513       0.489458       0.256756
    1171.80360       0.631142      1997.2024        39.8214         0.0000         0.0000       0.367492       0.489429       0.256741
    1171.95600       0.635599      1997.4622        39.8250         0.0000         0.0000       0.367470       0.489401       0.256726
    1172.10840       0.641037      1997.7219        39.8286         0.0000         0.0000       0.367448       0.489372       0.256710
    1172.26080       0.646875      1997.9817        39.8323         0.0000         0.0000       0.367427       0.489343       0.256695
    1172.41320       0.652713      1998.2415        39.8359         0.0000         0.0000       0.367405       0.489314       0.256680
    1172.56560       0.657047      1998.5012        39.8395         0.0000         0.0000       0.367383       0.489285       0.256665
    1172.71800       0.659391      1998.7610        39.8431         0.0000         0.0000       0.367362       0.489256       0.256650
    1172.87040       0.661735      1999.0208        39.8467         0.0000         0.0000       0.367340       0.489227       0.256635
    1173.02280       0.663585      1999.2804        39.8503         0.0000         0.0000       0.367318       0.489199       0.256620
    1173.17520       0.662623      1999.5402        39.8540         0.0000         0.0000       0.367297       0.489170       0.256604
    1173.32760       0.661662      1999.7999        39.8576         0.0000         0.0000       0.367275       0.489141       0.256589
    1173.48000       0.660700      2000.0597        39.8612         0.0000         0.0000       0.367253       0.489112       0.256574
    1173.63240       0.660540      2000.3195        39.8648         0.0000         0.0000       0.367232       0.489083       0.256559
    1173.78480       0.660500      2000.5791        39.8684         0.0000         0.0000       0.367210       0.489054       0.256544
    1173.93720       0.660461      2000.8389        39.8721         0.0000         0.0000       0.367188       0.489026       0.256529
    1174.08960       0.661482      2001.0986        39.8757         0.0000         0.0000       0.367167       0.488997       0.256514
    1174.24200       0.663246      2001.3584        39.8793         0.0000         0.0000       0.367145       0.488968       0.256499
    1174.39440       0.665010      2001.6182        39.8829         0.0000         0.0000       0.367123       0.488939       0.256483
    1174.54680       0.666062      2001.8778        39.8865         0.0000         0.0000       0.367102       0.488910       0.256468
    1174.69920       0.665510      2002.1376        39.8901         0.0000         0.0000       0.367080       0.488881       0.256453
    1174.85160       0.664958      2002.3973        39.8938         0.0000         0.0000       0.367058       0.488853       0.256438
    1175.00400       0.664293      2002.6571        39.8974         0.0000         0.0000       0.367037       0.488824       0.256423
    1175.15640       0.659444      2002.9169        39.9010         0.0000         0.0000       0.367015       0.488795       0.256408
    1175.30880       0.654595      2003.1765        39.9046         0.0000         0.0000       0.366994       0.488766       0.256393
    1175.46120       0.649746      2003.4363        39.9082         0.0000         0.0000       0.366972       0.488737       0.256378
    1175.61360       0.640525      2003.6960        39.9119         0.0031         0.0031       0.366950       0.488709       0.256363
    1175.76600       0.629811      2003.9558        39.9155         0.0074         0.0074       0.366929       0.488680       0.256347
    1175.91840       0.619097      2004.2156        39.9191         0.0116         0.0116       0.366907       0.488651       0.256332
    1176.07080       0.617931      2004.4753        39.9227         0.0164         0.0164       0.366885       0.488622       0.256317
    1176.22320       0.627770      2004.7351        39.9263         0.0218         0.0218       0.366864       0.488593       0.256302
    1176.37560       0.637610      2004.9949        39.9299         0.0272         0.0272       0.366842       0.488565       0.256287
    1176.52800       0.646003      2005.2546        39.9336         0.0298         0.0298       0.366821       0.488536       0.256272
    1176.68040       0.647971      2005.5144        39.9372         0.0202         0.0202       0.366799       0.488507       0.256257
    1176.83280       0.649940      2005.7742        39.9408         0.0106         0.0106       0.366777       0.488478       0.256242
