~Version Information Block
VERS .                 2.00:  CWLS LOG ASCII STANDARD - VERSION 2.00
WRAP .                   NO:  One line per depth step
~Well Information Block
#MNEM.UNIT        Data Type   Information
#---------- ----------------  -----------
STRT .M           390.60120:  START DEPTH
STOP .M          1234.44000:  STOP DEPTH
STEP .M             0.15240:  STEP
NULL .              -999.25:  NULL VALUE
COMP .                     :  COMPANY
WELL .         Resolution-1:  WELL
FLD  .                     :  FIELD
LOC  .                     :  LOCATION
CTRY .                     :  COUNTRY
STAT .                     :  STATE
CNTY .                     :  COUNTY
SRVC .     Shell BP Todd Canterbury Services Ltd:  SERVICE COMPANY
DATE .                     :  DATE
API  .                     :  API NUMBER
UWI  .         100000022150:  UNIQUE WELL ID
LATI .           -44.186126:  LATITUDE
LONG .          172.6362332:  LONGITUDE
~Curve Information Block
#MNEM.UNIT         API CODE   Curve Description
#---------- ----------------  -----------------
DEPTH.M                    :  Measured Depth (MD)
CT   .MH/M                 :  True formation conductivity
FPRESS.PSI                  :  Formation/hydrostatic pressure
FTEMP.DEGC                 :  Formation temperature
HMC_POR.IN                   :  Mudcake from nuclear/porosity
HMC_RES.IN                   :  Mudcake from resistivity/sonic
RM   .OHMM                 :  Mud resistivity
RMC  .OHMM                 :  Mudcake resistivity
RMF  .OHMM                 :  Mud filtrate resistivity
~Parameter Information Block
#MNEM.UNIT            Value   Description
#---------- ----------------  -----------
CUR_INT_BOT.M                1963:  Current interpolated bottom
PROJECT.     New Zealand Log QC Project:  
SET  .            EC_CURVES:  
ELEVATION_AMSL.M                  10:  Elevation above mean sea level
ELEVATION_REF.                   RT:  Measurement reference
FORMATION_AT_TD.            Volcanics:  Formation at TD
LICENCE_NUMBER.               PPL685:  Licence number
ONSHORE_OR_OFFSHORE.             Offshore:  Onshore/offshore
PR_NUMBER.                PR648:  Petroleum report number
SEAFLOOR_ELEVATION_BMSL.M             74.0000:  Seafloor elevation below mean sea level
SPUD_DATE.           09/07/1975:  Spud date
STATUS_AT_COMPLETION.     Dry and abandoned:  Status at completion
TD_DATE.           27/07/1975:  Total depth date
TOTAL_DEPTH_DRILLED.M                1963:  Total depth drilled
WATER_DEPTH.M                  64:  Water depth
~Other Information Block
# 
~A       DEPTH             CT         FPRESS          FTEMP        HMC_POR        HMC_RES             RM            RMC            RMF 
# ...
     664.92120       0.501192      1133.2805        27.7879         0.0000         0.0000       0.457214       0.608923       0.319423
     665.07360       0.503038      1133.5403        27.7915         0.0000         0.0000       0.457180       0.608878       0.319400
     665.22600       0.498432      1133.8000        27.7951         0.0000         0.0000       0.457147       0.608833       0.319377
     665.37840       0.493826      1134.0598        27.7987         0.0000         0.0000       0.457113       0.608789       0.319353
     665.53080       0.490866      1134.3196        27.8023         0.0000         0.0000       0.457080       0.608744       0.319330
     665.68320       0.494402      1134.5793        27.8059         0.0000         0.0000       0.457046       0.608699       0.319306
     665.83560       0.497938      1134.8391        27.8096         0.0000         0.0000       0.457013       0.608655       0.319283
     665.98800       0.501474      1135.0988        27.8132         0.0000         0.0000       0.456979       0.608610       0.319259
     666.14040       0.509196      1135.3585        27.8168         0.0000         0.0000       0.456946       0.608565       0.319236
     666.29280       0.517276      1135.6183        27.8204         0.0000         0.0000       0.456912       0.608521       0.319213
     666.44520       0.525356      1135.8781        27.8240         0.0000         0.0000       0.456879       0.608476       0.319189
     666.59760       0.532526      1136.1378        27.8277         0.0000         0.0000       0.456845       0.608432       0.319166
     666.75000       0.539185      1136.3976        27.8313         0.0000         0.0000       0.456812       0.608387       0.319142
     666.90240       0.545844      1136.6572        27.8349         0.0000         0.0000       0.456778       0.608342       0.319119
     667.05480       0.551434      1136.9170        27.8385         0.0000         0.0000       0.456745       0.608298       0.319096
     667.20720       0.555120      1137.1768        27.8421         0.0000         0.0000       0.456711       0.608253       0.319072
     667.35960       0.558806      1137.4365        27.8457         0.0000         0.0000       0.456678       0.608208       0.319049
     667.51200       0.562324      1137.6963        27.8494         0.0000         0.0000       0.456644       0.608164       0.319025
     667.66440       0.563882      1137.9559        27.8530         0.0000         0.0000       0.456611       0.608119       0.319002
     667.81680       0.565440      1138.2157        27.8566         0.0000         0.0000       0.456577       0.608075       0.318979
     667.96920       0.566998      1138.4755        27.8602         0.0000         0.0000       0.456544       0.608030       0.318955
     668.12160       0.564780      1138.7352        27.8638         0.0000         0.0000       0.456510       0.607986       0.318932
     668.27400       0.561606      1138.9950        27.8675         0.0000         0.0000       0.456477       0.607941       0.318908
     668.42640       0.558433      1139.2548        27.8711         0.0000         0.0000       0.456443       0.607896       0.318885
     668.57880       0.550362      1139.5145        27.8747         0.0000         0.0000       0.456410       0.607852       0.318862
     668.73120       0.537717      1139.7743        27.8783         0.0000         0.0000       0.456377       0.607807       0.318838
     668.88360       0.525072      1140.0341        27.8819         0.0000         0.0000       0.456343       0.607763       0.318815
     669.03600       0.514985      1140.2938        27.8855         0.0000         0.0000       0.456310       0.607718       0.318792
     669.18840       0.513168      1140.5535        27.8892         0.0000         0.0000       0.456276       0.607674       0.318768
     669.34080       0.511351      1140.8132        27.8928         0.0000         0.0000       0.456243       0.607629       0.318745
     669.49320       0.509534      1141.0730        27.8964         0.0000         0.0000       0.456209       0.607585       0.318722
     669.64560       0.516573      1141.3328        27.9000         0.0000         0.0000       0.456176       0.607540       0.318698
     669.79800       0.524027      1141.5925        27.9036         0.0000         0.0000       0.456143       0.607496       0.318675
     669.95040       0.531481      1141.8522        27.9073         0.0000         0.0000       0.456109       0.607451       0.318652
     670.10280       0.530720      1142.1119        27.9109         0.0000         0.0000       0.456076       0.607407       0.318628
     670.25520       0.525996      1142.3717        27.9145         0.0000         0.0000       0.456042       0.607362       0.318605
     670.40760       0.521273      1142.6315        27.9181         0.0000         0.0000       0.456009       0.607318       0.318582
     670.56000       0.517568      1142.8912        27.9217         0.0000         0.0000       0.455976       0.607273       0.318558
     670.71240       0.515431      1143.1510        27.9253         0.0000         0.0000       0.455942       0.607229       0.318535
     670.86480       0.513294      1143.4106        27.9290         0.0000         0.0000       0.455909       0.607185       0.318512
     671.01720       0.511803      1143.6704        27.9326         0.0000         0.0000       0.455875       0.607140       0.318488
     671.16960       0.515389      1143.9302        27.9362         0.0000         0.0000       0.455842       0.607096       0.318465
     671.32200       0.518974      1144.1899        27.9398         0.0000         0.0000       0.455809       0.607051       0.318442
     671.47440       0.522559      1144.4497        27.9434         0.0000         0.0000       0.455775       0.607007       0.318418
     671.62680       0.523019      1144.7095        27.9471         0.0000         0.0000       0.455742       0.606962       0.318395
     671.77920       0.522848      1144.9692        27.9507         0.0000         0.0000       0.455709       0.606918       0.318372
     671.93160       0.522677      1145.2290        27.9543         0.0000         0.0000       0.455675       0.606874       0.318349
     672.08400       0.523932      1145.4888        27.9579         0.0000         0.0000       0.455642       0.606829       0.318325
     672.23640       0.526349      1145.7485        27.9615         0.0000         0.0000       0.455609       0.606785       0.318302
     672.38880       0.528765      1146.0082        27.9651         0.0000         0.0000       0.455575       0.606740       0.318279
     672.54120       0.534985      1146.2679        27.9688         0.0000         0.0000       0.455542       0.606696       0.318255
     672.69360       0.551470      1146.5277        27.9724         0.0000         0.0000       0.455509       0.606652       0.318232
     672.84600       0.567955      1146.7874        27.9760         0.0000         0.0000       0.455475       0.606607       0.318209
     672.99840       0.584440      1147.0471        27.9796         0.0000         0.0000       0.455442       0.606563       0.318186
     673.15080       0.588636      1147.3069        27.9832         0.0000         0.0000       0.455409       0.606519       0.318162
     673.30320       0.592701      1147.5667        27.9868         0.0000         0.0000       0.455376       0.606474       0.318139
     673.45560       0.596766      1147.8264        27.9905         0.0000         0.0000       0.455342       0.606430       0.318116
     673.60800       0.596771      1148.0862        27.9941         0.0000         0.0000       0.455309       0.606386       0.318093
     673.76040       0.595105      1148.3459        27.9977         0.0000         0.0000       0.455276       0.606341       0.318069
     673.91280       0.593440      1148.6057        28.0013         0.0000         0.0000       0.455242       0.606297       0.318046
