~Version Information Block
VERS .                 2.00:  CWLS LOG ASCII STANDARD - VERSION 2.00
WRAP .                   NO:  One line per depth step
~Well Information Block
#MNEM.UNIT        Data Type   Information
#---------- ----------------  -----------
STRT .M           390.60120:  START DEPTH
STOP .M          1234.44000:  STOP DEPTH
STEP .M             0.15240:  STEP
NULL .              -999.25:  NULL VALUE
COMP .                     :  COMPANY
WELL .         Resolution-1:  WELL
FLD  .                     :  FIELD
LOC  .                     :  LOCATION
CTRY .                     :  COUNTRY
STAT .                     :  STATE
CNTY .                     :  COUNTY
SRVC .     Shell BP Todd Canterbury Services Ltd:  SERVICE COMPANY
DATE .                     :  DATE
API  .                     :  API NUMBER
UWI  .         100000022150:  UNIQUE WELL ID
LATI .           -44.186126:  LATITUDE
LONG .          172.6362332:  LONGITUDE
~Curve Information Block
#MNEM.UNIT         API CODE   Curve Description
#---------- ----------------  -----------------
DEPTH.M                    :  Measured Depth (MD)
CT   .MH/M                 :  True formation conductivity
FPRESS.PSI                  :  Formation/hydrostatic pressure
FTEMP.DEGC                 :  Formation temperature
HMC_POR.IN                   :  Mudcake from nuclear/porosity
HMC_RES.IN                   :  Mudcake from resistivity/sonic
RM   .OHMM                 :  Mud resistivity
RMC  .OHMM                 :  Mudcake resistivity
RMF  .OHMM                 :  Mud filtrate resistivity
~Parameter Information Block
#MNEM.UNIT            Value   Description
#---------- ----------------  -----------
CUR_INT_BOT.M                1963:  Current interpolated bottom
PROJECT.     New Zealand Log QC Project:  
SET  .            EC_CURVES:  
ELEVATION_AMSL.M                  10:  Elevation above mean sea level
ELEVATION_REF.                   RT:  Measurement reference
FORMATION_AT_TD.            Volcanics:  Formation at TD
LICENCE_NUMBER.               PPL685:  Licence number
ONSHORE_OR_OFFSHORE.             Offshore:  Onshore/offshore
PR_NUMBER.                PR648:  Petroleum report number
SEAFLOOR_ELEVATION_BMSL.M             74.0000:  Seafloor elevation below mean sea level
SPUD_DATE.           09/07/1975:  Spud date
STATUS_AT_COMPLETION.     Dry and abandoned:  Status at completion
TD_DATE.           27/07/1975:  Total depth date
TOTAL_DEPTH_DRILLED.M                1963:  Total depth drilled
WATER_DEPTH.M                  64:  Water depth
~Other Information Block
# 
~A       DEPTH             CT         FPRESS          FTEMP        HMC_POR        HMC_RES             RM            RMC            RMF 
# ...
     774.64920       0.650582      1320.2991        30.3928         0.0000         0.0000       0.434262       0.578355       0.303389
     774.80160       0.655490      1320.5588        30.3965         0.0000         0.0000       0.434232       0.578315       0.303368
     774.95400       0.660398      1320.8186        30.4001         0.0000         0.0000       0.434202       0.578275       0.303346
     775.10640       0.660255      1321.0784        30.4037         0.0000         0.0000       0.434171       0.578234       0.303325
     775.25880       0.657930      1321.3381        30.4073         0.0000         0.0000       0.434141       0.578194       0.303304
     775.41120       0.655605      1321.5979        30.4109         0.0000         0.0000       0.434111       0.578154       0.303283
     775.56360       0.651159      1321.8577        30.4145         0.0000         0.0000       0.434081       0.578114       0.303262
     775.71600       0.643754      1322.1174        30.4182         0.0000         0.0000       0.434050       0.578073       0.303241
     775.86840       0.636349      1322.3772        30.4218         0.0000         0.0000       0.434020       0.578033       0.303220
     776.02080       0.629797      1322.6368        30.4254         0.0000         0.0000       0.433990       0.577993       0.303198
     776.17320       0.628638      1322.8966        30.4290         0.0000         0.0000       0.433960       0.577952       0.303177
     776.32560       0.627479      1323.1564        30.4326         0.0000         0.0000       0.433929       0.577912       0.303156
     776.47800       0.626320      1323.4161        30.4363         0.0000         0.0000       0.433899       0.577872       0.303135
     776.63040       0.626838      1323.6759        30.4399         0.0000         0.0000       0.433869       0.577832       0.303114
     776.78280       0.627640      1323.9355        30.4435         0.0000         0.0000       0.433839       0.577791       0.303093
     776.93520       0.628442      1324.1953        30.4471         0.0000         0.0000       0.433809       0.577751       0.303072
     777.08760       0.629881      1324.4551        30.4507         0.0000         0.0000       0.433778       0.577711       0.303051
     777.24000       0.631790      1324.7147        30.4543         0.0000         0.0000       0.433748       0.577671       0.303030
     777.39240       0.633700      1324.9745        30.4580         0.0000         0.0000       0.433718       0.577630       0.303008
     777.54480       0.634928      1325.2343        30.4616         0.0000         0.0000       0.433688       0.577590       0.302987
     777.69720       0.634520      1325.4940        30.4652         0.0000         0.0000       0.433658       0.577550       0.302966
     777.84960       0.634111      1325.7538        30.4688         0.0000         0.0000       0.433627       0.577510       0.302945
     778.00200       0.633629      1326.0135        30.4724         0.0000         0.0000       0.433597       0.577470       0.302924
     778.15440       0.627614      1326.2733        30.4760         0.0000         0.0000       0.433567       0.577429       0.302903
     778.30680       0.621599      1326.5331        30.4797         0.0000         0.0000       0.433537       0.577389       0.302882
     778.45920       0.615585      1326.7927        30.4833         0.0000         0.0000       0.433507       0.577349       0.302861
     778.61160       0.613430      1327.0525        30.4869         0.0000         0.0000       0.433477       0.577309       0.302840
     778.76400       0.612687      1327.3123        30.4905         0.0000         0.0000       0.433446       0.577269       0.302819
     778.91640       0.611944      1327.5720        30.4941         0.0000         0.0000       0.433416       0.577229       0.302798
     779.06880       0.612933      1327.8318        30.4978         0.0000         0.0000       0.433386       0.577188       0.302777
     779.22120       0.616028      1328.0914        30.5014         0.0000         0.0000       0.433356       0.577148       0.302755
     779.37360       0.619124      1328.3512        30.5050         0.0000         0.0000       0.433326       0.577108       0.302734
     779.52600       0.621140      1328.6110        30.5086         0.0000         0.0000       0.433296       0.577068       0.302713
     779.67840       0.617910      1328.8707        30.5122         0.0000         0.0000       0.433265       0.577028       0.302692
     779.83080       0.614680      1329.1305        30.5158         0.0000         0.0000       0.433235       0.576988       0.302671
     779.98320       0.611450      1329.3903        30.5195         0.0000         0.0000       0.433205       0.576948       0.302650
     780.13560       0.606709      1329.6500        30.5231         0.0000         0.0000       0.433175       0.576907       0.302629
     780.28800       0.601779      1329.9098        30.5267         0.0000         0.0000       0.433145       0.576867       0.302608
     780.44040       0.596850      1330.1696        30.5303         0.0000         0.0000       0.433115       0.576827       0.302587
     780.59280       0.595490      1330.4293        30.5339         0.0000         0.0000       0.433085       0.576787       0.302566
     780.74520       0.596422      1330.6890        30.5376         0.0000         0.0000       0.433055       0.576747       0.302545
     780.89760       0.597353      1330.9487        30.5412         0.0000         0.0000       0.433024       0.576707       0.302524
     781.05000       0.598666      1331.2085        30.5448         0.0000         0.0000       0.432994       0.576667       0.302503
     781.20240       0.600761      1331.4683        30.5484         0.0000         0.0000       0.432964       0.576627       0.302482
     781.35480       0.602855      1331.7280        30.5520         0.0000         0.0000       0.432934       0.576587       0.302461
     781.50720       0.604966      1331.9878        30.5556         0.0000         0.0000       0.432904       0.576546       0.302440
     781.65960       0.607418      1332.2476        30.5593         0.0000         0.0000       0.432874       0.576506       0.302419
     781.81200       0.609870      1332.5073        30.5629         0.0000         0.0000       0.432844       0.576466       0.302398
     781.96440       0.612322      1332.7671        30.5665         0.0000         0.0000       0.432814       0.576426       0.302377
     782.11680       0.606487      1333.0269        30.5701         0.0000         0.0000       0.432784       0.576386       0.302356
     782.26920       0.598126      1333.2866        30.5737         0.0000         0.0000       0.432754       0.576346       0.302335
     782.42160       0.589766      1333.5463        30.5774         0.0000         0.0000       0.432724       0.576306       0.302314
     782.57400       0.588518      1333.8060        30.5810         0.0000         0.0000       0.432694       0.576266       0.302293
     782.72640       0.594806      1334.0658        30.5846         0.0000         0.0000       0.432664       0.576226       0.302272
     782.87880       0.601094      1334.3256        30.5882         0.0000         0.0000       0.432633       0.576186       0.302251
     783.03120       0.607876      1334.5853        30.5918         0.0000         0.0000       0.432603       0.576146       0.302230
     783.18360       0.616578      1334.8450        30.5954         0.0000         0.0000       0.432573       0.576106       0.302209
     783.33600       0.625280      1335.1047        30.5991         0.0000         0.0000       0.432543       0.576066       0.302188
     783.48840       0.633981      1335.3644        30.6027         0.0000         0.0000       0.432513       0.576026       0.302167
     783.64080       0.634354      1335.6241        30.6063         0.0000         0.0000       0.432483       0.575986       0.302146
