~Version Information Block
VERS .                 2.00:  CWLS LOG ASCII STANDARD - VERSION 2.00
WRAP .                   NO:  One line per depth step
~Well Information Block
#MNEM.UNIT        Data Type   Information
#---------- ----------------  -----------
STRT .M            74.52360:  START DEPTH
STOP .M          1955.44440:  STOP DEPTH
STEP .M             0.15240:  STEP
NULL .              -999.25:  NULL VALUE
COMP .                     :  COMPANY
WELL .         Resolution-1:  WELL
FLD  .                     :  FIELD
LOC  .                     :  LOCATION
CTRY .                     :  COUNTRY
STAT .                     :  STATE
CNTY .                     :  COUNTY
SRVC .     Shell BP Todd Canterbury Services Ltd:  SERVICE COMPANY
DATE .                     :  DATE
API  .                     :  API NUMBER
UWI  .         100000022150:  UNIQUE WELL ID
LATI .           -44.186126:  LATITUDE
LONG .          172.6362332:  LONGITUDE
~Curve Information Block
#MNEM.UNIT         API CODE   Curve Description
#---------- ----------------  -----------------
DEPTH.M                    :  
BS   .IN                   :  Bit Size (Created in Geolog)
CALI .IN            UNKNOWN:  Caliper (CALI)
DTC  .US/F          UNKNOWN:  Sonic (DT)
GR   .GAPI          UNKNOWN:  Gamma Ray (GR)
GR_CORR.GAPI                 :  Gamma ray corrected
RESD .OHMM          UNKNOWN:  Laterolog Deep Resistivity (LLD)
RESS .OHMM          UNKNOWN:  Shallow Laterolog (LLS)
SP   .MV            UNKNOWN:  Spontaneous Potential (SP)
~Parameter Information Block
#MNEM.UNIT            Value   Description
#---------- ----------------  -----------
CUR_INT_BOT.M                1963:  Current interpolated bottom
PROJECT.     New Zealand Log QC Project:  
SET  .     A0_FINAL_INTER_REF_D:  
ELEVATION_AMSL.M                  10:  Elevation above mean sea level
ELEVATION_REF.                   RT:  Measurement reference
FORMATION_AT_TD.            Volcanics:  Formation at TD
LICENCE_NUMBER.               PPL685:  Licence number
ONSHORE_OR_OFFSHORE.             Offshore:  Onshore/offshore
PR_NUMBER.                PR648:  Petroleum report number
SEAFLOOR_ELEVATION_BMSL.M             74.0000:  Seafloor elevation below mean sea level
SPUD_DATE.           09/07/1975:  Spud date
STATUS_AT_COMPLETION.     Dry and abandoned:  Status at completion
TD_DATE.           27/07/1975:  Total depth date
TOTAL_DEPTH_DRILLED.M                1963:  Total depth drilled
WATER_DEPTH.M                  64:  Water depth
~Other Information Block
# 
~A       DEPTH             BS           CALI            DTC             GR        GR_CORR           RESD           RESS             SP 
# ...
     796.89960        17.5000        17.8588       135.7139        54.4270        67.6626         1.6142         1.4243        20.4155
     797.05200        17.5000        17.8616       135.5724        53.8867        66.9909         1.6076         1.4161        20.3825
     797.20440        17.5000        17.8881       135.6786        54.7437        68.0563         1.6058         1.4158        20.0841
     797.35680        17.5000        17.9147       135.7849        55.6007        69.1216         1.6041         1.4156        19.7856
     797.50920        17.5000        17.9437       135.9295        56.3526        70.0564         1.6014         1.4151        19.4971
     797.66160        17.5000        18.0121       136.6709        55.4692        68.9582         1.5851         1.4112        19.3643
     797.81400        17.5000        18.0804       137.4123        54.5858        67.8600         1.5687         1.4073        19.2314
     797.96640        17.5000        18.1488       138.1537        53.7024        66.7618         1.5524         1.4034        19.0986
     798.11880        17.5000        18.2868       138.2965        52.4575        65.2141         1.5215         1.3863        19.1190
     798.27120        17.5000        18.4446       138.2701        51.1102        63.5392         1.4866         1.3655        19.1828
     798.42360        17.5000        18.6024       138.2436        49.7629        61.8643         1.4516         1.3447        19.2467
     798.57600        17.5000        18.6968       138.1073        48.9053        60.7981         1.4262         1.3189        19.1579
     798.72840        17.5000        18.7276       137.8604        48.5398        60.3437         1.4103         1.2880        18.9157
     798.88080        17.5000        18.7584       137.6134        48.1744        59.8894         1.3945         1.2571        18.6736
     799.03320        17.5000        18.7614       137.4319        47.9120        59.5633         1.3777         1.2286        18.5010
     799.18560        17.5000        18.6646       137.4852        48.0201        59.6976         1.3572         1.2081        18.5782
     799.33800        17.5000        18.5677       137.5385        48.1281        59.8318         1.3368         1.1877        18.6555
     799.49040        17.5000        18.4709       137.5917        48.2361        59.9661         1.3164         1.1673        18.7327
     799.64280        17.5000        18.4241       137.8087        47.6404        59.2256         1.2985         1.1400        18.8512
     799.79520        17.5000        18.3808       138.0367        46.9975        58.4263         1.2809         1.1121        18.9725
     799.94760        17.5000        18.3374       138.2647        46.3545        57.6270         1.2632         1.0843        19.0938
     800.10000        17.5000        18.3083       138.8714        46.3295        57.5959         1.2517         1.0717        19.1104
     800.25240        17.5000        18.2867       139.6766        46.6282        57.9673         1.2434         1.0670        19.0721
     800.40480        17.5000        18.2651       140.4817        46.9270        58.3387         1.2352         1.0623        19.0338
     800.55720        17.5000        18.2504       140.9818        47.0268        58.4628         1.2324         1.0600        18.9354
     800.70960        17.5000        18.2473       140.9739        46.7957        58.1755         1.2389         1.0616        18.7369
     800.86200        17.5000        18.2441       140.9661        46.5645        57.8881         1.2454         1.0633        18.5384
     801.01440        17.5000        18.2462       140.9832        46.3451        57.6153         1.2514         1.0653        18.3451
     801.16680        17.5000        18.2991       141.2383        46.2380        57.4821         1.2532         1.0701        18.2015
     801.31920        17.5000        18.3520       141.4935        46.1309        57.3490         1.2550         1.0749        18.0579
     801.47160        17.5000        18.4049       141.7486        46.0237        57.2158         1.2568         1.0796        17.9144
     801.62400        17.5000        18.3970       141.7032        45.4654        56.5217         1.2543         1.0737        18.1161
     801.77640        17.5000        18.3751       141.5889        44.8038        55.6991         1.2507         1.0652        18.3970
     801.92880        17.5000        18.3533       141.4746        44.1421        54.8766         1.2471         1.0567        18.6779
     802.08120        17.5000        18.4518       141.1527        43.7158        54.3466         1.2533         1.0565        19.0418
     802.23360        17.5000        18.6558       140.6488        43.4959        54.0733         1.2682         1.0634        19.4787
     802.38600        17.5000        18.8599       140.1449        43.2760        53.7999         1.2831         1.0703        19.9155
     802.53840        17.5000        19.0819       139.6549        43.0225        53.4847         1.2935         1.0768        20.4040
     802.69080        17.5000        19.3571       139.2063        42.6689        53.0452         1.2909         1.0816        21.0460
     802.84320        17.5000        19.6324       138.7577        42.3154        52.6056         1.2883         1.0864        21.6880
     802.99560        17.5000        19.9076       138.3091        41.9618        52.1661         1.2857         1.0912        22.3300
     803.14800        17.5000        20.1295       139.1128        42.6478        53.0189         1.2809         1.0895        22.8887
     803.30040        17.5000        20.3498       139.9537        43.3647        53.9102         1.2761         1.0876        23.4450
     803.45280        17.5000        20.5702       140.7945        44.0816        54.8014         1.2713         1.0858        24.0013
     803.60520        17.5000        20.6386       141.2252        44.1232        54.8531         1.2660         1.0807        23.7680
     803.75760        17.5000        20.6388       141.4718        43.8618        54.5281         1.2605         1.0742        23.1805
     803.91000        17.5000        20.6391       141.7185        43.6004        54.2032         1.2550         1.0677        22.5930
     804.06240        17.5000        20.4080       141.2457        43.6344        54.2454         1.2540         1.0642        21.9415
     804.21480        17.5000        19.8433       139.7352        44.0945        54.8174         1.2597         1.0649        21.1980
     804.36720        17.5000        19.2786       138.2248        44.5546        55.3893         1.2654         1.0656        20.4544
     804.51960        17.5000        18.7758       136.9648        45.0258        55.9752         1.2729         1.0694        19.8151
     804.67200        17.5000        18.6923       137.4022        45.5731        56.6556         1.2926         1.0943        19.8817
     804.82440        17.5000        18.6088       137.8396        46.1204        57.3360         1.3123         1.1193        19.9483
     804.97680        17.5000        18.5252       138.2770        46.6677        58.0163         1.3320         1.1442        20.0150
     805.12920        17.5000        18.5517       138.2197        45.8824        57.0401         1.3341         1.1538        20.3685
     805.28160        17.5000        18.5979       138.0735        44.8578        55.7663         1.3330         1.1608        20.7736
     805.43400        17.5000        18.6441       137.9272        43.8332        54.4926         1.3319         1.1677        21.1787
     805.58640        17.5000        18.7089       137.7746        43.8815        54.5526         1.3329         1.1751        21.6136
     805.73880        17.5000        18.7879       137.6171        44.7493        55.6314         1.3356         1.1829        22.0713
     805.89120        17.5000        18.8670       137.4595        45.6171        56.7103         1.3382         1.1907        22.5291
