~Version Information Block
VERS .                 2.00:  CWLS LOG ASCII STANDARD - VERSION 2.00
WRAP .                   NO:  One line per depth step
~Well Information Block
#MNEM.UNIT        Data Type   Information
#---------- ----------------  -----------
STRT .M           377.95200:  START DEPTH
STOP .M          1955.59680:  STOP DEPTH
STEP .M             0.15240:  STEP
NULL .              -999.25:  NULL VALUE
COMP .                     :  COMPANY
WELL .         Resolution-1:  WELL
FLD  .                     :  FIELD
LOC  .                     :  LOCATION
CTRY .                     :  COUNTRY
STAT .                     :  STATE
CNTY .                     :  COUNTY
SRVC .     Shell BP Todd Canterbury Services Ltd:  SERVICE COMPANY
DATE .                     :  DATE
API  .                     :  API NUMBER
UWI  .         100000022150:  UNIQUE WELL ID
LATI .           -44.186126:  LATITUDE
LONG .          172.6362332:  LONGITUDE
~Curve Information Block
#MNEM.UNIT         API CODE   Curve Description
#---------- ----------------  -----------------
DEPTH.M                    :  
CALI .IN            UNKNOWN:  2  Caliper
DT   .US/F          UNKNOWN:  3  Sonic
LLD  .OHMM          UNKNOWN:  5  Latero-Log Deep
LLS  .OHMM          UNKNOWN:  6  Latero-Log Shallow
SP   .MV            UNKNOWN:  7  Spontaneous Potential
~Parameter Information Block
#MNEM.UNIT            Value   Description
#---------- ----------------  -----------
CUR_INT_BOT.M           1955.9016:  Current interpolated bottom
PROJECT.     New Zealand Log QC Project:  
SET  .      RAW_INTER_REF_D:  
ELEVATION_AMSL.M                  10:  Elevation above mean sea level
ELEVATION_REF.                   RT:  Measurement reference
FORMATION_AT_TD.            Volcanics:  Formation at TD
LICENCE_NUMBER.               PPL685:  Licence number
ONSHORE_OR_OFFSHORE.             Offshore:  Onshore/offshore
PR_NUMBER.                PR648:  Petroleum report number
SEAFLOOR_ELEVATION_BMSL.M             74.0000:  Seafloor elevation below mean sea level
SPUD_DATE.           09/07/1975:  Spud date
STATUS_AT_COMPLETION.     Dry and abandoned:  Status at completion
TD_DATE.           27/07/1975:  Total depth date
TOTAL_DEPTH_DRILLED.M                1963:  Total depth drilled
WATER_DEPTH.M                  64:  Water depth
~Other Information Block
# 
~A       DEPTH           CALI             DT            LLD            LLS             SP 
# ...
    1625.80320        13.9833       110.5971         2.4572         1.9075        91.1554
    1625.95560        13.9966       111.4079         2.4617         1.8988        90.9495
    1626.10800        14.0246       111.2495         2.4700         1.8938        90.7079
    1626.26040        14.0428       110.4387         2.4777         1.8928        90.3791
    1626.41280        14.0121       110.3158         2.4846         1.8928        90.0456
    1626.56520        13.9746       110.6141         2.4890         1.8982        89.7149
    1626.71760        13.9398       110.0017         2.5036         1.9044        89.3604
    1626.87000        13.9119       109.6984         2.5244         1.9244        88.9608
    1627.02240        13.8780       110.3755         2.5507         1.9474        88.5987
    1627.17480        13.8483       111.0189         2.5733         1.9584        88.3677
    1627.32720        13.8258       111.7579         2.5785         1.9548        88.3753
    1627.47960        13.8020       111.6299         2.5616         1.9531        88.6665
    1627.63200        13.7826       112.0451         2.5305         1.9458        88.9931
    1627.78440        13.7636       112.9315         2.4987         1.9424        89.3165
    1627.93680        13.7409       113.7038         2.4774         1.9387        89.6962
    1628.08920        13.7226       113.7586         2.4648         1.9309        90.1581
    1628.24160        13.7120       113.8232         2.4629         1.9255        90.5896
    1628.39400        13.6987       114.3789         2.4963         1.9288        90.8998
    1628.54640        13.6807       114.3089         2.5350         1.9402        90.9145
    1628.69880        13.6486       113.6820         2.5631         1.9673        90.7488
    1628.85120        13.6135       112.8645         2.5758         1.9955        90.4687
    1629.00360        13.5806       112.2911         2.5637         1.9943        90.0776
    1629.15600        13.5825       111.8109         2.4937         1.9646        89.5532
    1629.30840        13.6786       111.2674         2.4324         1.9232        88.9674
    1629.46080        13.8808       110.5073         2.4036         1.8967        88.3417
    1629.61320        14.0642       110.0519         2.4093         1.9129        87.6901
    1629.76560        14.0618       110.6164         2.4684         1.9537        87.1192
    1629.91800        14.0256       111.1729         2.5429         1.9970        86.5371
    1630.07040        14.0603       111.5702         2.6040         2.0424        85.8646
    1630.22280        14.2071       112.0611         2.6456         2.0817        85.1946
    1630.37520        14.4160       111.7823         2.6305         2.0785        84.5235
    1630.52760        14.4888       113.4648         2.5386         2.0517        83.9649
    1630.68000        14.2995       116.2619         2.4984         2.0480        83.5563
    1630.83240        13.9479       117.3880         2.5328         2.1148        83.2804
    1630.98480        13.7019       116.6311         2.6543         2.2164        83.2870
    1631.13720        13.4543       114.8248         2.7758         2.2814        83.4894
    1631.28960        13.2706       112.3528         2.8540         2.3052        83.7817
    1631.44200        13.1903       111.2590         2.8648         2.3181        84.0560
    1631.59440        13.1451       110.6166         2.9051         2.3404        84.3071
    1631.74680        13.1035       109.6840         2.9340         2.3637        84.5720
    1631.89920        13.0658       108.8368         2.9815         2.4002        84.7692
    1632.05160        13.0192       107.9252         3.0536         2.4592        84.7705
    1632.20400        12.9608       107.3638         3.1469         2.5357        84.5503
    1632.35640        12.9242       107.0142         3.2302         2.6032        84.2123
    1632.50880        12.9254       106.9269         3.2829         2.6425        83.8190
    1632.66120        12.9399       107.3372         3.3027         2.6457        83.4313
    1632.81360        12.9654       107.9408         3.3103         2.6235        83.0174
    1632.96600        12.9921       108.6657         3.2944         2.5871        82.7182
    1633.11840        13.0179       109.4600         3.2444         2.5472        82.4603
    1633.27080        13.0384       110.1944         3.1901         2.5230        82.2307
    1633.42320        13.0489       110.8486         3.1500         2.5127        82.0676
    1633.57560        13.0388       111.3794         3.1172         2.5081        81.9391
    1633.72800        13.0346       111.7483         3.0907         2.5078        81.8397
    1633.88040        13.0583       111.9808         3.0816         2.5106        81.8189
    1634.03280        13.1006       112.2600         3.0682         2.5132        81.8157
    1634.18520        13.1609       112.8707         3.0406         2.5039        81.8976
    1634.33760        13.2216       113.5229         3.0038         2.4762        82.1252
    1634.49000        13.2523       113.8257         2.9790         2.4437        82.4192
    1634.64240        13.2524       113.8817         2.9427         2.4118        82.8151
    1634.79480        13.2528       114.2562         2.9137         2.3780        83.3021
    1634.94720        13.2982       114.7544         2.9009         2.3658        83.7592
    1635.09960        13.3891       115.1839         2.9000         2.3565        84.2037
    1635.25200        13.4642       116.2667         2.8766         2.3375        84.6127
    1635.40440        13.5342       117.4350         2.8413         2.3154        84.8729
    1635.55680        13.5988       117.8792         2.8036         2.3003        84.9795
    1635.70920        13.6597       117.8937         2.7723         2.2837        84.8420
    1635.86160        13.7152       117.7773         2.7491         2.2737        84.6383
    1636.01400        13.7544       117.3926         2.7415         2.2606        84.3502
    1636.16640        13.7647       117.2392         2.7461         2.2529        83.9951
    1636.31880        13.7460       117.1451         2.7524         2.2589        83.6448
    1636.47120        13.6828       116.7116         2.7634         2.2785        83.3558
    1636.62360        13.5958       116.0229         2.7925         2.3034        83.2160
    1636.77600        13.5241       115.2799         2.8321         2.3245        83.1381
    1636.92840        13.4930       114.8059         2.8599         2.3258        83.0786
    1637.08080        13.4943       114.7211         2.8642         2.3186        83.0080
    1637.23320        13.4960       115.0577         2.8615         2.3221        82.9107
    1637.38560        13.5020       115.4103         2.8587         2.3303        82.8532
    1637.53800        13.5074       115.6429         2.8609         2.3440        82.7401
    1637.69040        13.5080       115.5810         2.8823         2.3485        82.5806
    1637.84280        13.4972       115.5320         2.8991         2.3354        82.3769
    1637.99520        13.5010       115.6118         2.8932         2.3217        82.1492
    1638.14760        13.5458       115.8840         2.8424         2.3114        81.8959
    1638.30000        13.6973       116.0425         2.8009         2.2956        81.6880
    1638.45240        13.9447       116.0263         2.7803         2.2727        81.5132
    1638.60480        14.1626       115.9642         2.7729         2.2538        81.4174
    1638.75720        14.2347       115.8403         2.7729         2.2368        81.3379
    1638.90960        14.2693       115.6139         2.7873         2.2747        81.3691
    1639.06200        14.3047       115.6887         2.8164         2.3024        81.4398
    1639.21440        14.3643       116.1070         2.8348         2.3192        81.6042
