~Version Information Block
VERS .                 2.00:  CWLS LOG ASCII STANDARD - VERSION 2.00
WRAP .                   NO:  One line per depth step
~Well Information Block
#MNEM.UNIT        Data Type   Information
#---------- ----------------  -----------
STRT .M            74.52360:  START DEPTH
STOP .M          1955.44440:  STOP DEPTH
STEP .M             0.15240:  STEP
NULL .              -999.25:  NULL VALUE
COMP .                     :  COMPANY
WELL .         Resolution-1:  WELL
FLD  .                     :  FIELD
LOC  .                     :  LOCATION
CTRY .                     :  COUNTRY
STAT .                     :  STATE
CNTY .                     :  COUNTY
SRVC .     Shell BP Todd Canterbury Services Ltd:  SERVICE COMPANY
DATE .                     :  DATE
API  .                     :  API NUMBER
UWI  .         100000022150:  UNIQUE WELL ID
LATI .           -44.186126:  LATITUDE
LONG .          172.6362332:  LONGITUDE
~Curve Information Block
#MNEM.UNIT         API CODE   Curve Description
#---------- ----------------  -----------------
DEPTH.M                    :  
BS   .IN                   :  Bit Size (Created in Geolog)
CALI .IN            UNKNOWN:  Caliper (CALI)
DTC  .US/F          UNKNOWN:  Sonic (DT)
GR   .GAPI          UNKNOWN:  Gamma Ray (GR)
GR_CORR.GAPI                 :  Gamma ray corrected
RESD .OHMM          UNKNOWN:  Laterolog Deep Resistivity (LLD)
RESS .OHMM          UNKNOWN:  Shallow Laterolog (LLS)
SP   .MV            UNKNOWN:  Spontaneous Potential (SP)
~Parameter Information Block
#MNEM.UNIT            Value   Description
#---------- ----------------  -----------
CUR_INT_BOT.M                1963:  Current interpolated bottom
PROJECT.     New Zealand Log QC Project:  
SET  .     A0_FINAL_INTER_REF_D:  
ELEVATION_AMSL.M                  10:  Elevation above mean sea level
ELEVATION_REF.                   RT:  Measurement reference
FORMATION_AT_TD.            Volcanics:  Formation at TD
LICENCE_NUMBER.               PPL685:  Licence number
ONSHORE_OR_OFFSHORE.             Offshore:  Onshore/offshore
PR_NUMBER.                PR648:  Petroleum report number
SEAFLOOR_ELEVATION_BMSL.M             74.0000:  Seafloor elevation below mean sea level
SPUD_DATE.           09/07/1975:  Spud date
STATUS_AT_COMPLETION.     Dry and abandoned:  Status at completion
TD_DATE.           27/07/1975:  Total depth date
TOTAL_DEPTH_DRILLED.M                1963:  Total depth drilled
WATER_DEPTH.M                  64:  Water depth
~Other Information Block
# 
~A       DEPTH             BS           CALI            DTC             GR        GR_CORR           RESD           RESS             SP 
# ...
    1537.56360        12.2500        13.2342       116.7932        26.8463      -999.2500         2.6820         2.0446        89.7239
    1537.71600        12.2500        13.2409       117.9761        27.0925      -999.2500         2.6579         2.0280        89.8437
    1537.86840        12.2500        13.2476       119.1591        27.3386      -999.2500         2.6339         2.0114        89.9634
    1538.02080        12.2500        13.2498       120.0953        27.4529      -999.2500         2.6167         2.0008        90.0620
    1538.17320        12.2500        13.2241       119.4702        26.7329      -999.2500         2.6426         2.0275        90.0265
    1538.32560        12.2500        13.1983       118.8452        26.0129      -999.2500         2.6685         2.0542        89.9911
    1538.47800        12.2500        13.1725       118.2201        25.2929      -999.2500         2.6944         2.0809        89.9556
    1538.63040        12.2500        13.1350       117.0774        25.1272      -999.2500         2.6750         2.0658        89.7979
    1538.78280        12.2500        13.0955       115.8474        25.0550      -999.2500         2.6479         2.0437        89.6197
    1538.93520        12.2500        13.0560       114.6174        24.9829      -999.2500         2.6208         2.0216        89.4414
    1539.08760        12.2500        13.0522       114.1770        24.9980      -999.2500         2.6127         2.0187        89.4031
    1539.24000        12.2500        13.0750       114.3208        25.0776      -999.2500         2.6186         2.0298        89.4685
    1539.39240        12.2500        13.0977       114.4647        25.1571      -999.2500         2.6244         2.0409        89.5339
    1539.54480        12.2500        13.1173       114.0844        25.2696      -999.2500         2.6162         2.0411        89.6079
    1539.69720        12.2500        13.1292       112.4453        25.4612      -999.2500         2.5741         2.0151        89.7028
    1539.84960        12.2500        13.1412       110.8061        25.6528      -999.2500         2.5319         1.9890        89.7977
    1540.00200        12.2500        13.1532       109.2192        25.8457      -999.2500         2.4911         1.9636        89.8918
    1540.15440        12.2500        13.1718       111.5527        26.1378      -999.2500         2.5483         1.9893        89.9301
    1540.30680        12.2500        13.1904       113.8861        26.4298      -999.2500         2.6056         2.0150        89.9685
    1540.45920        12.2500        13.2090       116.2196        26.7219      -999.2500         2.6628         2.0407        90.0068
    1540.61160        12.2500        13.2600       117.8484        26.3551      -999.2500         2.7735         2.1098        90.0062
    1540.76400        12.2500        13.3227       119.2194        25.7476      -999.2500         2.9038         2.1946        89.9915
    1540.91640        12.2500        13.3854       120.5905        25.1400      -999.2500         3.0341         2.2794        89.9768
    1541.06880        12.2500        13.4116       119.6520        24.8955      -999.2500         3.0686         2.3031        89.8578
    1541.22120        12.2500        13.3935       115.9072        25.0923      -999.2500         2.9867         2.2525        89.6123
    1541.37360        12.2500        13.3754       112.1623        25.2891      -999.2500         2.9047         2.2018        89.3668
    1541.52600        12.2500        13.3862       109.4432        25.4313      -999.2500         2.8262         2.1535        89.1551
    1541.67840        12.2500        13.5380       111.7105        25.3082      -999.2500         2.7644         2.1167        89.1074
    1541.83080        12.2500        13.6897       113.9779        25.1851      -999.2500         2.7026         2.0799        89.0598
    1541.98320        12.2500        13.8414       116.2453        25.0619      -999.2500         2.6408         2.0431        89.0121
    1542.13560        12.2500        13.9148       117.9401        25.2472      -999.2500         2.6272         2.0463        89.1862
    1542.28800        12.2500        13.9784       119.5639        25.4707      -999.2500         2.6196         2.0545        89.3877
    1542.44040        12.2500        14.0420       121.1878        25.6941      -999.2500         2.6120         2.0626        89.5892
    1542.59280        12.2500        14.1073       122.4733        25.9669      -999.2500         2.6237         2.0737        89.7987
    1542.74520        12.2500        14.1738       123.5414        26.2715      -999.2500         2.6478         2.0867        90.0132
    1542.89760        12.2500        14.2402       124.6096        26.5760      -999.2500         2.6720         2.0997        90.2277
    1543.05000        12.2500        14.3160       123.6417        26.9545      -999.2500         2.7152         2.1191        90.4164
    1543.20240        12.2500        14.4109       118.5042        27.4845      -999.2500         2.7976         2.1515        90.5520
    1543.35480        12.2500        14.5059       113.3666        28.0145      -999.2500         2.8799         2.1840        90.6877
    1543.50720        12.2500        14.5955       108.5824        28.4922      -999.2500         2.9587         2.2161        90.8137
    1543.65960        12.2500        14.5777       110.9243        27.9156      -999.2500         2.9658         2.2433        90.7466
    1543.81200        12.2500        14.5600       113.2662        27.3390      -999.2500         2.9729         2.2705        90.6794
    1543.96440        12.2500        14.5422       115.6081        26.7624      -999.2500         2.9800         2.2977        90.6123
    1544.11680        12.2500        14.5396       115.6107        26.6455      -999.2500         2.9177         2.2605        90.4540
    1544.26920        12.2500        14.5416       114.9002        26.6686      -999.2500         2.8343         2.2036        90.2679
    1544.42160        12.2500        14.5436       114.1898        26.6918      -999.2500         2.7508         2.1468        90.0818
    1544.57400        12.2500        14.4871       114.9289        27.0385      -999.2500         2.7109         2.1193        89.8590
    1544.72640        12.2500        14.3684       117.2037        27.7282      -999.2500         2.7170         2.1230        89.5973
    1544.87880        12.2500        14.2498       119.4786        28.4178      -999.2500         2.7232         2.1266        89.3356
    1545.03120        12.2500        14.1645       121.5716        28.9220      -999.2500         2.7341         2.1323        89.0893
    1545.18360        12.2500        14.2089       122.9582        28.7059      -999.2500         2.7634         2.1460        88.9032
    1545.33600        12.2500        14.2533       124.3449        28.4899      -999.2500         2.7927         2.1598        88.7171
    1545.48840        12.2500        14.2977       125.7315        28.2738      -999.2500         2.8221         2.1735        88.5310
    1545.64080        12.2500        14.4054       125.3408        27.8954      -999.2500         2.8544         2.1893        88.4280
    1545.79320        12.2500        14.5183       124.8037        27.5035      -999.2500         2.8871         2.2052        88.3319
    1545.94560        12.2500        14.6313       124.2665        27.1117      -999.2500         2.9197         2.2212        88.2359
    1546.09800        12.2500        14.6420       124.1811        26.8757      -999.2500         2.9478         2.2275        88.2078
    1546.25040        12.2500        14.5961       124.3463        26.7262      -999.2500         2.9734         2.2286        88.2174
    1546.40280        12.2500        14.5502       124.5116        26.5766      -999.2500         2.9990         2.2296        88.2270
    1546.55520        12.2500        14.4881       124.5955        26.3838      -999.2500         3.0081         2.2236        88.2797
