~Version Information Block
VERS .                 2.00:  CWLS LOG ASCII STANDARD - VERSION 2.00
WRAP .                   NO:  One line per depth step
~Well Information Block
#MNEM.UNIT        Data Type   Information
#---------- ----------------  -----------
STRT .M           377.95200:  START DEPTH
STOP .M          1955.59680:  STOP DEPTH
STEP .M             0.15240:  STEP
NULL .              -999.25:  NULL VALUE
COMP .                     :  COMPANY
WELL .         Resolution-1:  WELL
FLD  .                     :  FIELD
LOC  .                     :  LOCATION
CTRY .                     :  COUNTRY
STAT .                     :  STATE
CNTY .                     :  COUNTY
SRVC .     Shell BP Todd Canterbury Services Ltd:  SERVICE COMPANY
DATE .                     :  DATE
API  .                     :  API NUMBER
UWI  .         100000022150:  UNIQUE WELL ID
LATI .           -44.186126:  LATITUDE
LONG .          172.6362332:  LONGITUDE
~Curve Information Block
#MNEM.UNIT         API CODE   Curve Description
#---------- ----------------  -----------------
DEPTH.M                    :  
CALI .IN            UNKNOWN:  2  Caliper
DT   .US/F          UNKNOWN:  3  Sonic
LLD  .OHMM          UNKNOWN:  5  Latero-Log Deep
LLS  .OHMM          UNKNOWN:  6  Latero-Log Shallow
SP   .MV            UNKNOWN:  7  Spontaneous Potential
~Parameter Information Block
#MNEM.UNIT            Value   Description
#---------- ----------------  -----------
CUR_INT_BOT.M           1955.9016:  Current interpolated bottom
PROJECT.     New Zealand Log QC Project:  
SET  .      RAW_INTER_REF_D:  
ELEVATION_AMSL.M                  10:  Elevation above mean sea level
ELEVATION_REF.                   RT:  Measurement reference
FORMATION_AT_TD.            Volcanics:  Formation at TD
LICENCE_NUMBER.               PPL685:  Licence number
ONSHORE_OR_OFFSHORE.             Offshore:  Onshore/offshore
PR_NUMBER.                PR648:  Petroleum report number
SEAFLOOR_ELEVATION_BMSL.M             74.0000:  Seafloor elevation below mean sea level
SPUD_DATE.           09/07/1975:  Spud date
STATUS_AT_COMPLETION.     Dry and abandoned:  Status at completion
TD_DATE.           27/07/1975:  Total depth date
TOTAL_DEPTH_DRILLED.M                1963:  Total depth drilled
WATER_DEPTH.M                  64:  Water depth
~Other Information Block
# 
~A       DEPTH           CALI             DT            LLD            LLS             SP 
     377.95200        19.2156      -999.2500      -999.2500      -999.2500      -999.2500
     378.10440        19.2325      -999.2500      -999.2500      -999.2500      -999.2500
     378.25680        19.2671      -999.2500      -999.2500      -999.2500      -999.2500
     378.40920        19.2842      -999.2500      -999.2500      -999.2500      -999.2500
     378.56160        19.2663      -999.2500      -999.2500      -999.2500      -999.2500
     378.71400        19.2311      -999.2500      -999.2500      -999.2500      -999.2500
     378.86640        19.1970      -999.2500      -999.2500      -999.2500      -999.2500
     379.01880        19.1808      -999.2500      -999.2500      -999.2500      -999.2500
     379.17120        19.1925      -999.2500      -999.2500      -999.2500      -999.2500
     379.32360        19.2196      -999.2500      -999.2500         1.7036      -999.2500
     379.47600        19.2760      -999.2500      -999.2500         2.8162      -999.2500
     379.62840        19.2595      -999.2500      -999.2500         3.8094      -999.2500
     379.78080        18.5637      -999.2500         2.5434         4.4376      -999.2500
     379.93320        18.0825       116.6942         2.6565         4.8515      -999.2500
     380.08560        18.2128       118.8652         2.7943         4.9371      -999.2500
     380.23800        18.0418       120.3357         2.9225         4.9478        15.9045
     380.39040        18.0221       120.5538         2.9780         4.9612        14.8371
     380.54280        18.0708       120.3699         3.0003         4.9827        13.9133
     380.69520        18.0924       120.0319         3.0297         5.0378        12.9771
     380.84760        18.0683       119.6500         3.1628         5.1173        11.9104
     381.00000        18.0106       119.2285         3.2660         5.2040        10.8084
     381.15240        18.1067       119.3978         3.3122         5.2955         9.7166
     381.30480        18.3312       119.6430         3.3832         5.3629         8.6073
     381.45720        18.5300       119.3805         3.5780         5.3906         7.6958
     381.60960        18.5349       118.8239         3.7125         5.3107         6.8918
     381.76200        18.6839       118.1560         3.7466         5.2203         6.2259
     381.91440        18.7118       117.6840         3.7532         5.1605         5.6902
     382.06680        18.7380       117.1413         3.7400         5.1219         5.2948
     382.21920        18.7811       116.9764         3.7147         5.1044         5.1734
     382.37160        18.8513       116.9647         3.9940         5.1177         5.0874
     382.52400        18.9538       116.9711         4.3608         5.1497         5.1490
     382.67640        18.9336       117.1851         4.5309         5.2066         5.4194
     382.82880        18.7976       117.6395         4.6123         5.2553         5.8430
     382.98120        18.8100       118.2744         4.7191         5.2694         6.5081
     383.13360        18.9577       118.8647         4.8994         5.2392         7.2012
     383.28600        19.0663       119.1423         5.1202         5.1977         7.8885
     383.43840        19.1470       118.9452         5.2896         5.1588         8.3195
     383.59080        19.2113       118.5517         5.4835         5.1219         8.3858
     383.74320        19.3030       118.2872         5.7566         5.1122         7.9506
     383.89560        19.4344       118.4322         6.0857         5.1226         6.9046
     384.04800        19.5698       118.2724         6.3427         5.1224         5.6878
     384.20040        19.6678       117.6014         6.5695         5.1031         4.5248
     384.35280        19.4415       116.7354         6.7811         5.0411         3.4612
     384.50520        18.9961       115.8774         6.9035         4.9685         2.5229
     384.65760        18.8976       115.1420         6.9003         4.8940         1.6015
     384.81000        18.9853       115.0206         6.8523         4.8259         0.7941
     384.96240        19.5169       115.4285         6.7957         4.7629         0.3339
     385.11480        20.0156       116.0809         6.7448         4.7090        -0.1232
     385.26720        20.6155       116.6247         6.6989         4.6709        -0.4599
     385.41960        20.5720       116.9650         6.6735         4.6419        -0.5638
     385.57200        20.4962       117.1872         6.6644         4.6246        -0.4820
     385.72440        20.3124       117.4138         6.6601         4.6088        -0.2586
     385.87680        20.1709       117.7328         6.6950         4.5931         0.0526
     386.02920        19.9643       118.3372         6.7517         4.5831         0.3531
     386.18160        19.6400       119.4296         6.8142         4.6023         0.4246
     386.33400        19.3184       120.8736         6.8723         4.5999         0.2292
     386.48640        18.9758       125.2610         6.9348         4.5557        -0.1746
     386.63880        19.0574       139.3545         6.9790         4.4550        -0.6408
     386.79120        19.2883       161.2466         6.9484         4.3275        -1.1024
     386.94360        19.2793       178.7435         6.8608         4.2066        -1.5902
     387.09600        19.3927       196.2737         6.7390         4.0941        -1.9483
     387.24840        19.9759       200.5966         6.5982         3.9980        -2.0938
     387.40080        20.8588       201.1131         6.4534         3.9180        -1.9784
     387.55320        20.8112       200.6413         6.3067         3.8463        -1.6944
     387.70560        20.7445       199.9036         6.1921         3.7764        -1.3634
     387.85800        20.6110       199.0764         6.1042         3.7293        -0.9568
     388.01040        20.4075       198.2201         6.0595         3.7712        -0.5141
     388.16280        20.1593       197.0228         6.0132         3.8788        -0.1387
     388.31520        20.0228       195.3003         6.0243         4.0124         0.1310
     388.46760        20.5942       193.0091         6.0927         4.0086         0.3146
     388.62000        21.6169       190.0324         6.2791         4.0021         0.3456
     388.77240        22.1781       185.9371         6.5720         4.1347         0.2915
     388.92480        22.3656       179.5149         6.9038         4.3427         0.1355
     389.07720        22.3726       176.9563         7.2896         4.5420        -0.1093
     389.22960        22.3087       174.1204         7.5646         4.7942        -0.4521
     389.38200        22.1577       168.4383         7.6354         4.9567        -0.8528
     389.53440        21.8931       165.6299         7.5930         4.9909        -1.4053
     389.68680        21.4580       165.9777         7.5092         4.9883        -2.0278
     389.83920        21.0389       165.5403         7.4530         4.9733        -2.6595
     389.99160        20.8383       165.4236         7.4296         4.9727        -3.3298
     390.14400        20.7918       165.5925         7.4323         4.9960        -3.9663
     390.29640        20.7401       166.0423         7.4526         5.0226        -4.4944
     390.44880        20.6575       166.6544         7.4810         5.0560        -4.7496
     390.60120        20.5330       167.1426         7.4994         5.1299        -4.9105
     390.75360        20.3814       167.1504         7.5049         5.2249        -4.9221
     390.90600        20.1833       166.9738         7.4972         5.3419        -4.7256
     391.05840        20.0211       166.8491         7.4844         5.4609        -4.3888
     391.21080        20.0585       166.9440         7.4529         5.5333        -3.9283
     391.36320        20.1204       167.2607         7.3950         5.4939        -3.3309
