~Version Information Block
VERS .                 2.00:  CWLS LOG ASCII STANDARD - VERSION 2.00
WRAP .                   NO:  One line per depth step
~Well Information Block
#MNEM.UNIT        Data Type   Information
#---------- ----------------  -----------
STRT .M           377.95200:  START DEPTH
STOP .M          1955.59680:  STOP DEPTH
STEP .M             0.15240:  STEP
NULL .              -999.25:  NULL VALUE
COMP .                     :  COMPANY
WELL .         Resolution-1:  WELL
FLD  .                     :  FIELD
LOC  .                     :  LOCATION
CTRY .                     :  COUNTRY
STAT .                     :  STATE
CNTY .                     :  COUNTY
SRVC .     Shell BP Todd Canterbury Services Ltd:  SERVICE COMPANY
DATE .                     :  DATE
API  .                     :  API NUMBER
UWI  .         100000022150:  UNIQUE WELL ID
LATI .           -44.186126:  LATITUDE
LONG .          172.6362332:  LONGITUDE
~Curve Information Block
#MNEM.UNIT         API CODE   Curve Description
#---------- ----------------  -----------------
DEPTH.M                    :  
CALI .IN            UNKNOWN:  2  Caliper
DT   .US/F          UNKNOWN:  3  Sonic
LLD  .OHMM          UNKNOWN:  5  Latero-Log Deep
LLS  .OHMM          UNKNOWN:  6  Latero-Log Shallow
SP   .MV            UNKNOWN:  7  Spontaneous Potential
~Parameter Information Block
#MNEM.UNIT            Value   Description
#---------- ----------------  -----------
CUR_INT_BOT.M           1955.9016:  Current interpolated bottom
PROJECT.     New Zealand Log QC Project:  
SET  .      RAW_INTER_REF_D:  
ELEVATION_AMSL.M                  10:  Elevation above mean sea level
ELEVATION_REF.                   RT:  Measurement reference
FORMATION_AT_TD.            Volcanics:  Formation at TD
LICENCE_NUMBER.               PPL685:  Licence number
ONSHORE_OR_OFFSHORE.             Offshore:  Onshore/offshore
PR_NUMBER.                PR648:  Petroleum report number
SEAFLOOR_ELEVATION_BMSL.M             74.0000:  Seafloor elevation below mean sea level
SPUD_DATE.           09/07/1975:  Spud date
STATUS_AT_COMPLETION.     Dry and abandoned:  Status at completion
TD_DATE.           27/07/1975:  Total depth date
TOTAL_DEPTH_DRILLED.M                1963:  Total depth drilled
WATER_DEPTH.M                  64:  Water depth
~Other Information Block
# 
~A       DEPTH           CALI             DT            LLD            LLS             SP 
# ...
    1205.33160        17.6012       115.0000         1.6412         1.5208        55.2374
    1205.48400        17.5392       115.0000         1.6555         1.5183        55.2764
    1205.63640        17.4722       115.0000         1.7197         1.5277        55.4808
    1205.78880        17.4169       115.0000         1.7887         1.5185        55.6834
    1205.94120        17.3908       115.0000         1.5912         1.3073        55.0494
    1206.09360        17.3958       115.0000         1.2195         1.0363        55.0000
    1206.24600        17.4108       115.0000         1.0150      -999.2500        55.0000
    1206.39840        17.4355       115.0000         0.9892      -999.2500        55.0000
    1206.55080        17.4497       115.0000      -999.2500      -999.2500        55.0000
    1206.70320        17.3778       115.0000      -999.2500      -999.2500        55.0000
    1206.85560        17.2925       115.0000      -999.2500      -999.2500        55.0000
    1207.00800        17.2376       115.0000      -999.2500      -999.2500        55.0000
    1207.16040        17.1640       115.0000      -999.2500      -999.2500        55.0000
    1207.31280        16.7475       115.0000      -999.2500      -999.2500        55.0000
    1207.46520        12.8678       115.0000      -999.2500      -999.2500        55.0000
    1207.61760        12.6527       115.0000      -999.2500      -999.2500        55.0000
    1207.77000        12.7044       115.0000      -999.2500      -999.2500        55.0000
    1207.92240        12.6913       115.0000      -999.2500      -999.2500        55.0000
    1208.07480        12.6457       115.0000      -999.2500      -999.2500        55.0000
    1208.22720        12.5875       115.0000      -999.2500      -999.2500        55.0047
    1208.37960        12.5131       115.0000      -999.2500      -999.2500        55.1153
    1208.53200        12.4949       115.0000      -999.2500      -999.2500        55.8368
    1208.68440        12.5403       115.0000      -999.2500      -999.2500        57.0157
    1208.83680        12.5848       115.0000      -999.2500      -999.2500        58.1311
    1208.98920        12.6378       115.0000      -999.2500      -999.2500        59.1227
    1209.14160        12.6673       115.0000      -999.2500      -999.2500        59.8592
    1209.29400        12.6573       115.0000      -999.2500      -999.2500        59.7809
    1209.44640        12.6130       115.0000      -999.2500      -999.2500        58.2597
    1209.59880        12.5802       115.0000      -999.2500      -999.2500        56.8682
    1209.75120        12.5774       115.0000      -999.2500      -999.2500        54.7833
    1209.90360        12.6575       115.0000      -999.2500      -999.2500        52.4172
    1210.05600        12.8074       115.0000      -999.2500      -999.2500        50.3347
    1210.20840        12.9297       115.0000      -999.2500      -999.2500        48.9504
    1210.36080        13.0654       115.0000      -999.2500      -999.2500        48.1640
    1210.51320        13.2901       115.0000      -999.2500      -999.2500        47.9479
    1210.66560        13.6260       115.0000      -999.2500         0.3689        47.8899
    1210.81800        13.9344       115.0000      -999.2500         0.5247        47.9237
    1210.97040        14.2026       115.0000      -999.2500         0.9352        47.8919
    1211.12280        14.6636       115.0000         1.3572         1.1168        47.9258
    1211.27520        14.7888       115.0000         1.3994         1.2944        47.9312
    1211.42760        14.6503       115.0000         1.4338         1.4258        47.9767
    1211.58000        14.4627       115.0000         1.4331         1.4895        48.0440
    1211.73240        14.1752       115.0000         1.4749         1.5084        48.0746
    1211.88480        14.3435       115.0000         1.6156         1.5279        48.1447
    1212.03720        14.7134       115.0000         1.7210         1.5552        48.2108
    1212.18960        14.9780       115.0000         1.9113         1.6021        48.2946
    1212.34200        14.9128       115.0000         2.1583         1.6557        48.4909
    1212.49440        14.8665       116.5039         2.2306         1.7024        48.6095
    1212.64680        14.7983       136.2446         2.3781         1.7192        48.6291
    1212.79920        14.6242       136.8447         2.5711         1.7053        48.6401
    1212.95160        14.3746       141.0819         2.6127         1.6622        48.7053
    1213.10400        14.1447       145.8872         2.4865         1.6049        48.7473
    1213.25640        14.0406       153.5128         2.3360         1.5520        48.7090
    1213.40880        14.1333       162.9599         2.2261         1.5255        48.7053
    1213.56120        14.3294       164.9150         2.1848         1.5176        48.6997
    1213.71360        14.5528       162.3970         2.1594         1.5209        48.6311
    1213.86600        14.4987       160.0926         2.0881         1.5319        48.6232
    1214.01840        14.2763       162.0929         2.0210         1.5304        48.5955
    1214.17080        14.1457       166.3185         2.0568         1.5383        48.5936
    1214.32320        14.1718       174.2826         1.9909         1.5596        48.6038
    1214.47560        14.2764       171.4241         1.9230         1.5208        48.6250
    1214.62800        14.4890       165.2276         1.9884         1.4623        48.6636
    1214.78040        14.7488       159.6548         2.0728         1.4417        48.6213
    1214.93280        14.8708       157.4614         2.0594         1.4522        48.5604
    1215.08520        14.8560       156.5158         1.9191         1.4753        48.4844
    1215.23760        14.8181       159.8321         1.9170         1.5218        48.3597
    1215.39000        14.7971       159.8693         2.0133         1.6065        48.2294
    1215.54240        14.7982       155.7856         2.1191         1.6944        48.1075
    1215.69480        14.8110       154.2268         2.2104         1.7240        48.0217
    1215.84720        14.8457       152.2433         2.1822         1.6584        47.9321
    1215.99960        14.8908       151.7129         2.1146         1.5753        47.9096
    1216.15200        14.9217       153.2195         2.0459         1.5185        47.8662
    1216.30440        14.9253       153.8307         1.9831         1.4601        47.8419
    1216.45680        14.9089       154.5967         1.9384         1.4158        47.7547
    1216.60920        14.8773       154.4864         1.9227         1.3906        47.7378
    1216.76160        14.8438       156.5026         1.9385         1.3907        47.7365
    1216.91400        14.8139       161.0460         1.9849         1.4284        47.7374
    1217.06640        14.7898       160.8953         2.0444         1.4658        47.7599
    1217.21880        14.7755       161.7695         2.0797         1.4802        47.8091
    1217.37120        14.8144       163.1261         2.1002         1.4807        47.8088
    1217.52360        14.8807       162.6791         2.1013         1.4885        47.7545
    1217.67600        14.9244       156.8284         2.1098         1.5105        47.7345
    1217.82840        14.8888       148.5730         2.1494         1.5262        47.7359
    1217.98080        14.8319       146.0604         2.1698         1.5324        47.7763
    1218.13320        14.7838       144.2126         2.2072         1.5386        47.7788
    1218.28560        14.7591       144.0456         2.2488         1.5527        47.7792
    1218.43800        14.7543       142.2494         2.3131         1.5844        47.7874
    1218.59040        14.7539       130.9726         2.4461         1.6562        47.7526
    1218.74280        14.7603       124.0041         2.6015         1.7539        47.7304
