~Version Information Block
VERS .                 2.00:  CWLS LOG ASCII STANDARD - VERSION 2.00
WRAP .                   NO:  One line per depth step
~Well Information Block
#MNEM.UNIT        Data Type   Information
#---------- ----------------  -----------
STRT .M           377.95200:  START DEPTH
STOP .M          1955.59680:  STOP DEPTH
STEP .M             0.15240:  STEP
NULL .              -999.25:  NULL VALUE
COMP .                     :  COMPANY
WELL .         Resolution-1:  WELL
FLD  .                     :  FIELD
LOC  .                     :  LOCATION
CTRY .                     :  COUNTRY
STAT .                     :  STATE
CNTY .                     :  COUNTY
SRVC .     Shell BP Todd Canterbury Services Ltd:  SERVICE COMPANY
DATE .                     :  DATE
API  .                     :  API NUMBER
UWI  .         100000022150:  UNIQUE WELL ID
LATI .           -44.186126:  LATITUDE
LONG .          172.6362332:  LONGITUDE
~Curve Information Block
#MNEM.UNIT         API CODE   Curve Description
#---------- ----------------  -----------------
DEPTH.M                    :  
CALI .IN            UNKNOWN:  2  Caliper
DT   .US/F          UNKNOWN:  3  Sonic
LLD  .OHMM          UNKNOWN:  5  Latero-Log Deep
LLS  .OHMM          UNKNOWN:  6  Latero-Log Shallow
SP   .MV            UNKNOWN:  7  Spontaneous Potential
~Parameter Information Block
#MNEM.UNIT            Value   Description
#---------- ----------------  -----------
CUR_INT_BOT.M           1955.9016:  Current interpolated bottom
PROJECT.     New Zealand Log QC Project:  
SET  .      RAW_INTER_REF_D:  
ELEVATION_AMSL.M                  10:  Elevation above mean sea level
ELEVATION_REF.                   RT:  Measurement reference
FORMATION_AT_TD.            Volcanics:  Formation at TD
LICENCE_NUMBER.               PPL685:  Licence number
ONSHORE_OR_OFFSHORE.             Offshore:  Onshore/offshore
PR_NUMBER.                PR648:  Petroleum report number
SEAFLOOR_ELEVATION_BMSL.M             74.0000:  Seafloor elevation below mean sea level
SPUD_DATE.           09/07/1975:  Spud date
STATUS_AT_COMPLETION.     Dry and abandoned:  Status at completion
TD_DATE.           27/07/1975:  Total depth date
TOTAL_DEPTH_DRILLED.M                1963:  Total depth drilled
WATER_DEPTH.M                  64:  Water depth
~Other Information Block
# 
~A       DEPTH           CALI             DT            LLD            LLS             SP 
# ...
     798.42360        18.5922       138.3577         1.4522         1.3493        19.3805
     798.57600        18.7703       138.1037         1.4160         1.3194        19.1774
     798.72840        18.9137       137.7919         1.3954         1.2830        18.8515
     798.88080        18.9392       137.5070         1.3832         1.2465        18.5886
     799.03320        18.7388       137.3962         1.3818         1.2292        18.4551
     799.18560        18.6251       137.4657         1.3758         1.2260        18.5469
     799.33800        18.5430       137.5588         1.3487         1.2072        18.6355
     799.49040        18.4693       137.6092         1.3163         1.1686        18.7287
     799.64280        18.3981       137.3859         1.2964         1.1272        18.8698
     799.79520        18.3251       137.2326         1.2809         1.0937        19.0390
     799.94760        18.3071       138.0255         1.2620         1.0764        19.1214
     800.10000        18.3518       138.9494         1.2479         1.0716        19.1623
     800.25240        18.3833       139.8481         1.2397         1.0678        19.1864
     800.40480        18.2815       140.6225         1.2321         1.0629        19.1420
     800.55720        18.2337       141.2023         1.2288         1.0572        18.9305
     800.70960        18.2449       141.4674         1.2325         1.0571        18.7264
     800.86200        18.2210       141.4860         1.2444         1.0601        18.5688
     801.01440        18.2433       140.9041         1.2520         1.0653        18.3368
     801.16680        18.3373       140.3464         1.2610         1.0721        18.1071
     801.31920        18.3903       140.8837         1.2645         1.0782        17.9028
     801.47160        18.4124       141.6602         1.2595         1.0817        17.8511
     801.62400        18.4251       142.3899         1.2472         1.0755        18.0470
     801.77640        18.3924       142.6059         1.2408         1.0643        18.3637
     801.92880        18.3450       141.6875         1.2438         1.0541        18.6477
     802.08120        18.3408       141.1174         1.2473         1.0512        18.9931
     802.23360        18.4633       140.7167         1.2640         1.0552        19.3955
     802.38600        18.8107       140.2905         1.2862         1.0669        19.8485
     802.53840        19.0805       139.5918         1.2969         1.0785        20.3749
     802.69080        19.4158       138.6400         1.2979         1.0878        20.9408
     802.84320        19.6527       137.6996         1.2908         1.0908        21.5878
     802.99560        19.9112       138.2693         1.2857         1.0913        22.3285
     803.14800        20.0634       139.2010         1.2827         1.0918        23.0228
     803.30040        20.3024       139.7316         1.2761         1.0911        23.6227
     803.45280        20.5615       140.8061         1.2713         1.0870        24.1365
     803.60520        20.8097       141.6098         1.2665         1.0812        24.2561
     803.75760        21.0517       143.1309         1.2585         1.0746        23.7585
     803.91000        21.0233       142.7677         1.2546         1.0683        22.8337
     804.06240        20.3730       141.2376         1.2497         1.0608        21.8385
     804.21480        19.7246       139.5419         1.2506         1.0563        20.8559
     804.36720        19.2579       137.9826         1.2599         1.0583        20.2074
     804.51960        18.7170       136.7501         1.2719         1.0674        19.7473
     804.67200        18.3882       136.6183         1.2930         1.0851        19.6212
     804.82440        18.4026       137.7068         1.3211         1.1147        19.7174
     804.97680        18.5011       138.3156         1.3352         1.1466        19.9734
     805.12920        18.5763       138.4997         1.3339         1.1558        20.3131
     805.28160        18.6196       138.2566         1.3311         1.1590        20.8265
     805.43400        18.6441       137.7741         1.3315         1.1659        21.2059
     805.58640        18.6902       137.9815         1.3313         1.1770        21.5481
     805.73880        18.7774       138.0205         1.3335         1.1949        21.9013
     805.89120        18.8692       137.5822         1.3383         1.1993        22.3749
     806.04360        18.9451       137.2529         1.3408         1.1950        23.0486
     806.19600        18.9892       137.6466         1.3375         1.1851        24.0534
     806.34840        19.0014       138.3248         1.3320         1.1793        24.6819
     806.50080        18.9475       138.5134         1.3290         1.1757        23.9612
     806.65320        18.8696       138.0270         1.3257         1.1714        22.7585
     806.80560        18.7822       137.3381         1.3238         1.1673        21.7894
     806.95800        18.6619       136.9399         1.3219         1.1680        20.9815
     807.11040        18.4928       137.4878         1.3219         1.1722        20.4097
     807.26280        18.3999       137.7401         1.3249         1.1810        20.1190
     807.41520        18.3642       137.5270         1.3284         1.1936        20.3016
     807.56760        18.3423       137.1890         1.3345         1.2060        20.5454
     807.72000        18.3066       136.9522         1.3447         1.2197        20.7189
     807.87240        18.2614       136.8620         1.3594         1.2330        20.7966
     808.02480        18.2095       136.7211         1.3780         1.2467        20.7923
     808.17720        18.1758       136.4818         1.3983         1.2567        20.7577
     808.32960        18.2078       135.8134         1.4154         1.2657        20.6013
     808.48200        18.2750       135.0875         1.4188         1.2750        20.3614
     808.63440        18.3515       134.9116         1.4205         1.2796        20.0349
     808.78680        18.4178       135.2487         1.4198         1.2786        19.6516
     808.93920        18.4565       135.7640         1.4189         1.2751        19.3803
     809.09160        18.4647       136.2285         1.4182         1.2740        19.4075
     809.24400        18.4765       136.7068         1.4200         1.2737        19.6223
     809.39640        18.5048       136.9969         1.4194         1.2802        19.9247
     809.54880        18.5407       137.1818         1.4206         1.2850        20.2942
     809.70120        18.5655       137.3245         1.4221         1.2894        20.7066
     809.85360        18.5861       137.3404         1.4274         1.2949        21.1094
     810.00600        18.6060       137.3644         1.4370         1.3018        21.5409
     810.15840        18.6274       137.3051         1.4456         1.3064        21.9088
     810.31080        18.6314       137.2204         1.4472         1.3059        22.1615
     810.46320        18.6218       137.0774         1.4421         1.3043        22.2544
     810.61560        18.5877       137.0618         1.4386         1.3011        22.1872
     810.76800        18.5327       137.1173         1.4414         1.2990        21.9976
     810.92040        18.4534       137.1201         1.4495         1.2983        21.7342
     811.07280        18.3266       137.0419         1.4606         1.3013        21.4579
     811.22520        18.2102       136.8785         1.4787         1.3095        21.1083
     811.37760        18.2078       136.5370         1.4885         1.3232        20.7934
     811.53000        18.2516       136.1600         1.4834         1.3312        20.5252
     811.68240        18.3061       136.5992         1.4561         1.3157        20.3876
     811.83480        18.3959       138.0100         1.4324         1.2900        20.4170
