~Version Information Block
VERS .                 2.00:  CWLS LOG ASCII STANDARD - VERSION 2.00
WRAP .                   NO:  One line per depth step
~Well Information Block
#MNEM.UNIT        Data Type   Information
#---------- ----------------  -----------
STRT .M           377.95200:  START DEPTH
STOP .M          1955.59680:  STOP DEPTH
STEP .M             0.15240:  STEP
NULL .              -999.25:  NULL VALUE
COMP .                     :  COMPANY
WELL .         Resolution-1:  WELL
FLD  .                     :  FIELD
LOC  .                     :  LOCATION
CTRY .                     :  COUNTRY
STAT .                     :  STATE
CNTY .                     :  COUNTY
SRVC .     Shell BP Todd Canterbury Services Ltd:  SERVICE COMPANY
DATE .                     :  DATE
API  .                     :  API NUMBER
UWI  .         100000022150:  UNIQUE WELL ID
LATI .           -44.186126:  LATITUDE
LONG .          172.6362332:  LONGITUDE
~Curve Information Block
#MNEM.UNIT         API CODE   Curve Description
#---------- ----------------  -----------------
DEPTH.M                    :  
CALI .IN            UNKNOWN:  2  Caliper
DT   .US/F          UNKNOWN:  3  Sonic
LLD  .OHMM          UNKNOWN:  5  Latero-Log Deep
LLS  .OHMM          UNKNOWN:  6  Latero-Log Shallow
SP   .MV            UNKNOWN:  7  Spontaneous Potential
~Parameter Information Block
#MNEM.UNIT            Value   Description
#---------- ----------------  -----------
CUR_INT_BOT.M           1955.9016:  Current interpolated bottom
PROJECT.     New Zealand Log QC Project:  
SET  .      RAW_INTER_REF_D:  
ELEVATION_AMSL.M                  10:  Elevation above mean sea level
ELEVATION_REF.                   RT:  Measurement reference
FORMATION_AT_TD.            Volcanics:  Formation at TD
LICENCE_NUMBER.               PPL685:  Licence number
ONSHORE_OR_OFFSHORE.             Offshore:  Onshore/offshore
PR_NUMBER.                PR648:  Petroleum report number
SEAFLOOR_ELEVATION_BMSL.M             74.0000:  Seafloor elevation below mean sea level
SPUD_DATE.           09/07/1975:  Spud date
STATUS_AT_COMPLETION.     Dry and abandoned:  Status at completion
TD_DATE.           27/07/1975:  Total depth date
TOTAL_DEPTH_DRILLED.M                1963:  Total depth drilled
WATER_DEPTH.M                  64:  Water depth
~Other Information Block
# 
~A       DEPTH           CALI             DT            LLD            LLS             SP 
# ...
     581.40600        22.3788       144.4650         2.9161         2.1779        12.4587
     581.55840        22.3880       143.2948         2.9143         2.1937        12.2209
     581.71080        22.3776       142.0017         2.9317         2.2329        11.7991
     581.86320        22.3553       141.8704         2.9483         2.2500        11.2660
     582.01560        22.3368       141.6206         2.9318         2.2336        10.6948
     582.16800        22.3361       142.2538         2.8952         2.1989        10.0143
     582.32040        22.3395       147.2597         2.8649         2.1500         9.3336
     582.47280        22.3479       158.6393         2.8663         2.1049         8.6221
     582.62520        22.3542       171.9761         2.8961         2.0925         8.1760
     582.77760        22.3587       175.5409         2.9695         2.1247         7.9821
     582.93000        22.3596       174.7502         3.0082         2.1841         7.9482
     583.08240        22.3599       167.4812         2.9573         2.1893         8.0020
     583.23480        22.3570       155.6011         2.8719         2.1037         8.0844
     583.38720        22.3455       144.9351         2.7893         2.0338         8.2240
     583.53960        22.3219       142.2297         2.7560         2.0068         8.3629
     583.69200        22.2753       146.6405         2.8267         2.0339         8.4901
     583.84440        22.2285       152.5043         2.9081         2.0864         8.7332
     583.99680        22.1942       154.6894         2.9761         2.1521         9.0255
     584.14920        22.2467       152.5273         3.0255         2.1560         9.3614
     584.30160        22.3279       151.9644         3.0496         2.1698         9.7336
     584.45400        22.3743       155.1006         3.1069         2.2413        10.1398
     584.60640        22.3960       152.2990         3.0784         2.2614        10.6258
     584.75880        22.3973       148.1765         2.9227         2.1779        11.2611
     584.91120        22.3773       146.2186         2.7548         2.0684        11.6586
     585.06360        22.3274       145.7794         2.6359         1.9779        11.7479
     585.21600        22.2588       143.2587         2.6746         1.9417        11.7023
     585.36840        22.1594       140.1439         2.8252         1.9781        11.5496
     585.52080        22.0340       132.3340         2.8999         2.0594        11.3159
     585.67320        21.9486       129.7822         2.8068         2.1286        11.0186
     585.82560        22.0897       135.5094         2.7047         2.0697        10.6149
     585.97800        22.2562       144.2153         2.6132         1.9707        10.1660
     586.13040        22.3617       158.6423         2.5501         1.8882         9.6807
     586.28280        22.3802       168.7751         2.5128         1.8318         9.1947
     586.43520        22.3682       173.3712         2.5103         1.8046         8.7590
     586.58760        22.3653       169.1514         2.5242         1.8047         8.4613
     586.74000        22.3637       160.9122         2.5353         1.8257         8.2147
     586.89240        22.3593       154.6777         2.5487         1.8458         8.1167
     587.04480        22.3549       156.4866         2.5618         1.8588         8.1572
     587.19720        22.3494       159.6161         2.5657         1.8673         8.2689
     587.34960        22.3499       155.2185         2.5623         1.8695         8.4727
     587.50200        22.3550       148.1429         2.5520         1.8677         8.7416
     587.65440        22.3662       144.7944         2.5377         1.8602         8.9497
     587.80680        22.3800       146.3447         2.5402         1.8553         9.0241
     587.95920        22.3934       146.4591         2.5577         1.8716         9.0418
     588.11160        22.4119       145.0617         2.5928         1.8983         8.9501
     588.26400        22.4198       143.9727         2.6290         1.9292         8.7269
     588.41640        22.4088       143.2912         2.6679         1.9670         8.5204
     588.56880        22.3850       144.0834         2.7076         2.0146         8.3806
     588.72120        22.3349       143.8348         2.7467         2.0579         8.3199
     588.87360        22.2259       142.0756         2.7805         2.0992         8.3858
     589.02600        22.0262       141.3496         2.8225         2.1456         8.5699
     589.17840        21.6979       142.3151         2.8552         2.1908         8.7887
     589.33080        21.2719       144.3969         2.8885         2.2224         9.0958
     589.48320        21.0251       146.0979         2.9280         2.2379         9.5152
     589.63560        21.0774       144.7591         2.9700         2.2151         9.9887
     589.78800        21.1294       145.0566         2.9670         2.1635        10.3592
     589.94040        21.1804       143.7832         2.8975         2.1053        10.5620
     590.09280        21.5301       140.8474         2.8086         2.0428        10.5903
     590.24520        21.9583       140.6815         2.7263         1.9783        10.4735
     590.39760        22.3734       140.1168         2.6688         1.9282        10.1974
     590.55000        22.4431       140.1386         2.6297         1.8977         9.8981
     590.70240        22.4302       141.2914         2.5953         1.8785         9.4877
     590.85480        22.4066       143.6731         2.5655         1.8780         9.0364
     591.00720        22.3888       148.2473         2.5523         1.8759         8.5344
     591.15960        22.3761       154.1908         2.5547         1.8777         7.9899
     591.31200        22.3650       159.4498         2.5621         1.8845         7.4713
     591.46440        22.3621       158.2832         2.5695         1.8981         7.2287
     591.61680        22.3627       149.7758         2.5694         1.9131         7.1652
     591.76920        22.3651       146.1305         2.5590         1.9113         7.3379
     591.92160        22.3708       147.9620         2.5439         1.9029         7.7491
     592.07400        22.3804       149.7806         2.5394         1.8946         8.2188
     592.22640        22.3943       147.4991         2.5521         1.8902         8.7026
     592.37880        22.4121       144.6867         2.5785         1.8916         9.1921
     592.53120        22.4278       141.2558         2.6262         1.9093         9.6747
     592.68360        22.4393       140.5864         2.6725         1.9406        10.1902
     592.83600        22.4433       142.2595         2.6695         1.9439        10.7101
     592.98840        22.4479       144.2248         2.6034         1.8826        11.1608
     593.14080        22.4430       145.7509         2.5259         1.8270        11.3910
     593.29320        22.4360       145.3305         2.5159         1.7941        11.4964
     593.44560        22.4281       147.4531         2.4913         1.7908        11.4315
     593.59800        22.4157       151.4037         2.4448         1.7734        11.2687
     593.75040        22.3978       156.1978         2.3810         1.7305        11.0829
     593.90280        22.3825       153.3829         2.3231         1.6802        10.8697
     594.05520        22.3662       150.5981         2.2837         1.6419        10.6013
     594.20760        22.3513       155.6460         2.2948         1.6310        10.2046
     594.36000        22.3453       163.2127         2.3341         1.6772         9.7651
     594.51240        22.3434       160.1689         2.3897         1.7426         9.3493
     594.66480        22.3468       152.5748         2.4643         1.8074         8.9086
     594.81720        22.3552       132.4620         2.5578         1.8595         8.4693
