~Version Information Block
VERS .                 2.00:  CWLS LOG ASCII STANDARD - VERSION 2.00
WRAP .                   NO:  One line per depth step
~Well Information Block
#MNEM.UNIT        Data Type   Information
#---------- ----------------  -----------
STRT .M            74.52360:  START DEPTH
STOP .M          1955.44440:  STOP DEPTH
STEP .M             0.15240:  STEP
NULL .              -999.25:  NULL VALUE
COMP .                     :  COMPANY
WELL .         Resolution-1:  WELL
FLD  .                     :  FIELD
LOC  .                     :  LOCATION
CTRY .                     :  COUNTRY
STAT .                     :  STATE
CNTY .                     :  COUNTY
SRVC .     Shell BP Todd Canterbury Services Ltd:  SERVICE COMPANY
DATE .                     :  DATE
API  .                     :  API NUMBER
UWI  .         100000022150:  UNIQUE WELL ID
LATI .           -44.186126:  LATITUDE
LONG .          172.6362332:  LONGITUDE
~Curve Information Block
#MNEM.UNIT         API CODE   Curve Description
#---------- ----------------  -----------------
DEPTH.M                    :  
BS   .IN                   :  Bit Size (Created in Geolog)
CALI .IN            UNKNOWN:  Caliper (CALI)
DTC  .US/F          UNKNOWN:  Sonic (DT)
GR   .GAPI          UNKNOWN:  Gamma Ray (GR)
GR_CORR.GAPI                 :  Gamma ray corrected
RESD .OHMM          UNKNOWN:  Laterolog Deep Resistivity (LLD)
RESS .OHMM          UNKNOWN:  Shallow Laterolog (LLS)
SP   .MV            UNKNOWN:  Spontaneous Potential (SP)
~Parameter Information Block
#MNEM.UNIT            Value   Description
#---------- ----------------  -----------
CUR_INT_BOT.M                1963:  Current interpolated bottom
PROJECT.     New Zealand Log QC Project:  
SET  .     A0_FINAL_INTER_REF_D:  
ELEVATION_AMSL.M                  10:  Elevation above mean sea level
ELEVATION_REF.                   RT:  Measurement reference
FORMATION_AT_TD.            Volcanics:  Formation at TD
LICENCE_NUMBER.               PPL685:  Licence number
ONSHORE_OR_OFFSHORE.             Offshore:  Onshore/offshore
PR_NUMBER.                PR648:  Petroleum report number
SEAFLOOR_ELEVATION_BMSL.M             74.0000:  Seafloor elevation below mean sea level
SPUD_DATE.           09/07/1975:  Spud date
STATUS_AT_COMPLETION.     Dry and abandoned:  Status at completion
TD_DATE.           27/07/1975:  Total depth date
TOTAL_DEPTH_DRILLED.M                1963:  Total depth drilled
WATER_DEPTH.M                  64:  Water depth
~Other Information Block
# 
~A       DEPTH             BS           CALI            DTC             GR        GR_CORR           RESD           RESS             SP 
# ...
    1949.04360        12.2500        14.0056        58.0026        29.1924      -999.2500        33.7817        18.8710        76.4357
    1949.19600        12.2500        13.9865        57.9483        29.0017      -999.2500        36.1952        19.6278        76.5967
    1949.34840        12.2500        13.9675        57.8941        28.8110      -999.2500        38.6088        20.3845        76.7577
    1949.50080        12.2500        13.9476        57.8404        28.6225      -999.2500        41.0280        21.1471        76.9159
    1949.65320        12.2500        13.7710        57.9023        28.8460      -999.2500        44.5391        23.0112        76.5514
    1949.80560        12.2500        13.5944        57.9642        29.0695      -999.2500        48.0503        24.8754        76.1869
    1949.95800        12.2500        13.4178        58.0260        29.2930      -999.2500        51.5614        26.7395        75.8225
    1950.11040        12.2500        13.3481        58.2456        29.4006      -999.2500        50.1545        25.9900        75.6348
    1950.26280        12.2500        13.3191        58.5252        29.4641      -999.2500        46.8767        24.2462        75.5145
    1950.41520        12.2500        13.2901        58.8048        29.5276      -999.2500        43.5989        22.5024        75.3941
    1950.56760        12.2500        13.2509        59.1555        29.5561      -999.2500        40.7352        21.1630        75.4256
    1950.72000        12.2500        13.1989        59.5953        29.5405      -999.2500        38.3907        20.3307        75.6476
    1950.87240        12.2500        13.1469        60.0351        29.5249      -999.2500        36.0463        19.4984        75.8697
    1951.02480        12.2500        13.0893        60.2660      -999.2500      -999.2500        34.3564        19.0276        76.0647
    1951.17720        12.2500        13.0031        59.4219      -999.2500      -999.2500        36.0339        20.4171        76.1205
    1951.32960        12.2500        12.9169        58.5778      -999.2500      -999.2500        37.7114        21.8065        76.1763
    1951.48200        12.2500        12.8306        57.7336      -999.2500      -999.2500        39.3890        23.1959        76.2322
    1951.63440        12.2500        12.7885        58.2427      -999.2500      -999.2500        42.4136        24.9942        76.1460
    1951.78680        12.2500        12.7523        58.9330      -999.2500      -999.2500        45.6187        26.8473        76.0408
    1951.93920        12.2500        12.7161        59.6233      -999.2500      -999.2500        48.8238        28.7003        75.9356
    1952.09160        12.2500        12.6805        59.4374      -999.2500      -999.2500        51.7615        30.4443        76.0046
    1952.24400        12.2500        12.6454        58.6699      -999.2500      -999.2500        54.5218        32.1159        76.1893
    1952.39640        12.2500        12.6102        57.9025      -999.2500      -999.2500        57.2820        33.7874        76.3740
    1952.54880        12.2500        12.5860        57.1521      -999.2500      -999.2500      -999.2500      -999.2500        76.4498
    1952.70120        12.2500        12.5850        56.4380      -999.2500      -999.2500      -999.2500      -999.2500        76.2943
    1952.85360        12.2500        12.5839        55.7239      -999.2500      -999.2500      -999.2500      -999.2500        76.1390
    1953.00600        12.2500        12.5843        55.0373      -999.2500      -999.2500      -999.2500      -999.2500        75.9902
    1953.15840        12.2500        12.6208        55.0235      -999.2500      -999.2500      -999.2500      -999.2500        76.0039
    1953.31080        12.2500        12.6573        55.0096      -999.2500      -999.2500      -999.2500      -999.2500        76.0175
    1953.46320        12.2500        12.6938        54.9958      -999.2500      -999.2500      -999.2500      -999.2500        76.0311
    1953.61560        12.2500        12.6664        54.5723      -999.2500      -999.2500      -999.2500      -999.2500        75.8997
    1953.76800        12.2500        12.6186        54.0184      -999.2500      -999.2500      -999.2500      -999.2500        75.7221
    1953.92040        12.2500        12.5708        53.4645      -999.2500      -999.2500      -999.2500      -999.2500        75.5445
    1954.07280        12.2500        12.5785        53.5275      -999.2500      -999.2500      -999.2500      -999.2500        75.5605
    1954.22520        12.2500        12.6468        54.2650      -999.2500      -999.2500      -999.2500      -999.2500        75.7882
    1954.37760        12.2500        12.7150        55.0024      -999.2500      -999.2500      -999.2500      -999.2500        76.0158
    1954.53000        12.2500        12.7618        55.7188      -999.2500      -999.2500      -999.2500      -999.2500      -999.2500
    1954.68240        12.2500        12.7208        56.3488      -999.2500      -999.2500      -999.2500      -999.2500      -999.2500
    1954.83480        12.2500        12.6798        56.9788      -999.2500      -999.2500      -999.2500      -999.2500      -999.2500
    1954.98720        12.2500        12.6388        57.6088      -999.2500      -999.2500      -999.2500      -999.2500      -999.2500
    1955.13960        12.2500      -999.2500        57.8858      -999.2500      -999.2500      -999.2500      -999.2500      -999.2500
    1955.29200        12.2500      -999.2500        58.1304      -999.2500      -999.2500      -999.2500      -999.2500      -999.2500
    1955.44440        12.2500      -999.2500        58.3750      -999.2500      -999.2500      -999.2500      -999.2500      -999.2500
