~Version Information Block
VERS .                 2.00:  CWLS LOG ASCII STANDARD - VERSION 2.00
WRAP .                   NO:  One line per depth step
~Well Information Block
#MNEM.UNIT        Data Type   Information
#---------- ----------------  -----------
STRT .M           377.95200:  START DEPTH
STOP .M          1955.59680:  STOP DEPTH
STEP .M             0.15240:  STEP
NULL .              -999.25:  NULL VALUE
COMP .                     :  COMPANY
WELL .         Resolution-1:  WELL
FLD  .                     :  FIELD
LOC  .                     :  LOCATION
CTRY .                     :  COUNTRY
STAT .                     :  STATE
CNTY .                     :  COUNTY
SRVC .     Shell BP Todd Canterbury Services Ltd:  SERVICE COMPANY
DATE .                     :  DATE
API  .                     :  API NUMBER
UWI  .         100000022150:  UNIQUE WELL ID
LATI .           -44.186126:  LATITUDE
LONG .          172.6362332:  LONGITUDE
~Curve Information Block
#MNEM.UNIT         API CODE   Curve Description
#---------- ----------------  -----------------
DEPTH.M                    :  
CALI .IN            UNKNOWN:  2  Caliper
DT   .US/F          UNKNOWN:  3  Sonic
LLD  .OHMM          UNKNOWN:  5  Latero-Log Deep
LLS  .OHMM          UNKNOWN:  6  Latero-Log Shallow
SP   .MV            UNKNOWN:  7  Spontaneous Potential
~Parameter Information Block
#MNEM.UNIT            Value   Description
#---------- ----------------  -----------
CUR_INT_BOT.M           1955.9016:  Current interpolated bottom
PROJECT.     New Zealand Log QC Project:  
SET  .      RAW_INTER_REF_D:  
ELEVATION_AMSL.M                  10:  Elevation above mean sea level
ELEVATION_REF.                   RT:  Measurement reference
FORMATION_AT_TD.            Volcanics:  Formation at TD
LICENCE_NUMBER.               PPL685:  Licence number
ONSHORE_OR_OFFSHORE.             Offshore:  Onshore/offshore
PR_NUMBER.                PR648:  Petroleum report number
SEAFLOOR_ELEVATION_BMSL.M             74.0000:  Seafloor elevation below mean sea level
SPUD_DATE.           09/07/1975:  Spud date
STATUS_AT_COMPLETION.     Dry and abandoned:  Status at completion
TD_DATE.           27/07/1975:  Total depth date
TOTAL_DEPTH_DRILLED.M                1963:  Total depth drilled
WATER_DEPTH.M                  64:  Water depth
~Other Information Block
# 
~A       DEPTH           CALI             DT            LLD            LLS             SP 
# ...
    1001.87760        19.8861       130.8508         1.3984         1.2638        37.1056
    1002.03000        20.1305       130.9438         1.4053         1.2761        37.4555
    1002.18240        20.2242       132.6198         1.4206         1.2965        37.6310
    1002.33480        19.9236       134.0759         1.4356         1.3125        37.3040
    1002.48720        19.4644       132.9169         1.4456         1.3178        36.6475
    1002.63960        18.9225       131.0271         1.4513         1.3157        35.8031
    1002.79200        18.4031       129.3859         1.4534         1.3207        35.0479
    1002.94440        17.9098       129.4220         1.4562         1.3311        34.4766
    1003.09680        17.7296       128.9499         1.4615         1.3387        34.0252
    1003.24920        17.6516       128.2285         1.4723         1.3447        33.8814
    1003.40160        17.6050       127.9885         1.4805         1.3492        33.9382
    1003.55400        17.5804       128.5659         1.4810         1.3500        34.0854
    1003.70640        17.5691       129.3932         1.4751         1.3467        34.3807
    1003.85880        17.5575       129.4207         1.4638         1.3325        34.8030
    1004.01120        17.5350       129.0320         1.4488         1.3170        35.4283
    1004.16360        17.5041       128.9801         1.4361         1.3047        36.1109
    1004.31600        17.4681       129.0213         1.4230         1.2925        36.7917
    1004.46840        17.4262       129.2707         1.4138         1.2854        37.5389
    1004.62080        17.3840       129.4755         1.4047         1.2815        38.2987
    1004.77320        17.3712       129.9169         1.3984         1.2769        39.0339
    1004.92560        17.3780       130.1072         1.3976         1.2764        39.8056
    1005.07800        17.3996       131.0014         1.3972         1.2795        40.5512
    1005.23040        17.4194       132.0233         1.3967         1.2842        41.0926
    1005.38280        17.4363       131.5014         1.3964         1.2902        40.7084
    1005.53520        17.4567       129.5668         1.3979         1.2966        39.5339
    1005.68760        17.4812       128.2693         1.4053         1.3011        38.2732
    1005.84000        17.5009       128.7970         1.4136         1.3058        37.3124
    1005.99240        17.5179       130.3094         1.4211         1.3088        36.5771
    1006.14480        17.5297       131.8345         1.4283         1.3106        36.0276
    1006.29720        17.5246       131.7306         1.4323         1.3110        35.6622
    1006.44960        17.5129       131.2262         1.4349         1.3123        35.3509
    1006.60200        17.4969       130.9564         1.4344         1.3131        35.0681
    1006.75440        17.4878       130.8656         1.4310         1.3141        34.9124
    1006.90680        17.4817       130.8493         1.4266         1.3115        34.8734
    1007.05920        17.4826       130.7033         1.4267         1.3103        34.9208
    1007.21160        17.4790       130.4433         1.4270         1.3085        35.0203
    1007.36400        17.4629       129.4750         1.4325         1.3081        35.1530
    1007.51640        17.4326       128.4305         1.4396         1.3086        35.3557
    1007.66880        17.3970       128.9657         1.4488         1.3113        35.4235
    1007.82120        17.3589       128.0116         1.4562         1.3165        35.3830
    1007.97360        17.3250       127.5246         1.4643         1.3185        35.2684
    1008.12600        17.3066       129.0691         1.4756         1.3222        35.1447
    1008.27840        17.3253       130.7770         1.4841         1.3356        35.0069
    1008.43080        17.3764       131.8216         1.4907         1.3460        34.8315
    1008.58320        17.4440       130.1086         1.4928         1.3503        34.7416
    1008.73560        17.4977       127.9173         1.4891         1.3476        34.7056
    1008.88800        17.5265       126.8452         1.4806         1.3452        34.6414
    1009.04040        17.5334       127.2529         1.4748         1.3432        34.6287
    1009.19280        17.5390       128.0209         1.4675         1.3357        34.6974
    1009.34520        17.5404       128.6189         1.4615         1.3239        34.8509
    1009.49760        17.5503       128.9343         1.4506         1.3168        35.0535
    1009.65000        17.5615       128.8581         1.4435         1.3133        35.2147
    1009.80240        17.5793       128.5264         1.4398         1.3112        35.2825
    1009.95480        17.6015       128.1307         1.4373         1.3123        35.1962
    1010.10720        17.6238       127.9856         1.4370         1.3122        35.0242
    1010.25960        17.6516       128.0620         1.4402         1.3140        34.8122
    1010.41200        17.6739       128.3262         1.4418         1.3098        34.5944
    1010.56440        17.7009       128.4876         1.4342         1.3020        34.3964
    1010.71680        17.7280       127.9378         1.4194         1.2922        34.3153
    1010.86920        17.7636       127.0600         1.4090         1.2871        34.3617
    1011.02160        17.8046       126.9712         1.4033         1.2843        34.4680
    1011.17400        17.8373       128.2198         1.4027         1.2780        34.5719
    1011.32640        17.8514       129.2619         1.4041         1.2761        34.6200
    1011.47880        17.8550       129.3659         1.4044         1.2756        34.5946
    1011.63120        17.8368       129.4163         1.4099         1.2757        34.4982
    1011.78360        17.8022       129.6672         1.4186         1.2830        34.3508
    1011.93600        17.7644       129.5414         1.4272         1.2915        34.2089
    1012.08840        17.7166       129.4908         1.4406         1.2994        34.2613
    1012.24080        17.6679       129.5573         1.4485         1.3075        34.4620
    1012.39320        17.6211       129.5136         1.4452         1.3137        34.6094
    1012.54560        17.5909       128.7274         1.4317         1.3095        34.5492
    1012.69800        17.5730       128.1934         1.4251         1.3024        34.4894
    1012.85040        17.5516       128.6633         1.4284         1.2948        34.6982
    1013.00280        17.5453       129.4257         1.4327         1.2910        34.9852
    1013.15520        17.5483       129.8839         1.4367         1.2964        35.2494
    1013.30760        17.5552       129.8717         1.4404         1.3052        35.4476
    1013.46000        17.5656       129.0501         1.4442         1.3175        35.5255
    1013.61240        17.5763       127.5283         1.4540         1.3311        35.4641
    1013.76480        17.5869       127.0290         1.4758         1.3463        35.3404
    1013.91720        17.5991       127.5996         1.4879         1.3519        35.2128
    1014.06960        17.6197       128.6341         1.4598         1.3266        35.0319
    1014.22200        17.6376       127.7978         1.4386         1.3070        34.9210
    1014.37440        17.6556       125.8446         1.4325         1.2994        34.8071
    1014.52680        17.6676       123.7482         1.4293         1.3024        34.7512
    1014.67920        17.6557       122.1723         1.4311         1.3047        34.9412
    1014.83160        17.6243       121.4785         1.4322         1.3111        35.4534
    1014.98400        17.6026       122.0607         1.4358         1.3199        36.0230
    1015.13640        17.5972       123.2000         1.4391         1.3293        36.5532
    1015.28880        17.5964       124.3973         1.4438         1.3318        36.9599
