~Version Information Block
VERS .                 2.00:  CWLS LOG ASCII STANDARD - VERSION 2.00
WRAP .                   NO:  One line per depth step
~Well Information Block
#MNEM.UNIT        Data Type   Information
#---------- ----------------  -----------
STRT .M           377.95200:  START DEPTH
STOP .M          1955.59680:  STOP DEPTH
STEP .M             0.15240:  STEP
NULL .              -999.25:  NULL VALUE
COMP .                     :  COMPANY
WELL .         Resolution-1:  WELL
FLD  .                     :  FIELD
LOC  .                     :  LOCATION
CTRY .                     :  COUNTRY
STAT .                     :  STATE
CNTY .                     :  COUNTY
SRVC .     Shell BP Todd Canterbury Services Ltd:  SERVICE COMPANY
DATE .                     :  DATE
API  .                     :  API NUMBER
UWI  .         100000022150:  UNIQUE WELL ID
LATI .           -44.186126:  LATITUDE
LONG .          172.6362332:  LONGITUDE
~Curve Information Block
#MNEM.UNIT         API CODE   Curve Description
#---------- ----------------  -----------------
DEPTH.M                    :  
CALI .IN            UNKNOWN:  2  Caliper
DT   .US/F          UNKNOWN:  3  Sonic
LLD  .OHMM          UNKNOWN:  5  Latero-Log Deep
LLS  .OHMM          UNKNOWN:  6  Latero-Log Shallow
SP   .MV            UNKNOWN:  7  Spontaneous Potential
~Parameter Information Block
#MNEM.UNIT            Value   Description
#---------- ----------------  -----------
CUR_INT_BOT.M           1955.9016:  Current interpolated bottom
PROJECT.     New Zealand Log QC Project:  
SET  .      RAW_INTER_REF_D:  
ELEVATION_AMSL.M                  10:  Elevation above mean sea level
ELEVATION_REF.                   RT:  Measurement reference
FORMATION_AT_TD.            Volcanics:  Formation at TD
LICENCE_NUMBER.               PPL685:  Licence number
ONSHORE_OR_OFFSHORE.             Offshore:  Onshore/offshore
PR_NUMBER.                PR648:  Petroleum report number
SEAFLOOR_ELEVATION_BMSL.M             74.0000:  Seafloor elevation below mean sea level
SPUD_DATE.           09/07/1975:  Spud date
STATUS_AT_COMPLETION.     Dry and abandoned:  Status at completion
TD_DATE.           27/07/1975:  Total depth date
TOTAL_DEPTH_DRILLED.M                1963:  Total depth drilled
WATER_DEPTH.M                  64:  Water depth
~Other Information Block
# 
~A       DEPTH           CALI             DT            LLD            LLS             SP 
# ...
    1422.34920        12.9832       129.4695         1.0904         1.1239        57.2345
    1422.50160        12.9824       128.7694         1.1049         1.1394        57.1451
    1422.65400        12.8920       128.2444         1.1232         1.1621        57.1978
    1422.80640        12.7812       128.1458         1.1420         1.1859        57.2708
    1422.95880        12.7627       128.6868         1.1665         1.2109        57.3430
    1423.11120        12.8400       128.9193         1.1940         1.2321        57.3829
    1423.26360        12.8211       128.2146         1.2163         1.2513        57.5280
    1423.41600        12.7792       127.8401         1.2297         1.2678        57.7530
    1423.56840        12.7742       126.9910         1.2427         1.2773        58.0263
    1423.72080        12.7922       126.6905         1.2621         1.2919        58.3410
    1423.87320        12.8159       126.4287         1.2904         1.3055        58.6556
    1424.02560        12.8361       126.6589         1.3237         1.3191        58.9569
    1424.17800        12.8387       127.3614         1.3396         1.3383        59.2639
    1424.33040        12.8162       128.3224         1.3451         1.3512        59.5081
    1424.48280        12.7975       129.4976         1.3420         1.3473        59.6421
    1424.63520        12.7723       130.4214         1.3299         1.3323        59.6484
    1424.78760        12.7530       130.7399         1.3100         1.3160        59.5767
    1424.94000        12.7447       129.9541         1.2848         1.2965        59.4876
    1425.09240        12.7413       128.9750         1.2566         1.2781        59.3564
    1425.24480        12.7502       127.9340         1.2336         1.2626        59.1790
    1425.39720        12.7581       128.2007         1.2162         1.2504        58.9876
    1425.54960        12.7589       129.0218         1.2040         1.2447        58.9558
    1425.70200        12.7583       129.6252         1.1930         1.2412        59.0361
    1425.85440        12.7637       129.9570         1.1863         1.2381        59.1414
    1426.00680        12.7706       129.6264         1.1873         1.2347        59.2042
    1426.15920        12.7792       129.2785         1.1916         1.2372        59.2986
    1426.31160        12.7850       128.8137         1.1915         1.2401        59.4144
    1426.46400        12.7840       128.2260         1.1905         1.2457        59.5050
    1426.61640        12.7650       128.0894         1.1883         1.2448        59.5852
    1426.76880        12.7590       128.3244         1.1869         1.2410        59.6666
    1426.92120        12.7642       128.2199         1.1869         1.2411        59.7350
    1427.07360        12.7810       128.0225         1.1874         1.2458        59.7714
    1427.22600        12.8018       128.1495         1.1940         1.2555        59.7359
    1427.37840        12.8218       128.4204         1.2057         1.2684        59.6656
    1427.53080        12.8306       128.0289         1.2280         1.2842        59.5548
    1427.68320        12.8303       127.4465         1.2587         1.3041        59.3619
    1427.83560        12.8198       126.7767         1.2932         1.3334        59.1634
    1427.98800        12.8023       126.2591         1.3318         1.3664        58.9216
    1428.14040        12.7772       126.1733         1.3722         1.3954        58.8485
    1428.29280        12.7438       126.4148         1.4142         1.4168        58.9171
    1428.44520        12.7207       126.4821         1.4508         1.4390        58.9620
    1428.59760        12.7055       126.5165         1.4753         1.4590        59.0353
    1428.75000        12.7169       126.7164         1.4903         1.4769        59.1067
    1428.90240        12.7298       126.9026         1.5016         1.4836        59.1998
    1429.05480        12.7381       126.9481         1.4848         1.4737        59.3646
    1429.20720        12.7316       126.8944         1.4577         1.4524        59.5498
    1429.35960        12.7229       126.7960         1.4190         1.4257        59.7481
    1429.51200        12.7142       126.6840         1.3883         1.4030        59.9571
    1429.66440        12.7137       126.5300         1.3799         1.3986        60.1370
    1429.81680        12.7378       126.3713         1.4059         1.4131        60.2747
    1429.96920        12.7743       126.1472         1.4401         1.4310        60.1740
    1430.12160        12.7886       125.7841         1.4545         1.4497        59.9947
    1430.27400        12.7654       125.3323         1.4691         1.4716        59.7463
    1430.42640        12.7278       124.8809         1.4913         1.4954        59.5171
    1430.57880        12.7024       124.4637         1.5152         1.5233        59.3275
    1430.73120        12.6999       124.1985         1.5288         1.5446        59.1469
    1430.88360        12.7157       124.1560         1.5384         1.5660        58.9347
    1431.03600        12.7392       124.2825         1.5608         1.5853        58.7747
    1431.18840        12.7711       124.5166         1.6018         1.6025        58.6452
    1431.34080        12.8038       124.8943         1.6329         1.6227        58.6173
    1431.49320        12.8101       125.3329         1.6636         1.6414        58.6399
    1431.64560        12.7963       125.8834         1.6888         1.6535        58.7342
    1431.79800        12.7747       126.6131         1.7048         1.6548        58.8694
    1431.95040        12.7513       127.4143         1.7104         1.6478        59.0457
    1432.10280        12.7625       128.0668         1.7068         1.6379        59.2522
    1432.25520        12.8252       128.1631         1.6934         1.6236        59.4544
    1432.40760        12.9168       127.9835         1.6786         1.6114        59.7011
    1432.56000        13.0116       127.7577         1.6681         1.6056        59.9998
    1432.71240        13.1093       126.9844         1.6606         1.6034        60.2055
    1432.86480        13.1810       126.4359         1.6466         1.5971        60.3030
    1433.01720        13.2125       126.0135         1.6312         1.5967        60.2060
    1433.16960        13.2006       124.7069         1.6160         1.5895        60.0630
    1433.32200        13.1866       123.2262         1.6147         1.5843        59.8451
    1433.47440        13.2375       121.8856         1.6184         1.5841        59.6037
    1433.62680        13.3304       121.1851         1.6256         1.5843        59.2981
    1433.77920        13.4057       121.1672         1.6329         1.5854        59.0432
    1433.93160        13.4490       119.7605         1.6470         1.5997        58.8891
    1434.08400        13.5157       119.3960         1.6740         1.6223        58.7620
    1434.23640        13.6159       119.4797         1.7038         1.6416        58.7165
    1434.38880        13.6727       118.1594         1.7277         1.6528        58.6556
    1434.54120        13.6031       118.1392         1.7442         1.6566        58.6866
    1434.69360        13.5621       117.9933         1.7430         1.6535        58.7829
    1434.84600        13.5545       116.8933         1.7284         1.6469        58.9299
    1434.99840        13.6218       117.1210         1.7346         1.6422        59.0473
    1435.15080        13.7182       117.6227         1.7542         1.6498        59.0883
    1435.30320        13.7624       117.2097         1.7650         1.6625        59.1205
    1435.45560        13.7231       116.8283         1.7728         1.6701        59.0847
    1435.60800        13.7166       116.8917         1.7680         1.6716        59.0875
    1435.76040        13.7565       117.4104         1.7494         1.6536        59.1402
