~Version Information Block
VERS .                 2.00:  CWLS LOG ASCII STANDARD - VERSION 2.00
WRAP .                   NO:  One line per depth step
~Well Information Block
#MNEM.UNIT        Data Type   Information
#---------- ----------------  -----------
STRT .M           390.60120:  START DEPTH
STOP .M          1234.44000:  STOP DEPTH
STEP .M             0.15240:  STEP
NULL .              -999.25:  NULL VALUE
COMP .                     :  COMPANY
WELL .         Resolution-1:  WELL
FLD  .                     :  FIELD
LOC  .                     :  LOCATION
CTRY .                     :  COUNTRY
STAT .                     :  STATE
CNTY .                     :  COUNTY
SRVC .     Shell BP Todd Canterbury Services Ltd:  SERVICE COMPANY
DATE .                     :  DATE
API  .                     :  API NUMBER
UWI  .         100000022150:  UNIQUE WELL ID
LATI .           -44.186126:  LATITUDE
LONG .          172.6362332:  LONGITUDE
~Curve Information Block
#MNEM.UNIT         API CODE   Curve Description
#---------- ----------------  -----------------
DEPTH.M                    :  Measured Depth (MD)
CT   .MH/M                 :  True formation conductivity
FPRESS.PSI                  :  Formation/hydrostatic pressure
FTEMP.DEGC                 :  Formation temperature
HMC_POR.IN                   :  Mudcake from nuclear/porosity
HMC_RES.IN                   :  Mudcake from resistivity/sonic
RM   .OHMM                 :  Mud resistivity
RMC  .OHMM                 :  Mudcake resistivity
RMF  .OHMM                 :  Mud filtrate resistivity
~Parameter Information Block
#MNEM.UNIT            Value   Description
#---------- ----------------  -----------
CUR_INT_BOT.M                1963:  Current interpolated bottom
PROJECT.     New Zealand Log QC Project:  
SET  .            EC_CURVES:  
ELEVATION_AMSL.M                  10:  Elevation above mean sea level
ELEVATION_REF.                   RT:  Measurement reference
FORMATION_AT_TD.            Volcanics:  Formation at TD
LICENCE_NUMBER.               PPL685:  Licence number
ONSHORE_OR_OFFSHORE.             Offshore:  Onshore/offshore
PR_NUMBER.                PR648:  Petroleum report number
SEAFLOOR_ELEVATION_BMSL.M             74.0000:  Seafloor elevation below mean sea level
SPUD_DATE.           09/07/1975:  Spud date
STATUS_AT_COMPLETION.     Dry and abandoned:  Status at completion
TD_DATE.           27/07/1975:  Total depth date
TOTAL_DEPTH_DRILLED.M                1963:  Total depth drilled
WATER_DEPTH.M                  64:  Water depth
~Other Information Block
# 
~A       DEPTH             CT         FPRESS          FTEMP        HMC_POR        HMC_RES             RM            RMC            RMF 
# ...
    1222.70520    -999.250000      2083.9583        41.0298         2.7368         2.7368       0.360390       0.479971       0.251779
    1222.85760    -999.250000      2084.2180        41.0334         2.7708         2.7708       0.360369       0.479943       0.251765
    1223.01000    -999.250000      2084.4778        41.0371         2.8016         2.8016       0.360348       0.479915       0.251750
    1223.16240    -999.250000      2084.7375        41.0407         2.7875         2.7875       0.360327       0.479888       0.251735
    1223.31480    -999.250000      2084.9973        41.0443         2.7733         2.7733       0.360306       0.479860       0.251721
    1223.46720    -999.250000      2085.2571        41.0479         2.7592         2.7592       0.360285       0.479832       0.251706
    1223.61960    -999.250000      2085.5168        41.0515         2.7311         2.7311       0.360265       0.479804       0.251692
    1223.77200    -999.250000      2085.7766        41.0551         2.6992         2.6992       0.360244       0.479777       0.251677
    1223.92440    -999.250000      2086.0361        41.0588         2.6673         2.6673       0.360223       0.479749       0.251663
    1224.07680    -999.250000      2086.2959        41.0624         2.6678         2.6678       0.360202       0.479721       0.251648
    1224.22920    -999.250000      2086.5557        41.0660         2.7001         2.7001       0.360181       0.479693       0.251633
    1224.38160    -999.250000      2086.8154        41.0696         2.7324         2.7324       0.360160       0.479666       0.251619
    1224.53400    -999.250000      2087.0752        41.0732         2.7527         2.7527       0.360140       0.479638       0.251604
    1224.68640    -999.250000      2087.3350        41.0769         2.7308         2.7308       0.360119       0.479610       0.251590
    1224.83880    -999.250000      2087.5947        41.0805         2.7089         2.7089       0.360098       0.479582       0.251575
    1224.99120    -999.250000      2087.8545        41.0841         2.6871         2.6871       0.360077       0.479555       0.251561
    1225.14360    -999.250000      2088.1140        41.0877         2.6858         2.6858       0.360056       0.479527       0.251546
    1225.29600    -999.250000      2088.3738        41.0913         2.6859         2.6859       0.360036       0.479499       0.251532
    1225.44840    -999.250000      2088.6335        41.0949         2.6859         2.6859       0.360015       0.479472       0.251517
    1225.60080    -999.250000      2088.8933        41.0986         2.6970         2.6970       0.359994       0.479444       0.251503
    1225.75320    -999.250000      2089.1531        41.1022         2.7138         2.7138       0.359973       0.479416       0.251488
    1225.90560    -999.250000      2089.4128        41.1058         2.7306         2.7306       0.359952       0.479389       0.251473
    1226.05800    -999.250000      2089.6726        41.1094         2.7382         2.7382       0.359931       0.479361       0.251459
    1226.21040    -999.250000      2089.9324        41.1130         2.7307         2.7307       0.359911       0.479333       0.251444
    1226.36280    -999.250000      2090.1921        41.1167         2.7233         2.7233       0.359890       0.479305       0.251430
    1226.51520    -999.250000      2090.4519        41.1203         2.7156         2.7156       0.359869       0.479278       0.251415
    1226.66760    -999.250000      2090.7117        41.1239         2.7060         2.7060       0.359848       0.479250       0.251401
    1226.82000    -999.250000      2090.9714        41.1275         2.6965         2.6965       0.359828       0.479222       0.251386
    1226.97240    -999.250000      2091.2312        41.1311         2.6869         2.6869       0.359807       0.479195       0.251372
    1227.12480    -999.250000      2091.4910        41.1347         2.7477         2.7477       0.359786       0.479167       0.251357
    1227.27720    -999.250000      2091.7507        41.1384         2.8241         2.8241       0.359765       0.479139       0.251343
    1227.42960    -999.250000      2092.0105        41.1420         2.9005         2.9005       0.359744       0.479112       0.251328
    1227.58200    -999.250000      2092.2703        41.1456         3.0971         3.0971       0.359724       0.479084       0.251314
    1227.73440    -999.250000      2092.5300        41.1492         3.3970         3.3970       0.359703       0.479056       0.251299
    1227.88680    -999.250000      2092.7896        41.1528         3.6969         3.6969       0.359682       0.479029       0.251285
    1228.03920    -999.250000      2093.0493        41.1565         3.9063         3.9063       0.359661       0.479001       0.251270
    1228.19160    -999.250000      2093.3091        41.1601         3.8542         3.8542       0.359641       0.478973       0.251256
    1228.34400    -999.250000      2093.5688        41.1637         3.8022         3.8022       0.359620       0.478946       0.251241
    1228.49640    -999.250000      2093.8286        41.1673         3.7502         3.7502       0.359599       0.478918       0.251227
    1228.64880    -999.250000      2094.0884        41.1709         3.7733         3.7733       0.359578       0.478890       0.251212
    1228.80120    -999.250000      2094.3481        41.1745         3.7982         3.7982       0.359557       0.478863       0.251198
    1228.95360    -999.250000      2094.6079        41.1782         3.8231         3.8231       0.359537       0.478835       0.251183
    1229.10600    -999.250000      2094.8677        41.1818         3.8317         3.8317       0.359516       0.478807       0.251169
    1229.25840    -999.250000      2095.1274        41.1854         3.8331         3.8331       0.359495       0.478780       0.251154
    1229.41080    -999.250000      2095.3872        41.1890         3.8346         3.8346       0.359474       0.478752       0.251140
    1229.56320    -999.250000      2095.6470        41.1926         3.7911         3.7911       0.359454       0.478725       0.251125
    1229.71560    -999.250000      2095.9067        41.1963         3.6843         3.6843       0.359433       0.478697       0.251111
    1229.86800    -999.250000      2096.1665        41.1999         3.5774         3.5774       0.359412       0.478669       0.251096
    1230.02040    -999.250000      2096.4263        41.2035         3.4528         3.4528       0.359391       0.478642       0.251082
    1230.17280    -999.250000      2096.6860        41.2071         3.2127         3.2127       0.359371       0.478614       0.251067
    1230.32520    -999.250000      2096.9456        41.2107         2.9726         2.9726       0.359350       0.478586       0.251053
    1230.47760    -999.250000      2097.2053        41.2143         2.7325         2.7325       0.359329       0.478559       0.251038
    1230.63000    -999.250000      2097.4651        41.2180         2.6888         2.6888       0.359309       0.478531       0.251024
    1230.78240    -999.250000      2097.7249        41.2216         2.6790         2.6790       0.359288       0.478504       0.251009
    1230.93480    -999.250000      2097.9846        41.2252         2.6691         2.6691       0.359267       0.478476       0.250995
    1231.08720    -999.250000      2098.2444        41.2288         2.6792         2.6792       0.359246       0.478448       0.250980
    1231.23960    -999.250000      2098.5042        41.2324         2.7043         2.7043       0.359226       0.478421       0.250966
    1231.39200    -999.250000      2098.7639        41.2361         2.7294         2.7294       0.359205       0.478393       0.250951
    1231.54440    -999.250000      2099.0237        41.2397         2.7785         2.7785       0.359184       0.478366       0.250937
    1231.69680    -999.250000      2099.2834        41.2433         2.8860         2.8860       0.359164       0.478338       0.250922
