~Version Information Block
VERS .                 2.00:  CWLS LOG ASCII STANDARD - VERSION 2.00
WRAP .                   NO:  One line per depth step
~Well Information Block
#MNEM.UNIT        Data Type   Information
#---------- ----------------  -----------
STRT .M           377.95200:  START DEPTH
STOP .M          1955.59680:  STOP DEPTH
STEP .M             0.15240:  STEP
NULL .              -999.25:  NULL VALUE
COMP .                     :  COMPANY
WELL .         Resolution-1:  WELL
FLD  .                     :  FIELD
LOC  .                     :  LOCATION
CTRY .                     :  COUNTRY
STAT .                     :  STATE
CNTY .                     :  COUNTY
SRVC .     Shell BP Todd Canterbury Services Ltd:  SERVICE COMPANY
DATE .                     :  DATE
API  .                     :  API NUMBER
UWI  .         100000022150:  UNIQUE WELL ID
LATI .           -44.186126:  LATITUDE
LONG .          172.6362332:  LONGITUDE
~Curve Information Block
#MNEM.UNIT         API CODE   Curve Description
#---------- ----------------  -----------------
DEPTH.M                    :  
CALI .IN            UNKNOWN:  2  Caliper
DT   .US/F          UNKNOWN:  3  Sonic
LLD  .OHMM          UNKNOWN:  5  Latero-Log Deep
LLS  .OHMM          UNKNOWN:  6  Latero-Log Shallow
SP   .MV            UNKNOWN:  7  Spontaneous Potential
~Parameter Information Block
#MNEM.UNIT            Value   Description
#---------- ----------------  -----------
CUR_INT_BOT.M           1955.9016:  Current interpolated bottom
PROJECT.     New Zealand Log QC Project:  
SET  .      RAW_INTER_REF_D:  
ELEVATION_AMSL.M                  10:  Elevation above mean sea level
ELEVATION_REF.                   RT:  Measurement reference
FORMATION_AT_TD.            Volcanics:  Formation at TD
LICENCE_NUMBER.               PPL685:  Licence number
ONSHORE_OR_OFFSHORE.             Offshore:  Onshore/offshore
PR_NUMBER.                PR648:  Petroleum report number
SEAFLOOR_ELEVATION_BMSL.M             74.0000:  Seafloor elevation below mean sea level
SPUD_DATE.           09/07/1975:  Spud date
STATUS_AT_COMPLETION.     Dry and abandoned:  Status at completion
TD_DATE.           27/07/1975:  Total depth date
TOTAL_DEPTH_DRILLED.M                1963:  Total depth drilled
WATER_DEPTH.M                  64:  Water depth
~Other Information Block
# 
~A       DEPTH           CALI             DT            LLD            LLS             SP 
# ...
    1110.38640        17.8244       138.0760         1.1123         0.9291        49.2557
    1110.53880        17.8277       137.8546         1.1085         0.9347        49.6651
    1110.69120        17.8180       136.2980         1.1097         0.9429        50.1242
    1110.84360        17.8137       135.0231         1.1116         0.9563        50.5553
    1110.99600        17.8172       134.2431         1.1170         0.9670        50.6364
    1111.14840        17.8231       133.8446         1.1316         0.9806        50.3900
    1111.30080        17.8323       134.0348         1.1471         0.9930        50.2317
    1111.45320        17.8394       134.4114         1.1518         1.0097        50.4097
    1111.60560        17.8401       134.3019         1.1622         1.0339        50.5734
    1111.75800        17.8357       133.2096         1.1899         1.0650        50.1246
    1111.91040        17.8208       130.6186         1.2252         1.0987        49.1961
    1112.06280        17.7955       127.5379         1.2683         1.1332        48.2490
    1112.21520        17.7669       124.5015         1.3153         1.1662        47.2543
    1112.36760        17.7358       124.1070         1.3419         1.2017        46.2096
    1112.52000        17.7021       125.6844         1.3336         1.2332        44.9907
    1112.67240        17.6673       127.3690         1.3332         1.2518        44.2195
    1112.82480        17.6564       129.3650         1.3475         1.2651        43.8298
    1112.97720        17.6611       132.8683         1.3656         1.2759        43.5016
    1113.12960        17.6665       131.7186         1.3790         1.2883        43.2023
    1113.28200        17.6625       128.9053         1.3922         1.3041        42.8872
    1113.43440        17.6482       125.0900         1.4072         1.3203        42.5076
    1113.58680        17.6391       125.0107         1.4203         1.3332        42.2168
    1113.73920        17.6327       124.8846         1.4281         1.3461        42.0109
    1113.89160        17.6307       124.8039         1.4345         1.3599        41.9116
    1114.04400        17.6422       124.7622         1.4398         1.3652        42.0542
    1114.19640        17.6474       125.6218         1.4424         1.3672        42.4467
    1114.34880        17.6577       127.5337         1.4397         1.3591        42.9346
    1114.50120        17.6752       127.0487         1.4319         1.3463        43.6370
    1114.65360        17.7009       125.4053         1.4169         1.3241        44.4995
    1114.80600        17.7306       124.3912         1.3985         1.2978        45.3604
    1114.95840        17.7542       124.7038         1.3788         1.2772        46.1551
    1115.11080        17.7559       124.6309         1.3591         1.2612        46.5337
    1115.26320        17.7409       124.8834         1.3462         1.2544        46.5213
    1115.41560        17.7241       124.8737         1.3379         1.2539        46.2202
    1115.56800        17.6987       124.5365         1.3418         1.2584        45.6486
    1115.72040        17.6780       124.7627         1.3536         1.2689        44.8589
    1115.87280        17.6915       125.8359         1.3629         1.2749        43.9786
    1116.02520        17.7215       126.8416         1.3749         1.2835        43.2027
    1116.17760        17.7573       124.7679         1.3951         1.2994        42.5199
    1116.33000        17.7949       122.0941         1.4181         1.3189        41.9496
    1116.48240        17.8198       120.5930         1.4264         1.3375        41.5205
    1116.63480        17.8170       120.0730         1.4272         1.3327        41.1929
    1116.78720        17.7811       121.0052         1.4310         1.3296        40.9661
    1116.93960        17.7293       121.5678         1.4438         1.3367        41.0698
    1117.09200        17.6876       120.1253         1.4596         1.3500        41.3820
    1117.24440        17.6645       119.9340         1.4698         1.3582        41.8238
    1117.39680        17.6596       121.3528         1.4747         1.3645        42.2764
    1117.54920        17.6631       122.0138         1.4766         1.3658        42.7288
    1117.70160        17.6643       120.5567         1.4760         1.3641        43.2021
    1117.85400        17.6544       119.6308         1.4711         1.3606        43.7059
    1118.00640        17.6430       119.3717         1.4607         1.3469        44.2483
    1118.15880        17.6262       119.3183         1.4490         1.3415        44.5346
    1118.31120        17.6120       119.8319         1.4416         1.3459        44.6965
    1118.46360        17.6083       120.8668         1.4549         1.3523        44.5560
    1118.61600        17.6136       121.6750         1.4673         1.3578        44.2393
    1118.76840        17.6318       122.5951         1.4705         1.3580        43.9217
    1118.92080        17.6561       123.0821         1.4653         1.3511        43.6035
    1119.07320        17.6729       123.0855         1.4500         1.3338        43.2901
    1119.22560        17.6795       122.3618         1.4323         1.3143        42.9803
    1119.37800        17.6882       121.8950         1.4167         1.2972        42.7611
    1119.53040        17.6910       121.7598         1.4038         1.2851        42.6786
    1119.68280        17.6849       122.0172         1.3966         1.2795        42.7736
    1119.83520        17.6741       122.9605         1.3910         1.2787        43.2175
    1119.98760        17.6665       123.2945         1.3850         1.2754        43.7546
    1120.14000        17.6644       123.5475         1.3811         1.2731        44.3916
    1120.29240        17.6631       125.6565         1.3764         1.2707        44.8990
    1120.44480        17.6694       126.8821         1.3731         1.2706        45.1845
    1120.59720        17.6851       127.4458         1.3708         1.2743        45.2669
    1120.74960        17.7089       127.4212         1.3705         1.2787        45.1172
    1120.90200        17.7205       125.9481         1.3735         1.2849        44.7799
    1121.05440        17.6717       123.9186         1.3792         1.2895        44.3561
    1121.20680        17.6194       124.2007         1.3877         1.2926        44.0786
    1121.35920        17.6038       124.8414         1.3930         1.2955        43.8965
    1121.51160        17.5939       122.9988         1.3979         1.2999        43.8104
    1121.66400        17.5796       122.5359         1.4030         1.3045        43.7827
    1121.81640        17.5676       123.7634         1.4106         1.3111        43.7799
    1121.96880        17.5661       123.1315         1.4187         1.3170        43.8359
    1122.12120        17.5737       123.7954         1.4211         1.3215        43.9339
    1122.27360        17.5797       123.5605         1.4222         1.3241        44.1633
    1122.42600        17.5734       123.6657         1.4246         1.3330        44.3613
    1122.57840        17.5737       122.4795         1.4332         1.3480        44.5223
    1122.73080        17.5866       124.1980         1.4504         1.3597        44.6175
    1122.88320        17.6046       123.2449         1.4678         1.3844        44.6808
    1123.03560        17.6309       124.7316         1.5067         1.4149        44.6820
    1123.18800        17.6505       124.1608         1.5433         1.4419        44.6012
    1123.34040        17.6635       122.8332         1.5105         1.4123        44.5162
    1123.49280        17.6561       121.1098         1.4754         1.3751        44.3609
    1123.64520        17.6177       118.7757         1.4413         1.3499        44.2011
    1123.79760        17.5646       120.5150         1.4432         1.3550        44.0534
