~Version Information Block
VERS .                 2.00:  CWLS LOG ASCII STANDARD - VERSION 2.00
WRAP .                   NO:  One line per depth step
~Well Information Block
#MNEM.UNIT        Data Type   Information
#---------- ----------------  -----------
STRT .M           377.95200:  START DEPTH
STOP .M          1955.59680:  STOP DEPTH
STEP .M             0.15240:  STEP
NULL .              -999.25:  NULL VALUE
COMP .                     :  COMPANY
WELL .         Resolution-1:  WELL
FLD  .                     :  FIELD
LOC  .                     :  LOCATION
CTRY .                     :  COUNTRY
STAT .                     :  STATE
CNTY .                     :  COUNTY
SRVC .     Shell BP Todd Canterbury Services Ltd:  SERVICE COMPANY
DATE .                     :  DATE
API  .                     :  API NUMBER
UWI  .         100000022150:  UNIQUE WELL ID
LATI .           -44.186126:  LATITUDE
LONG .          172.6362332:  LONGITUDE
~Curve Information Block
#MNEM.UNIT         API CODE   Curve Description
#---------- ----------------  -----------------
DEPTH.M                    :  
CALI .IN            UNKNOWN:  2  Caliper
DT   .US/F          UNKNOWN:  3  Sonic
LLD  .OHMM          UNKNOWN:  5  Latero-Log Deep
LLS  .OHMM          UNKNOWN:  6  Latero-Log Shallow
SP   .MV            UNKNOWN:  7  Spontaneous Potential
~Parameter Information Block
#MNEM.UNIT            Value   Description
#---------- ----------------  -----------
CUR_INT_BOT.M           1955.9016:  Current interpolated bottom
PROJECT.     New Zealand Log QC Project:  
SET  .      RAW_INTER_REF_D:  
ELEVATION_AMSL.M                  10:  Elevation above mean sea level
ELEVATION_REF.                   RT:  Measurement reference
FORMATION_AT_TD.            Volcanics:  Formation at TD
LICENCE_NUMBER.               PPL685:  Licence number
ONSHORE_OR_OFFSHORE.             Offshore:  Onshore/offshore
PR_NUMBER.                PR648:  Petroleum report number
SEAFLOOR_ELEVATION_BMSL.M             74.0000:  Seafloor elevation below mean sea level
SPUD_DATE.           09/07/1975:  Spud date
STATUS_AT_COMPLETION.     Dry and abandoned:  Status at completion
TD_DATE.           27/07/1975:  Total depth date
TOTAL_DEPTH_DRILLED.M                1963:  Total depth drilled
WATER_DEPTH.M                  64:  Water depth
~Other Information Block
# 
~A       DEPTH           CALI             DT            LLD            LLS             SP 
# ...
    1734.31200        13.6596        95.3165         5.0086         4.1212        76.6778
    1734.46440        13.6151        95.4329         5.0132         4.1324        76.4347
    1734.61680        13.5733        95.5092         5.0113         4.1430        76.1544
    1734.76920        13.5392        95.5849         5.0081         4.1538        75.8521
    1734.92160        13.5241        95.5440         4.9934         4.1593        75.5620
    1735.07400        13.5212        95.3441         4.9759         4.1642        75.3972
    1735.22640        13.5151        95.2214         4.9478         4.1594        75.3369
    1735.37880        13.4975        95.1414         4.9101         4.1528        75.3085
    1735.53120        13.4695        95.0680         4.8639         4.1132        75.2706
    1735.68360        13.4435        95.2144         4.8041         4.0438        75.2668
    1735.83600        13.4254        95.3724         4.7201         3.9725        75.3706
    1735.98840        13.4209        95.7403         4.6525         3.9184        75.4867
    1736.14080        13.4276        95.7989         4.6125         3.8774        75.6498
    1736.29320        13.4331        95.7576         4.5988         3.8583        75.7977
    1736.44560        13.4263        95.9509         4.6031         3.8492        75.9937
    1736.59800        13.4050        96.0554         4.6394         3.8417        76.2651
    1736.75040        13.3667        95.8787         4.6714         3.8378        76.4226
    1736.90280        13.3335        95.6680         4.6956         3.8500        76.5658
    1737.05520        13.3031        95.4815         4.7191         3.8830        76.6037
    1737.20760        13.2876        95.5187         4.7361         3.9082        76.6392
    1737.36000        13.2709        95.6414         4.7236         3.8989        76.6656
    1737.51240        13.2617        95.7435         4.6538         3.8714        76.7298
    1737.66480        13.2536        95.8566         4.5737         3.7948        76.7618
    1737.81720        13.2281        95.9469         4.5143         3.7365        76.6950
    1737.96960        13.1899        96.0033         4.4930         3.7024        76.5953
    1738.12200        13.1517        95.9724         4.4810         3.6880        76.4540
    1738.27440        13.1147        95.8887         4.4788         3.6965        76.3895
    1738.42680        13.0824        95.6831         4.4865         3.6991        76.3603
    1738.57920        13.0548        95.3906         4.5181         3.7122        76.3516
    1738.73160        13.0253        95.1022         4.5629         3.7394        76.3851
    1738.88400        12.9946        94.8422         4.6163         3.7918        76.5786
    1739.03640        12.9620        94.5521         4.6684         3.8562        76.8195
    1739.18880        12.9199        94.1960         4.7388         3.9181        77.0892
    1739.34120        12.8392        93.8758         4.8126         3.9042        77.4510
    1739.49360        12.7476        93.8002         4.7834         3.8091        77.8292
    1739.64600        12.6447        94.4887         4.6194         3.6683        78.2024
    1739.79840        12.5477        95.4154         4.4120         3.4867        78.6456
    1739.95080        12.4630        96.1957         4.2041         3.3195        78.9954
    1740.10320        12.4003        96.9770         4.0393         3.1596        79.2465
    1740.25560        12.3792        97.8656         3.9063         3.0525        79.3722
    1740.40800        12.3769        98.2498         3.8303         3.0380        79.4778
    1740.56040        12.3811        98.2776         3.8082         3.0303        79.5949
    1740.71280        12.3887        98.3046         3.8486         3.0226        79.6982
    1740.86520        12.3916        98.2986         3.8982         3.0372        79.7514
    1741.01760        12.3863        98.1666         3.9471         3.0617        79.7052
    1741.17000        12.3844        97.9689         3.9754         3.1188        79.6897
    1741.32240        12.3830        97.8679         3.9610         3.1588        79.6553
    1741.47480        12.3842        98.5766         3.8767         3.1299        79.6684
    1741.62720        12.3939        99.4436         3.7671         3.0471        79.6397
    1741.77960        12.4071       100.1217         3.6282         2.9441        79.6911
    1741.93200        12.4337       100.6211         3.4794         2.8258        79.7148
    1742.08440        12.4656       100.9257         3.3729         2.7231        79.7820
    1742.23680        12.5158       100.9429         3.3733         2.7078        79.8472
    1742.38920        12.5724       100.6673         3.4306         2.7473        79.8982
    1742.54160        12.6115       100.1843         3.4863         2.7873        79.9461
    1742.69400        12.5624        99.5492         3.5599         2.8214        80.0003
    1742.84640        12.4704        98.8107         3.6447         2.8927        79.9860
    1742.99880        12.3957        98.0242         3.7269         2.9930        79.8648
    1743.15120        12.3844        97.5452         3.7438         2.9953        79.8158
    1743.30360        12.4002        97.8484         3.6918         2.9372        79.7628
    1743.45600        12.4126        98.0530         3.6960         2.9359        79.7272
    1743.60840        12.4368        98.0976         3.7501         2.9895        79.7765
    1743.76080        12.4875        97.9583         3.8423         3.0237        79.8081
    1743.91320        12.5362        97.2532         3.9307         3.0673        79.7889
    1744.06560        12.5067        96.6557         4.0233         3.0975        79.7032
    1744.21800        12.4544        95.9485         4.1301         3.1720        79.6000
    1744.37040        12.4049        95.0306         4.2549         3.2632        79.4914
    1744.52280        12.3651        94.4437         4.3965         3.3622        79.4047
    1744.67520        12.3546        94.4434         4.4162         3.3949        79.3625
    1744.82760        12.3591        94.9890         4.3395         3.3010        79.3545
    1744.98000        12.3693        95.8228         4.1611         3.1889        79.4005
    1745.13240        12.3844        96.7581         3.9986         3.0754        79.4948
    1745.28480        12.4034        97.7146         3.8887         2.9803        79.5936
    1745.43720        12.4304        98.4582         3.8212         2.9321        79.7529
    1745.58960        12.4633        98.9284         3.7679         2.9181        79.8932
    1745.74200        12.4974        99.1913         3.7193         2.9175        79.9639
    1745.89440        12.5364        99.2216         3.6822         2.9081        79.9552
    1746.04680        12.5832        99.3745         3.6667         2.9066        79.8792
    1746.19920        12.6101        99.5871         3.6714         2.9137        79.7357
    1746.35160        12.5633        99.6211         3.6895         2.9338        79.5200
    1746.50400        12.5056        99.3233         3.7294         2.9805        79.3642
    1746.65640        12.4639        98.8285         3.7610         3.0522        79.3399
    1746.80880        12.4548        98.5108         3.7937         3.0737        79.3834
    1746.96120        12.4768        98.9048         3.6465         2.9518        79.6163
    1747.11360        12.5223       100.6458         3.4182         2.7992        79.7860
    1747.26600        12.5930       101.8876         3.2465         2.6693        79.7858
    1747.41840        12.6597       102.4775         3.1121         2.5669        79.7020
    1747.57080        12.6213       101.9154         2.9674         2.5412        79.5439
    1747.72320        12.5171       100.8578         3.0457         2.6308        79.3520
