~Version Information Block
VERS .                 2.00:  CWLS LOG ASCII STANDARD - VERSION 2.00
WRAP .                   NO:  One line per depth step
~Well Information Block
#MNEM.UNIT        Data Type   Information
#---------- ----------------  -----------
STRT .M           377.95200:  START DEPTH
STOP .M          1955.59680:  STOP DEPTH
STEP .M             0.15240:  STEP
NULL .              -999.25:  NULL VALUE
COMP .                     :  COMPANY
WELL .         Resolution-1:  WELL
FLD  .                     :  FIELD
LOC  .                     :  LOCATION
CTRY .                     :  COUNTRY
STAT .                     :  STATE
CNTY .                     :  COUNTY
SRVC .     Shell BP Todd Canterbury Services Ltd:  SERVICE COMPANY
DATE .                     :  DATE
API  .                     :  API NUMBER
UWI  .         100000022150:  UNIQUE WELL ID
LATI .           -44.186126:  LATITUDE
LONG .          172.6362332:  LONGITUDE
~Curve Information Block
#MNEM.UNIT         API CODE   Curve Description
#---------- ----------------  -----------------
DEPTH.M                    :  
CALI .IN            UNKNOWN:  2  Caliper
DT   .US/F          UNKNOWN:  3  Sonic
LLD  .OHMM          UNKNOWN:  5  Latero-Log Deep
LLS  .OHMM          UNKNOWN:  6  Latero-Log Shallow
SP   .MV            UNKNOWN:  7  Spontaneous Potential
~Parameter Information Block
#MNEM.UNIT            Value   Description
#---------- ----------------  -----------
CUR_INT_BOT.M           1955.9016:  Current interpolated bottom
PROJECT.     New Zealand Log QC Project:  
SET  .      RAW_INTER_REF_D:  
ELEVATION_AMSL.M                  10:  Elevation above mean sea level
ELEVATION_REF.                   RT:  Measurement reference
FORMATION_AT_TD.            Volcanics:  Formation at TD
LICENCE_NUMBER.               PPL685:  Licence number
ONSHORE_OR_OFFSHORE.             Offshore:  Onshore/offshore
PR_NUMBER.                PR648:  Petroleum report number
SEAFLOOR_ELEVATION_BMSL.M             74.0000:  Seafloor elevation below mean sea level
SPUD_DATE.           09/07/1975:  Spud date
STATUS_AT_COMPLETION.     Dry and abandoned:  Status at completion
TD_DATE.           27/07/1975:  Total depth date
TOTAL_DEPTH_DRILLED.M                1963:  Total depth drilled
WATER_DEPTH.M                  64:  Water depth
~Other Information Block
# 
~A       DEPTH           CALI             DT            LLD            LLS             SP 
# ...
     486.46080        19.5611       157.8041         8.2993         6.3064         0.7293
     486.61320        19.6592       157.5338         8.2544         6.3051         1.2496
     486.76560        19.7632       157.3265         8.1963         6.3059         1.7600
     486.91800        19.8481       157.1618         8.1557         6.3219         2.2841
     487.07040        19.8941       157.2181         8.1804         6.3224         2.8475
     487.22280        19.9408       157.4698         8.2700         6.3174         3.3605
     487.37520        19.9996       157.8130         8.3751         6.2927         3.7962
     487.52760        20.0252       157.7692         8.4705         6.2302         3.9746
     487.68000        19.9000       157.1268         8.4509         6.2233         3.9114
     487.83240        19.7517       156.6503         8.3870         6.2712         3.6855
     487.98480        19.6366       156.9724         8.3466         6.2983         3.3644
     488.13720        19.5679       157.3289         8.2846         6.2650         3.0058
     488.28960        19.6400       158.2133         8.2354         6.2219         2.6135
     488.44200        19.7600       159.3339         8.2051         6.1759         2.4570
     488.59440        19.7909       160.1647         8.1855         6.1491         2.6940
     488.74680        19.6762       160.3500         8.1723         6.1462         3.1099
     488.89920        19.5341       159.9943         8.1748         6.1569         3.5389
     489.05160        19.4263       159.5362         8.1630         6.1734         3.8537
     489.20400        19.3870       159.1479         8.1479         6.1845         4.0557
     489.35640        19.3284       158.7657         8.1522         6.1915         4.1327
     489.50880        19.2593       158.0196         8.1845         6.1926         4.1346
     489.66120        19.2284       157.4950         8.2409         6.2087         3.9978
     489.81360        19.2151       157.6208         8.3232         6.1983         3.8502
     489.96600        19.2138       158.2911         8.4106         6.1436         3.6658
     490.11840        19.2563       158.8434         8.5125         6.0307         3.4317
     490.27080        19.3652       157.5627         8.6157         5.8889         3.1185
     490.42320        19.5606       155.8066         8.6557         5.7457         2.7743
     490.57560        19.8192       155.8058         8.5730         5.6014         2.4780
     490.72800        20.1068       155.9841         8.4044         5.4775         2.2222
     490.88040        20.4155       159.8976         8.2317         5.3929         1.9819
     491.03280        20.7403       173.5907         8.0115         5.3373         1.8199
     491.18520        21.0164       171.4623         7.7830         5.3169         1.7623
     491.33760        21.2631       163.1290         7.6529         5.3158         1.8993
     491.49000        21.7376       158.1567         7.7185         5.3394         2.1188
     491.64240        22.1506       159.2783         7.8084         5.3950         2.3794
     491.79480        22.3403       160.9912         7.9124         5.4787         2.6517
     491.94720        22.3330       163.6818         8.0448         5.5435         2.9560
     492.09960        22.3071       164.5422         8.1700         5.5783         3.2465
     492.25200        22.2785       163.8529         8.2388         5.5594         3.5498
     492.40440        22.2540       162.6802         8.2003         5.4975         3.8580
     492.55680        22.2205       161.1964         8.0249         5.4008         4.1157
     492.70920        22.1535       159.5181         7.8528         5.3992         4.3124
     492.86160        22.0030       159.6571         7.8716         5.4973         4.4807
     493.01400        21.6843       160.7853         8.0265         5.6943         4.5758
     493.16640        21.0268       161.1441         8.2232         5.9117         4.6312
     493.31880        19.9258       161.2890         8.3865         6.1070         4.6690
     493.47120        19.2048       160.9287         8.4430         6.2100         4.6339
     493.62360        18.5806       160.4146         8.4262         6.2228         4.5453
     493.77600        18.4734       159.7980         8.3822         6.2095         4.3384
     493.92840        18.5628       159.1063         8.3500         6.1841         4.1290
     494.08080        18.6353       158.4760         8.3085         6.1644         3.8373
     494.23320        18.6635       157.7524         8.3099         6.1366         3.4743
     494.38560        18.6637       157.1655         8.3132         6.1509         3.0842
     494.53800        18.6463       157.5228         8.3275         6.2380         2.7632
     494.69040        18.6111       158.4040         8.3521         6.3386         2.4400
     494.84280        18.5811       159.1955         8.3862         6.4344         2.1786
     494.99520        18.6097       159.6138         8.4397         6.5300         1.9075
     495.14760        18.7423       159.5388         8.4758         6.5892         1.6471
     495.30000        18.9089       159.3965         8.5113         6.5981         1.5063
     495.45240        19.0903       159.1865         8.5401         6.5027         1.4523
     495.60480        19.3005       159.0571         8.5540         6.3164         1.5202
     495.75720        19.4702       158.7782         8.5415         6.1316         1.8417
     495.90960        19.5573       158.4754         8.5278         5.9669         2.2251
     496.06200        19.5539       158.3013         8.4910         5.8578         2.7209
     496.21440        19.6002       158.0233         8.4678         5.8640         3.3410
     496.36680        19.6191       157.7722         8.4640         5.9509         3.9432
     496.51920        19.7335       157.6401         8.4643         6.0538         4.4246
     496.67160        19.8895       157.7394         8.5010         6.1492         4.6923
     496.82400        19.9802       157.8207         8.5492         6.2587         4.7829
     496.97640        19.9430       157.4083         8.5814         6.3397         4.8065
     497.12880        19.7577       157.3885         8.5768         6.3916         4.7376
     497.28120        19.5107       157.8969         8.5497         6.4068         4.6200
     497.43360        19.2356       158.0231         8.5029         6.3666         4.4566
     497.58600        18.9905       158.0902         8.4664         6.3087         4.1756
     497.73840        18.9369       158.1732         8.4515         6.2446         3.7924
     497.89080        19.1535       158.5943         8.4409         6.1678         3.3738
     498.04320        19.4082       158.9670         8.4371         6.0916         3.1696
     498.19560        19.6973       158.9784         8.4218         6.0143         3.0774
     498.34800        20.0001       158.7788         8.3766         5.9633         2.9275
     498.50040        20.3067       158.7798         8.3385         5.9405         2.7300
     498.65280        20.6267       158.5816         8.2876         5.9029         2.4046
     498.80520        20.9658       158.0791         8.2707         5.8995         2.0764
     498.95760        21.2792       157.6048         8.2465         5.9090         1.8391
     499.11000        21.5773       158.4245         8.2535         5.9071         1.6615
     499.26240        21.7269       159.4566         8.2898         5.8898         1.5289
     499.41480        21.8544       160.3259         8.3198         5.8547         1.4798
     499.56720        22.0273       161.0826         8.2997         5.8050         1.4742
     499.71960        22.2358       161.7208         8.2475         5.7208         1.5097
     499.87200        22.3539       161.6271         8.1377         5.6253         1.5166
