~Version Information Block
VERS .                 2.00:  CWLS LOG ASCII STANDARD - VERSION 2.00
WRAP .                   NO:  One line per depth step
~Well Information Block
#MNEM.UNIT        Data Type   Information
#---------- ----------------  -----------
STRT .M            74.52360:  START DEPTH
STOP .M          1955.44440:  STOP DEPTH
STEP .M             0.15240:  STEP
NULL .              -999.25:  NULL VALUE
COMP .                     :  COMPANY
WELL .         Resolution-1:  WELL
FLD  .                     :  FIELD
LOC  .                     :  LOCATION
CTRY .                     :  COUNTRY
STAT .                     :  STATE
CNTY .                     :  COUNTY
SRVC .     Shell BP Todd Canterbury Services Ltd:  SERVICE COMPANY
DATE .                     :  DATE
API  .                     :  API NUMBER
UWI  .         100000022150:  UNIQUE WELL ID
LATI .           -44.186126:  LATITUDE
LONG .          172.6362332:  LONGITUDE
~Curve Information Block
#MNEM.UNIT         API CODE   Curve Description
#---------- ----------------  -----------------
DEPTH.M                    :  
BS   .IN                   :  Bit Size (Created in Geolog)
CALI .IN            UNKNOWN:  Caliper (CALI)
DTC  .US/F          UNKNOWN:  Sonic (DT)
GR   .GAPI          UNKNOWN:  Gamma Ray (GR)
GR_CORR.GAPI                 :  Gamma ray corrected
RESD .OHMM          UNKNOWN:  Laterolog Deep Resistivity (LLD)
RESS .OHMM          UNKNOWN:  Shallow Laterolog (LLS)
SP   .MV            UNKNOWN:  Spontaneous Potential (SP)
~Parameter Information Block
#MNEM.UNIT            Value   Description
#---------- ----------------  -----------
CUR_INT_BOT.M                1963:  Current interpolated bottom
PROJECT.     New Zealand Log QC Project:  
SET  .     A0_FINAL_INTER_REF_D:  
ELEVATION_AMSL.M                  10:  Elevation above mean sea level
ELEVATION_REF.                   RT:  Measurement reference
FORMATION_AT_TD.            Volcanics:  Formation at TD
LICENCE_NUMBER.               PPL685:  Licence number
ONSHORE_OR_OFFSHORE.             Offshore:  Onshore/offshore
PR_NUMBER.                PR648:  Petroleum report number
SEAFLOOR_ELEVATION_BMSL.M             74.0000:  Seafloor elevation below mean sea level
SPUD_DATE.           09/07/1975:  Spud date
STATUS_AT_COMPLETION.     Dry and abandoned:  Status at completion
TD_DATE.           27/07/1975:  Total depth date
TOTAL_DEPTH_DRILLED.M                1963:  Total depth drilled
WATER_DEPTH.M                  64:  Water depth
~Other Information Block
# 
~A       DEPTH             BS           CALI            DTC             GR        GR_CORR           RESD           RESS             SP 
# ...
    1235.81160        12.2500        13.6348       112.6843        60.0770      -999.2500         2.5680         1.8675        50.8796
    1235.96400        12.2500        13.5866       114.1570        59.3106      -999.2500         2.5754         1.8854        51.0255
    1236.11640        12.2500        13.5628       113.1974        59.9598      -999.2500         2.5920         1.8900        51.0257
    1236.26880        12.2500        13.5465       111.4857        61.0468      -999.2500         2.6114         1.8904        50.9808
    1236.42120        12.2500        13.5303       109.7739        62.1338      -999.2500         2.6308         1.8908        50.9359
    1236.57360        12.2500        13.5399       109.4561        62.6888      -999.2500         2.6187         1.8756        50.8763
    1236.72600        12.2500        13.5772       110.6307        62.6740      -999.2500         2.5729         1.8438        50.8010
    1236.87840        12.2500        13.6145       111.8053        62.6592      -999.2500         2.5271         1.8119        50.7257
    1237.03080        12.2500        13.6397       113.0753        62.6101      -999.2500         2.4846         1.7832        50.6735
    1237.18320        12.2500        13.6170       114.7222        62.4252      -999.2500         2.4552         1.7668        50.7126
    1237.33560        12.2500        13.5943       116.3692        62.2402      -999.2500         2.4258         1.7504        50.7516
    1237.48800        12.2500        13.5716       118.0161        62.0553      -999.2500         2.3964         1.7340        50.7906
    1237.64040        12.2500        13.5598       116.9509        61.8515      -999.2500         2.4041         1.7536        50.8097
    1237.79280        12.2500        13.5490       115.6539        61.6461      -999.2500         2.4149         1.7763        50.8271
    1237.94520        12.2500        13.5382       114.3570        61.4407      -999.2500         2.4257         1.7989        50.8444
    1238.09760        12.2500        13.5081       113.7484        61.3364      -999.2500         2.4376         1.8106        50.8461
    1238.25000        12.2500        13.4672       113.5265        61.2888      -999.2500         2.4502         1.8160        50.8389
    1238.40240        12.2500        13.4262       113.3045        61.2412      -999.2500         2.4628         1.8215        50.8316
    1238.55480        12.2500        13.4129       113.2394        61.1674      -999.2500         2.4603         1.8177        50.8124
    1238.70720        12.2500        13.4488       113.4538        61.0468      -999.2500         2.4307         1.7974        50.7716
    1238.85960        12.2500        13.4847       113.6682        60.9262      -999.2500         2.4012         1.7771        50.7308
    1239.01200        12.2500        13.5144       113.9218        60.8372      -999.2500         2.3779         1.7618        50.6971
    1239.16440        12.2500        13.4704       114.6345        61.1180      -999.2500         2.4269         1.8040        50.7457
    1239.31680        12.2500        13.4265       115.3471        61.3989      -999.2500         2.4760         1.8462        50.7943
    1239.46920        12.2500        13.3825       116.0597        61.6797      -999.2500         2.5251         1.8885        50.8428
    1239.62160        12.2500        13.3274       114.2857        61.4137      -999.2500         2.5795         1.9198        50.8858
    1239.77400        12.2500        13.2694       111.8817        61.0093      -999.2500         2.6354         1.9483        50.9274
    1239.92640        12.2500        13.2114       109.4778        60.6048      -999.2500         2.6913         1.9769        50.9690
    1240.07880        12.2500        13.1793       107.6567        60.4983      -999.2500         2.7108         1.9916        50.9942
    1240.23120        12.2500        13.1712       106.3800        60.6701      -999.2500         2.6964         1.9934        51.0040
    1240.38360        12.2500        13.1632       105.1032        60.8419      -999.2500         2.6820         1.9952        51.0139
    1240.53600        12.2500        13.1678       104.9097        61.0265      -999.2500         2.6451         1.9786        51.0228
    1240.68840        12.2500        13.2130       108.2183        61.2524      -999.2500         2.5353         1.9027        51.0287
    1240.84080        12.2500        13.2582       111.5270        61.4782      -999.2500         2.4256         1.8268        51.0346
    1240.99320        12.2500        13.3034       114.8357        61.7041      -999.2500         2.3158         1.7509        51.0404
    1241.14560        12.2500        13.3742       113.2748        61.9340      -999.2500         2.3578         1.7982        51.0401
    1241.29800        12.2500        13.4461       111.4864        62.1641      -999.2500         2.4069         1.8513        51.0394
    1241.45040        12.2500        13.5180       109.6981        62.3941      -999.2500         2.4560         1.9043        51.0388
    1241.60280        12.2500        13.5425       108.9644        62.5613      -999.2500         2.4864         1.9274        51.0446
    1241.75520        12.2500        13.5442       108.7396        62.6981      -999.2500         2.5076         1.9360        51.0534
    1241.90760        12.2500        13.5458       108.5147        62.8349      -999.2500         2.5288         1.9447        51.0622
    1242.06000        12.2500        13.5632       108.0464        63.1128      -999.2500         2.5343         1.9372        51.0827
    1242.21240        12.2500        13.6047       107.2031        63.6080      -999.2500         2.5156         1.9048        51.1210
    1242.36480        12.2500        13.6462       106.3598        64.1033      -999.2500         2.4968         1.8724        51.1592
    1242.51720        12.2500        13.6714       105.7584        64.6016      -999.2500         2.4831         1.8456        51.1947
    1242.66960        12.2500        13.5674       107.0581        65.1239      -999.2500         2.5089         1.8629        51.2081
    1242.82200        12.2500        13.4635       108.3579        65.6463      -999.2500         2.5346         1.8802        51.2215
    1242.97440        12.2500        13.3595       109.6576        66.1686      -999.2500         2.5604         1.8975        51.2349
    1243.12680        12.2500        13.3122       109.2756        66.1311      -999.2500         2.6340         1.9397        51.2482
    1243.27920        12.2500        13.2763       108.5542        65.9806      -999.2500         2.7174         1.9869        51.2615
    1243.43160        12.2500        13.2405       107.8327        65.8301      -999.2500         2.8007         2.0342        51.2749
    1243.58400        12.2500        13.2128       106.6425        65.4233      -999.2500         2.8431         2.0683        51.2814
    1243.73640        12.2500        13.1917       105.0706        64.8078      -999.2500         2.8522         2.0917        51.2824
    1243.88880        12.2500        13.1706       103.4986        64.1924      -999.2500         2.8613         2.1151        51.2833
    1244.04120        12.2500        13.1545       102.5506        63.9271      -999.2500         2.8795         2.1366        51.2763
    1244.19360        12.2500        13.1517       103.2863        64.6070      -999.2500         2.9225         2.1529        51.2476
    1244.34600        12.2500        13.1490       104.0220        65.2868      -999.2500         2.9654         2.1691        51.2188
    1244.49840        12.2500        13.1463       104.7577        65.9667      -999.2500         3.0084         2.1854        51.1901
    1244.65080        12.2500        13.1610       104.1543        65.4236      -999.2500         2.9718         2.1877        51.1581
    1244.80320        12.2500        13.1760       103.5368        64.8675      -999.2500         2.9344         2.1898        51.1262
