~Version Information Block
VERS .                 2.00:  CWLS LOG ASCII STANDARD - VERSION 2.00
WRAP .                   NO:  One line per depth step
~Well Information Block
#MNEM.UNIT        Data Type   Information
#---------- ----------------  -----------
STRT .M           390.60120:  START DEPTH
STOP .M          1234.44000:  STOP DEPTH
STEP .M             0.15240:  STEP
NULL .              -999.25:  NULL VALUE
COMP .                     :  COMPANY
WELL .         Resolution-1:  WELL
FLD  .                     :  FIELD
LOC  .                     :  LOCATION
CTRY .                     :  COUNTRY
STAT .                     :  STATE
CNTY .                     :  COUNTY
SRVC .     Shell BP Todd Canterbury Services Ltd:  SERVICE COMPANY
DATE .                     :  DATE
API  .                     :  API NUMBER
UWI  .         100000022150:  UNIQUE WELL ID
LATI .           -44.186126:  LATITUDE
LONG .          172.6362332:  LONGITUDE
~Curve Information Block
#MNEM.UNIT         API CODE   Curve Description
#---------- ----------------  -----------------
DEPTH.M                    :  Measured Depth (MD)
CT   .MH/M                 :  True formation conductivity
FPRESS.PSI                  :  Formation/hydrostatic pressure
FTEMP.DEGC                 :  Formation temperature
HMC_POR.IN                   :  Mudcake from nuclear/porosity
HMC_RES.IN                   :  Mudcake from resistivity/sonic
RM   .OHMM                 :  Mud resistivity
RMC  .OHMM                 :  Mudcake resistivity
RMF  .OHMM                 :  Mud filtrate resistivity
~Parameter Information Block
#MNEM.UNIT            Value   Description
#---------- ----------------  -----------
CUR_INT_BOT.M                1963:  Current interpolated bottom
PROJECT.     New Zealand Log QC Project:  
SET  .            EC_CURVES:  
ELEVATION_AMSL.M                  10:  Elevation above mean sea level
ELEVATION_REF.                   RT:  Measurement reference
FORMATION_AT_TD.            Volcanics:  Formation at TD
LICENCE_NUMBER.               PPL685:  Licence number
ONSHORE_OR_OFFSHORE.             Offshore:  Onshore/offshore
PR_NUMBER.                PR648:  Petroleum report number
SEAFLOOR_ELEVATION_BMSL.M             74.0000:  Seafloor elevation below mean sea level
SPUD_DATE.           09/07/1975:  Spud date
STATUS_AT_COMPLETION.     Dry and abandoned:  Status at completion
TD_DATE.           27/07/1975:  Total depth date
TOTAL_DEPTH_DRILLED.M                1963:  Total depth drilled
WATER_DEPTH.M                  64:  Water depth
~Other Information Block
# 
~A       DEPTH             CT         FPRESS          FTEMP        HMC_POR        HMC_RES             RM            RMC            RMF 
# ...
     445.46520       0.139314       759.2435        22.5779         0.0000         0.0000       0.511256       0.680897       0.357179
     445.61760       0.136621       759.5032        22.5815         0.0000         0.0000       0.511214       0.680841       0.357150
     445.77000       0.133275       759.7629        22.5851         0.0000         0.0000       0.511172       0.680785       0.357120
     445.92240       0.129929       760.0226        22.5888         0.0000         0.0000       0.511130       0.680729       0.357091
     446.07480       0.128058       760.2824        22.5924         0.0000         0.0000       0.511088       0.680673       0.357062
     446.22720       0.127716       760.5421        22.5960         0.0000         0.0000       0.511046       0.680617       0.357032
     446.37960       0.127374       760.8019        22.5996         0.0000         0.0000       0.511005       0.680562       0.357003
     446.53200       0.127100       761.0616        22.6032         0.0000         0.0000       0.510963       0.680506       0.356974
     446.68440       0.127084       761.3214        22.6068         0.0000         0.0000       0.510921       0.680450       0.356945
     446.83680       0.127068       761.5811        22.6105         0.0000         0.0000       0.510879       0.680394       0.356915
     446.98920       0.127052       761.8409        22.6141         0.0000         0.0000       0.510837       0.680338       0.356886
     447.14160       0.126028       762.1006        22.6177         0.0000         0.0000       0.510795       0.680282       0.356857
     447.29400       0.124928       762.3604        22.6213         0.0000         0.0000       0.510753       0.680227       0.356827
     447.44640       0.123828       762.6201        22.6249         0.0000         0.0000       0.510711       0.680171       0.356798
     447.59880       0.123221       762.8799        22.6286         0.0000         0.0000       0.510669       0.680115       0.356769
     447.75120       0.122882       763.1396        22.6322         0.0000         0.0000       0.510627       0.680059       0.356740
     447.90360       0.122542       763.3994        22.6358         0.0000         0.0000       0.510586       0.680004       0.356710
     448.05600       0.123390       763.6591        22.6394         0.0000         0.0000       0.510544       0.679948       0.356681
     448.20840       0.126281       763.9189        22.6430         0.0000         0.0000       0.510502       0.679892       0.356652
     448.36080       0.129172       764.1786        22.6466         0.0000         0.0000       0.510460       0.679836       0.356623
     448.51320       0.132038       764.4384        22.6503         0.0000         0.0000       0.510418       0.679781       0.356594
     448.66560       0.134639       764.6981        22.6539         0.0000         0.0000       0.510376       0.679725       0.356564
     448.81800       0.137240       764.9579        22.6575         0.0000         0.0000       0.510335       0.679669       0.356535
     448.97040       0.139841       765.2176        22.6611         0.0000         0.0000       0.510293       0.679614       0.356506
     449.12280       0.143838       765.4774        22.6647         0.0000         0.0000       0.510251       0.679558       0.356477
     449.27520       0.148172       765.7371        22.6684         0.0000         0.0000       0.510209       0.679502       0.356447
     449.42760       0.152505       765.9968        22.6720         0.0000         0.0000       0.510167       0.679447       0.356418
     449.58000       0.151421       766.2566        22.6756         0.0000         0.0000       0.510126       0.679391       0.356389
     449.73240       0.145432       766.5164        22.6792         0.0000         0.0000       0.510084       0.679335       0.356360
     449.88480       0.139444       766.7761        22.6828         0.0000         0.0000       0.510042       0.679280       0.356331
     450.03720       0.135530       767.0358        22.6864         0.0000         0.0000       0.510000       0.679224       0.356302
     450.18960       0.138043       767.2956        22.6901         0.0000         0.0000       0.509959       0.679169       0.356272
     450.34200       0.140556       767.5554        22.6937         0.0000         0.0000       0.509917       0.679113       0.356243
     450.49440       0.143068       767.8151        22.6973         0.0000         0.0000       0.509875       0.679057       0.356214
     450.64680       0.141316       768.0749        22.7009         0.0000         0.0000       0.509833       0.679002       0.356185
     450.79920       0.139401       768.3346        22.7045         0.0000         0.0000       0.509792       0.678946       0.356156
     450.95160       0.137486       768.5944        22.7082         0.0000         0.0000       0.509750       0.678891       0.356127
     451.10400       0.140278       768.8541        22.7118         0.0000         0.0000       0.509708       0.678835       0.356097
     451.25640       0.145261       769.1139        22.7154         0.0000         0.0000       0.509667       0.678779       0.356068
     451.40880       0.150243       769.3736        22.7190         0.0000         0.0000       0.509625       0.678724       0.356039
     451.56120       0.154205       769.6334        22.7226         0.0000         0.0000       0.509583       0.678668       0.356010
     451.71360       0.156647       769.8931        22.7262         0.0000         0.0000       0.509541       0.678613       0.355981
     451.86600       0.159088       770.1528        22.7299         0.0000         0.0000       0.509500       0.678557       0.355952
     452.01840       0.160667       770.4125        22.7335         0.0000         0.0000       0.509458       0.678502       0.355923
     452.17080       0.155967       770.6723        22.7371         0.0000         0.0000       0.509416       0.678446       0.355894
     452.32320       0.151268       770.9321        22.7407         0.0000         0.0000       0.509375       0.678391       0.355865
     452.47560       0.146568       771.1918        22.7443         0.0000         0.0000       0.509333       0.678335       0.355835
     452.62800       0.143369       771.4516        22.7480         0.0000         0.0000       0.509291       0.678280       0.355806
     452.78040       0.140455       771.7113        22.7516         0.0000         0.0000       0.509250       0.678225       0.355777
     452.93280       0.137542       771.9711        22.7552         0.0000         0.0000       0.509208       0.678169       0.355748
     453.08520       0.136799       772.2308        22.7588         0.0000         0.0000       0.509166       0.678114       0.355719
     453.23760       0.137766       772.4906        22.7624         0.0000         0.0000       0.509125       0.678058       0.355690
     453.39000       0.138734       772.7503        22.7660         0.0000         0.0000       0.509083       0.678003       0.355661
     453.54240       0.139925       773.0101        22.7697         0.0000         0.0000       0.509042       0.677947       0.355632
     453.69480       0.141699       773.2698        22.7733         0.0000         0.0000       0.509000       0.677892       0.355603
     453.84720       0.143472       773.5295        22.7769         0.0000         0.0000       0.508958       0.677837       0.355574
     453.99960       0.145245       773.7893        22.7805         0.0000         0.0000       0.508917       0.677781       0.355545
     454.15200       0.146158       774.0490        22.7841         0.0000         0.0000       0.508875       0.677726       0.355516
     454.30440       0.147068       774.3088        22.7878         0.0000         0.0000       0.508834       0.677670       0.355487
     454.45680       0.147979       774.5685        22.7914         0.0000         0.0000       0.508792       0.677615       0.355458
