~Version Information Block
VERS .                 2.00:  CWLS LOG ASCII STANDARD - VERSION 2.00
WRAP .                   NO:  One line per depth step
~Well Information Block
#MNEM.UNIT        Data Type   Information
#---------- ----------------  -----------
STRT .M           390.60120:  START DEPTH
STOP .M          1234.44000:  STOP DEPTH
STEP .M             0.15240:  STEP
NULL .              -999.25:  NULL VALUE
COMP .                     :  COMPANY
WELL .         Resolution-1:  WELL
FLD  .                     :  FIELD
LOC  .                     :  LOCATION
CTRY .                     :  COUNTRY
STAT .                     :  STATE
CNTY .                     :  COUNTY
SRVC .     Shell BP Todd Canterbury Services Ltd:  SERVICE COMPANY
DATE .                     :  DATE
API  .                     :  API NUMBER
UWI  .         100000022150:  UNIQUE WELL ID
LATI .           -44.186126:  LATITUDE
LONG .          172.6362332:  LONGITUDE
~Curve Information Block
#MNEM.UNIT         API CODE   Curve Description
#---------- ----------------  -----------------
DEPTH.M                    :  Measured Depth (MD)
CT   .MH/M                 :  True formation conductivity
FPRESS.PSI                  :  Formation/hydrostatic pressure
FTEMP.DEGC                 :  Formation temperature
HMC_POR.IN                   :  Mudcake from nuclear/porosity
HMC_RES.IN                   :  Mudcake from resistivity/sonic
RM   .OHMM                 :  Mud resistivity
RMC  .OHMM                 :  Mudcake resistivity
RMF  .OHMM                 :  Mud filtrate resistivity
~Parameter Information Block
#MNEM.UNIT            Value   Description
#---------- ----------------  -----------
CUR_INT_BOT.M                1963:  Current interpolated bottom
PROJECT.     New Zealand Log QC Project:  
SET  .            EC_CURVES:  
ELEVATION_AMSL.M                  10:  Elevation above mean sea level
ELEVATION_REF.                   RT:  Measurement reference
FORMATION_AT_TD.            Volcanics:  Formation at TD
LICENCE_NUMBER.               PPL685:  Licence number
ONSHORE_OR_OFFSHORE.             Offshore:  Onshore/offshore
PR_NUMBER.                PR648:  Petroleum report number
SEAFLOOR_ELEVATION_BMSL.M             74.0000:  Seafloor elevation below mean sea level
SPUD_DATE.           09/07/1975:  Spud date
STATUS_AT_COMPLETION.     Dry and abandoned:  Status at completion
TD_DATE.           27/07/1975:  Total depth date
TOTAL_DEPTH_DRILLED.M                1963:  Total depth drilled
WATER_DEPTH.M                  64:  Water depth
~Other Information Block
# 
~A       DEPTH             CT         FPRESS          FTEMP        HMC_POR        HMC_RES             RM            RMC            RMF 
# ...
    1112.97720       0.731869      1896.9397        38.4248         0.0000         0.0000       0.376056       0.500836       0.262724
    1113.12960       0.724983      1897.1995        38.4285         0.0000         0.0000       0.376033       0.500805       0.262708
    1113.28200       0.717870      1897.4592        38.4321         0.0000         0.0000       0.376011       0.500775       0.262692
    1113.43440       0.710757      1897.7190        38.4357         0.0000         0.0000       0.375988       0.500745       0.262677
    1113.58680       0.705526      1897.9788        38.4393         0.0000         0.0000       0.375965       0.500715       0.262661
    1113.73920       0.701717      1898.2384        38.4429         0.0000         0.0000       0.375943       0.500684       0.262645
    1113.89160       0.697908      1898.4982        38.4466         0.0000         0.0000       0.375920       0.500654       0.262629
    1114.04400       0.695454      1898.7578        38.4502         0.0000         0.0000       0.375897       0.500624       0.262613
    1114.19640       0.696339      1899.0176        38.4538         0.0000         0.0000       0.375874       0.500594       0.262597
    1114.34880       0.697223      1899.2773        38.4574         0.0000         0.0000       0.375852       0.500564       0.262581
    1114.50120       0.698172      1899.5371        38.4610         0.0000         0.0000       0.375829       0.500533       0.262566
    1114.65360       0.707350      1899.7969        38.4646         0.0000         0.0000       0.375806       0.500503       0.262550
    1114.80600       0.716528      1900.0566        38.4683         0.0000         0.0000       0.375784       0.500473       0.262534
    1114.95840       0.725707      1900.3164        38.4719         0.0000         0.0000       0.375761       0.500443       0.262518
    1115.11080       0.732290      1900.5762        38.4755         0.0000         0.0000       0.375738       0.500413       0.262502
    1115.26320       0.737899      1900.8358        38.4791         0.0000         0.0000       0.375716       0.500383       0.262486
    1115.41560       0.743509      1901.0956        38.4827         0.0000         0.0000       0.375693       0.500352       0.262471
    1115.56800       0.744174      1901.3553        38.4864         0.0000         0.0000       0.375670       0.500322       0.262455
    1115.72040       0.738704      1901.6151        38.4900         0.0000         0.0000       0.375648       0.500292       0.262439
    1115.87280       0.733233      1901.8749        38.4936         0.0000         0.0000       0.375625       0.500262       0.262423
    1116.02520       0.727264      1902.1346        38.4972         0.0000         0.0000       0.375602       0.500232       0.262407
    1116.17760       0.718774      1902.3944        38.5008         0.0000         0.0000       0.375580       0.500201       0.262391
    1116.33000       0.710284      1902.6541        38.5044         0.0000         0.0000       0.375557       0.500171       0.262376
    1116.48240       0.701795      1902.9138        38.5081         0.0000         0.0000       0.375535       0.500141       0.262360
    1116.63480       0.697799      1903.1736        38.5117         0.0000         0.0000       0.375512       0.500111       0.262344
    1116.78720       0.694389      1903.4333        38.5153         0.0000         0.0000       0.375489       0.500081       0.262328
    1116.93960       0.690980      1903.6931        38.5189         0.0000         0.0000       0.375467       0.500051       0.262312
    1117.09200       0.687388      1903.9529        38.5225         0.0000         0.0000       0.375444       0.500021       0.262296
    1117.24440       0.683677      1904.2126        38.5261         0.0000         0.0000       0.375421       0.499990       0.262281
    1117.39680       0.679966      1904.4724        38.5298         0.0000         0.0000       0.375399       0.499960       0.262265
    1117.54920       0.678131      1904.7322        38.5334         0.0000         0.0000       0.375376       0.499930       0.262249
    1117.70160       0.680232      1904.9919        38.5370         0.0000         0.0000       0.375354       0.499900       0.262233
    1117.85400       0.682334      1905.2517        38.5406         0.0000         0.0000       0.375331       0.499870       0.262217
    1118.00640       0.684366      1905.5114        38.5442         0.0000         0.0000       0.375308       0.499840       0.262202
    1118.15880       0.684822      1905.7711        38.5479         0.0000         0.0000       0.375286       0.499810       0.262186
    1118.31120       0.685278      1906.0309        38.5515         0.0000         0.0000       0.375263       0.499780       0.262170
    1118.46360       0.685734      1906.2906        38.5551         0.0000         0.0000       0.375240       0.499749       0.262154
    1118.61600       0.685877      1906.5504        38.5587         0.0000         0.0000       0.375218       0.499719       0.262138
    1118.76840       0.685922      1906.8101        38.5623         0.0000         0.0000       0.375195       0.499689       0.262123
    1118.92080       0.685967      1907.0698        38.5659         0.0000         0.0000       0.375173       0.499659       0.262107
    1119.07320       0.689687      1907.3296        38.5696         0.0000         0.0000       0.375150       0.499629       0.262091
    1119.22560       0.697383      1907.5894        38.5732         0.0000         0.0000       0.375127       0.499599       0.262075
    1119.37800       0.705080      1907.8491        38.5768         0.0000         0.0000       0.375105       0.499569       0.262060
    1119.53040       0.711912      1908.1089        38.5804         0.0000         0.0000       0.375082       0.499539       0.262044
    1119.68280       0.715276      1908.3687        38.5840         0.0000         0.0000       0.375060       0.499509       0.262028
    1119.83520       0.718641      1908.6283        38.5877         0.0000         0.0000       0.375037       0.499479       0.262012
    1119.98760       0.722005      1908.8881        38.5913         0.0000         0.0000       0.375015       0.499449       0.261996
    1120.14000       0.724098      1909.1478        38.5949         0.0000         0.0000       0.374992       0.499418       0.261981
    1120.29240       0.726078      1909.4075        38.5985         0.0000         0.0000       0.374969       0.499388       0.261965
    1120.44480       0.728058      1909.6672        38.6021         0.0000         0.0000       0.374947       0.499358       0.261949
    1120.59720       0.728282      1909.9270        38.6057         0.0000         0.0000       0.374924       0.499328       0.261933
    1120.74960       0.727508      1910.1868        38.6094         0.0000         0.0000       0.374902       0.499298       0.261918
    1120.90200       0.726735      1910.4465        38.6130         0.0000         0.0000       0.374879       0.499268       0.261902
    1121.05440       0.725075      1910.7063        38.6166         0.0000         0.0000       0.374857       0.499238       0.261886
    1121.20680       0.721817      1910.9661        38.6202         0.0000         0.0000       0.374834       0.499208       0.261870
    1121.35920       0.718560      1911.2258        38.6238         0.0000         0.0000       0.374811       0.499178       0.261855
    1121.51160       0.715293      1911.4856        38.6275         0.0000         0.0000       0.374789       0.499148       0.261839
    1121.66400       0.711912      1911.7454        38.6311         0.0000         0.0000       0.374766       0.499118       0.261823
    1121.81640       0.708532      1912.0051        38.6347         0.0000         0.0000       0.374744       0.499088       0.261807
    1121.96880       0.705151      1912.2648        38.6383         0.0000         0.0000       0.374721       0.499058       0.261792
