~Version Information Block
VERS .                 2.00:  CWLS LOG ASCII STANDARD - VERSION 2.00
WRAP .                   NO:  One line per depth step
~Well Information Block
#MNEM.UNIT        Data Type   Information
#---------- ----------------  -----------
STRT .M            74.52360:  START DEPTH
STOP .M          1955.44440:  STOP DEPTH
STEP .M             0.15240:  STEP
NULL .              -999.25:  NULL VALUE
COMP .                     :  COMPANY
WELL .         Resolution-1:  WELL
FLD  .                     :  FIELD
LOC  .                     :  LOCATION
CTRY .                     :  COUNTRY
STAT .                     :  STATE
CNTY .                     :  COUNTY
SRVC .     Shell BP Todd Canterbury Services Ltd:  SERVICE COMPANY
DATE .                     :  DATE
API  .                     :  API NUMBER
UWI  .         100000022150:  UNIQUE WELL ID
LATI .           -44.186126:  LATITUDE
LONG .          172.6362332:  LONGITUDE
~Curve Information Block
#MNEM.UNIT         API CODE   Curve Description
#---------- ----------------  -----------------
DEPTH.M                    :  
BS   .IN                   :  Bit Size (Created in Geolog)
CALI .IN            UNKNOWN:  Caliper (CALI)
DTC  .US/F          UNKNOWN:  Sonic (DT)
GR   .GAPI          UNKNOWN:  Gamma Ray (GR)
GR_CORR.GAPI                 :  Gamma ray corrected
RESD .OHMM          UNKNOWN:  Laterolog Deep Resistivity (LLD)
RESS .OHMM          UNKNOWN:  Shallow Laterolog (LLS)
SP   .MV            UNKNOWN:  Spontaneous Potential (SP)
~Parameter Information Block
#MNEM.UNIT            Value   Description
#---------- ----------------  -----------
CUR_INT_BOT.M                1963:  Current interpolated bottom
PROJECT.     New Zealand Log QC Project:  
SET  .     A0_FINAL_INTER_REF_D:  
ELEVATION_AMSL.M                  10:  Elevation above mean sea level
ELEVATION_REF.                   RT:  Measurement reference
FORMATION_AT_TD.            Volcanics:  Formation at TD
LICENCE_NUMBER.               PPL685:  Licence number
ONSHORE_OR_OFFSHORE.             Offshore:  Onshore/offshore
PR_NUMBER.                PR648:  Petroleum report number
SEAFLOOR_ELEVATION_BMSL.M             74.0000:  Seafloor elevation below mean sea level
SPUD_DATE.           09/07/1975:  Spud date
STATUS_AT_COMPLETION.     Dry and abandoned:  Status at completion
TD_DATE.           27/07/1975:  Total depth date
TOTAL_DEPTH_DRILLED.M                1963:  Total depth drilled
WATER_DEPTH.M                  64:  Water depth
~Other Information Block
# 
~A       DEPTH             BS           CALI            DTC             GR        GR_CORR           RESD           RESS             SP 
# ...
    1436.97960        12.2500        14.2643       119.9937        53.0609      -999.2500         1.5392         1.5085        59.6424
    1437.13200        12.2500        14.2249       120.6060        54.2262      -999.2500         1.4833         1.4489        59.7517
    1437.28440        12.2500        14.1643       121.3016        55.6083      -999.2500         1.4259         1.3844        59.8790
    1437.43680        12.2500        14.1037       121.9973        56.9903      -999.2500         1.3684         1.3200        60.0063
    1437.58920        12.2500        13.9945       122.8999        58.3866      -999.2500         1.3266         1.2697        60.1614
    1437.74160        12.2500        13.8509       123.9492        59.7929      -999.2500         1.2959         1.2296        60.3360
    1437.89400        12.2500        13.7072       124.9984        61.1992      -999.2500         1.2652         1.1894        60.5107
    1438.04640        12.2500        13.6114       125.7821        62.2435      -999.2500         1.2507         1.1683        60.6614
    1438.19880        12.2500        13.6247       125.9588        62.4607      -999.2500         1.2732         1.1909        60.7573
    1438.35120        12.2500        13.6379       126.1355        62.6778      -999.2500         1.2957         1.2135        60.8531
    1438.50360        12.2500        13.6524       126.2884        62.8976      -999.2500         1.3187         1.2367        60.9491
    1438.65600        12.2500        13.7184       125.4583        63.2231      -999.2500         1.3635         1.2853        61.0508
    1438.80840        12.2500        13.7844       124.6283        63.5485      -999.2500         1.4084         1.3339        61.1525
    1438.96080        12.2500        13.8504       123.7981        63.8740      -999.2500         1.4532         1.3824        61.2543
    1439.11320        12.2500        13.9080       122.8486        63.9657      -999.2500         1.4884         1.4106        61.4019
    1439.26560        12.2500        13.9627       121.8577        63.9763      -999.2500         1.5202         1.4317        61.5654
    1439.41800        12.2500        14.0174       120.8668        63.9870      -999.2500         1.5521         1.4528        61.7289
    1439.57040        12.2500        14.0449       120.2583        64.1893      -999.2500         1.5890         1.4787        61.9307
    1439.72280        12.2500        14.0408       120.0952        64.6148      -999.2500         1.6318         1.5103        62.1771
    1439.87520        12.2500        14.0367       119.9320        65.0404      -999.2500         1.6747         1.5419        62.4235
    1440.02760        12.2500        14.0162       119.7930        65.3277      -999.2500         1.7143         1.5720        62.6266
    1440.18000        12.2500        13.9212       119.7630        64.9904      -999.2500         1.7393         1.5953        62.6340
    1440.33240        12.2500        13.8262       119.7331        64.6532      -999.2500         1.7644         1.6185        62.6414
    1440.48480        12.2500        13.7313       119.7031        64.3159      -999.2500         1.7895         1.6417        62.6489
    1440.63720        12.2500        13.6940       118.7373        64.9682      -999.2500         1.8115         1.6582        62.4831
    1440.78960        12.2500        13.6631       117.6677        65.7303      -999.2500         1.8333         1.6740        62.2981
    1440.94200        12.2500        13.6322       116.5981        66.4923      -999.2500         1.8550         1.6898        62.1131
    1441.09440        12.2500        13.6508       116.2620        65.8759      -999.2500         1.9044         1.7240        61.8775
    1441.24680        12.2500        13.7000       116.3764        64.4125      -999.2500         1.9708         1.7696        61.6108
    1441.39920        12.2500        13.7491       116.4909        62.9492      -999.2500         2.0372         1.8152        61.3440
    1441.55160        12.2500        13.7704       115.9565        62.0198      -999.2500         2.0866         1.8545        61.1591
    1441.70400        12.2500        13.7374       114.1548        62.1335      -999.2500         2.1029         1.8814        61.1342
    1441.85640        12.2500        13.7043       112.3531        62.2472      -999.2500         2.1192         1.9083        61.1092
    1442.00880        12.2500        13.6768       110.7259        62.4217      -999.2500         2.1328         1.9325        61.0973
    1442.16120        12.2500        13.7385       111.9466        63.5889      -999.2500         2.1042         1.9124        61.2972
    1442.31360        12.2500        13.8003       113.1674        64.7561      -999.2500         2.0757         1.8923        61.4970
    1442.46600        12.2500        13.8620       114.3881        65.9233      -999.2500         2.0471         1.8722        61.6969
    1442.61840        12.2500        13.9535       115.4156        65.8832      -999.2500         2.0281         1.8698        61.8523
    1442.77080        12.2500        14.0536       116.3875        65.4963      -999.2500         2.0119         1.8724        61.9950
    1442.92320        12.2500        14.1536       117.3594        65.1094      -999.2500         1.9957         1.8751        62.1377
    1443.07560        12.2500        14.2042       117.3883        64.6674      -999.2500         1.9772         1.8670        62.2266
    1443.22800        12.2500        14.2044       116.4590        64.1693      -999.2500         1.9563         1.8481        62.2609
    1443.38040        12.2500        14.2047       115.5298        63.6712      -999.2500         1.9355         1.8292        62.2952
    1443.53280        12.2500        14.2080       114.8896        63.2026      -999.2500         1.9204         1.8158        62.2998
    1443.68520        12.2500        14.2221       115.3036        62.8413      -999.2500         1.9266         1.8224        62.1965
    1443.83760        12.2500        14.2362       115.7176        62.4799      -999.2500         1.9327         1.8290        62.0931
    1443.99000        12.2500        14.2504       116.1316        62.1186      -999.2500         1.9388         1.8357        61.9898
    1444.14240        12.2500        14.1400       116.2544        61.2584      -999.2500         1.9259         1.8241        61.8619
    1444.29480        12.2500        14.0208       116.3566        60.3632      -999.2500         1.9116         1.8112        61.7323
    1444.44720        12.2500        13.9017       116.4589        59.4680      -999.2500         1.8973         1.7984        61.6027
    1444.59960        12.2500        13.8956       116.6367        59.6514      -999.2500         1.8909         1.7919        61.5536
    1444.75200        12.2500        13.9494       116.8544        60.4066      -999.2500         1.8886         1.7888        61.5471
    1444.90440        12.2500        14.0032       117.0722        61.1618      -999.2500         1.8863         1.7857        61.5406
    1445.05680        12.2500        14.0252       117.1707        61.6330      -999.2500         1.8874         1.7844        61.6170
    1445.20920        12.2500        13.9936       117.0684        61.6263      -999.2500         1.8940         1.7860        61.8328
    1445.36160        12.2500        13.9621       116.9662        61.6195      -999.2500         1.9005         1.7876        62.0485
    1445.51400        12.2500        13.9348       116.8536        61.6350      -999.2500         1.9070         1.7897        62.2454
    1445.66640        12.2500        13.9500       116.6396        61.8710      -999.2500         1.9118         1.7968        62.2552
    1445.81880        12.2500        13.9651       116.4257        62.1070      -999.2500         1.9166         1.8040        62.2651
    1445.97120        12.2500        13.9803       116.2117        62.3430      -999.2500         1.9214         1.8112        62.2749
