~Version Information Block
VERS .                 2.00:  CWLS LOG ASCII STANDARD - VERSION 2.00
WRAP .                   NO:  One line per depth step
~Well Information Block
#MNEM.UNIT        Data Type   Information
#---------- ----------------  -----------
STRT .M           377.95200:  START DEPTH
STOP .M          1955.59680:  STOP DEPTH
STEP .M             0.15240:  STEP
NULL .              -999.25:  NULL VALUE
COMP .                     :  COMPANY
WELL .         Resolution-1:  WELL
FLD  .                     :  FIELD
LOC  .                     :  LOCATION
CTRY .                     :  COUNTRY
STAT .                     :  STATE
CNTY .                     :  COUNTY
SRVC .     Shell BP Todd Canterbury Services Ltd:  SERVICE COMPANY
DATE .                     :  DATE
API  .                     :  API NUMBER
UWI  .         100000022150:  UNIQUE WELL ID
LATI .           -44.186126:  LATITUDE
LONG .          172.6362332:  LONGITUDE
~Curve Information Block
#MNEM.UNIT         API CODE   Curve Description
#---------- ----------------  -----------------
DEPTH.M                    :  
CALI .IN            UNKNOWN:  2  Caliper
DT   .US/F          UNKNOWN:  3  Sonic
LLD  .OHMM          UNKNOWN:  5  Latero-Log Deep
LLS  .OHMM          UNKNOWN:  6  Latero-Log Shallow
SP   .MV            UNKNOWN:  7  Spontaneous Potential
~Parameter Information Block
#MNEM.UNIT            Value   Description
#---------- ----------------  -----------
CUR_INT_BOT.M           1955.9016:  Current interpolated bottom
PROJECT.     New Zealand Log QC Project:  
SET  .      RAW_INTER_REF_D:  
ELEVATION_AMSL.M                  10:  Elevation above mean sea level
ELEVATION_REF.                   RT:  Measurement reference
FORMATION_AT_TD.            Volcanics:  Formation at TD
LICENCE_NUMBER.               PPL685:  Licence number
ONSHORE_OR_OFFSHORE.             Offshore:  Onshore/offshore
PR_NUMBER.                PR648:  Petroleum report number
SEAFLOOR_ELEVATION_BMSL.M             74.0000:  Seafloor elevation below mean sea level
SPUD_DATE.           09/07/1975:  Spud date
STATUS_AT_COMPLETION.     Dry and abandoned:  Status at completion
TD_DATE.           27/07/1975:  Total depth date
TOTAL_DEPTH_DRILLED.M                1963:  Total depth drilled
WATER_DEPTH.M                  64:  Water depth
~Other Information Block
# 
~A       DEPTH           CALI             DT            LLD            LLS             SP 
# ...
     689.91480        22.3800       139.7486         1.6319         1.3165        13.5930
     690.06720        22.3879       143.3455         1.6187         1.3006        13.5369
     690.21960        22.3869       144.9436         1.6120         1.2901        13.6089
     690.37200        22.3868       146.9397         1.6124         1.2900        13.7812
     690.52440        22.3901       148.7825         1.6180         1.2924        13.9757
     690.67680        22.3858       148.7226         1.6260         1.2979        14.1896
     690.82920        22.3829       147.0308         1.6430         1.3020        14.4085
     690.98160        22.3806       144.1659         1.6617         1.3107        14.6887
     691.13400        22.3744       139.6714         1.6841         1.3271        15.0503
     691.28640        22.3684       140.1195         1.7131         1.3504        15.5166
     691.43880        22.3627       139.3817         1.7468         1.3730        16.1765
     691.59120        22.3528       140.9854         1.7787         1.3867        16.8166
     691.74360        22.3489       143.4671         1.7876         1.3870        17.2949
     691.89600        22.3459       145.4974         1.7684         1.3649        17.7725
     692.04840        22.3390       146.6224         1.7331         1.3351        18.1631
     692.20080        22.3341       147.3854         1.6987         1.3174        18.2018
     692.35320        22.3331       148.5067         1.6751         1.3098        17.7536
     692.50560        22.3326       148.4747         1.6587         1.3020        17.2437
     692.65800        22.3359       148.3741         1.6428         1.2930        16.7586
     692.81040        22.3363       149.8081         1.6167         1.2753        16.2149
     692.96280        22.3393       150.3483         1.5791         1.2462        15.6047
     693.11520        22.3428       150.3667         1.5391         1.2126        15.0200
     693.26760        22.3443       162.9227         1.5049         1.1813        14.4837
     693.42000        22.3463       169.6918         1.4835         1.1629        14.0590
     693.57240        22.3475       174.5141         1.4694         1.1618        13.8291
     693.72480        22.3514       179.5247         1.4653         1.1693        13.8567
     693.87720        22.3582       184.4828         1.4652         1.1834        14.1263
     694.02960        22.3727       179.6476         1.4738         1.1986        14.7644
     694.18200        22.3887       170.2028         1.4814         1.2108        15.4096
     694.33440        22.4078       154.6515         1.4907         1.2247        15.8883
     694.48680        22.4211       144.0721         1.5032         1.2346        16.1486
     694.63920        22.4244       143.9480         1.5157         1.2358        16.3055
     694.79160        22.4166       143.8425         1.5315         1.2393        16.4470
     694.94400        22.3873       142.6760         1.5461         1.2564        16.6884
     695.09640        22.3425       141.1558         1.5591         1.2800        16.9990
     695.24880        22.2762       139.8347         1.5683         1.2959        17.3443
     695.40120        22.1893       139.0984         1.5710         1.3020        17.9297
     695.55360        22.0910       139.1186         1.5779         1.3051        18.7033
     695.70600        21.9994       139.4055         1.5873         1.3136        19.6080
     695.85840        21.9653       139.3822         1.6107         1.3366        20.5092
     696.01080        21.9159       139.0070         1.6540         1.3678        21.2237
     696.16320        21.8580       138.2429         1.7189         1.3983        21.6881
     696.31560        21.9485       137.8214         1.7657         1.4215        21.9600
     696.46800        22.0452       139.3373         1.7504         1.4283        21.6044
     696.62040        22.1597       139.7699         1.6997         1.4188        20.5294
     696.77280        22.2557       139.8941         1.6760         1.3956        19.2953
     696.92520        22.2895       139.3393         1.6944         1.3925        18.0819
     697.07760        22.2835       137.8152         1.7440         1.4383        16.9597
     697.23000        22.2618       137.4285         1.7346         1.4384        15.7627
     697.38240        22.2512       136.8844         1.6656         1.3572        14.8168
     697.53480        22.2564       136.9328         1.6025         1.2971        14.7447
     697.68720        22.2950       138.3757         1.5699         1.2612        15.2100
     697.83960        22.3462       139.4570         1.5689         1.2536        15.7649
     697.99200        22.3732       141.3929         1.5729         1.2614        16.1683
     698.14440        22.3808       142.4267         1.5778         1.2702        16.3929
     698.29680        22.3909       141.7541         1.5845         1.2757        16.4759
     698.44920        22.4012       140.7251         1.5906         1.2843        16.3538
     698.60160        22.4103       139.9610         1.5942         1.2901        16.2417
     698.75400        22.4126       140.3189         1.5948         1.2953        16.1206
     698.90640        22.4196       141.5863         1.5940         1.3038        16.0276
     699.05880        22.4277       142.7385         1.5918         1.3102        15.9285
     699.21120        22.4354       143.6954         1.5832         1.3061        15.8167
     699.36360        22.4468       144.4903         1.5663         1.2924        15.7197
     699.51600        22.4687       145.0262         1.5356         1.2660        15.6353
     699.66840        22.4471       145.1782         1.4944         1.2257        15.5891
     699.82080        22.4100       145.2913         1.4492         1.1828        15.5670
     699.97320        22.3719       145.0018         1.4115         1.1372        15.5648
     700.12560        22.3317       144.4730         1.3858         1.0960        15.6072
     700.27800        22.2955       144.3950         1.3768         1.0711        15.6266
     700.43040        22.2359       145.1147         1.3844         1.0782        15.6915
     700.58280        22.1291       145.9520         1.4321         1.1262        15.8156
     700.73520        21.9750       144.3949         1.4960         1.1887        15.9744
     700.88760        21.9860       142.3769         1.5463         1.2462        16.1685
     701.04000        22.0972       140.6140         1.5863         1.2869        16.4070
     701.19240        22.2090       139.5769         1.6189         1.3095        16.5915
     701.34480        22.3130       139.2025         1.6476         1.3324        16.7266
     701.49720        22.3539       138.9192         1.6733         1.3502        16.8618
     701.64960        22.3491       138.7347         1.6945         1.3594        16.8852
     701.80200        22.3447       138.7052         1.7074         1.3640        16.5844
     701.95440        22.3438       138.7570         1.7124         1.3610        16.0439
     702.10680        22.3433       139.0458         1.7083         1.3596        15.3990
     702.25920        22.3454       139.1566         1.6983         1.3570        14.7724
     702.41160        22.3391       138.5209         1.6803         1.3465        14.1795
     702.56400        22.3291       137.9237         1.6547         1.3288        13.6624
     702.71640        22.3144       137.8823         1.6237         1.3050        13.2429
     702.86880        22.2743       138.3341         1.5930         1.2921        13.0342
     703.02120        22.1625       138.8215         1.5751         1.2859        13.1935
     703.17360        21.9806       138.5163         1.5761         1.2897        13.6681
     703.32600        21.7739       138.5357         1.5842         1.2896        14.3517
