~Version Information Block
VERS .                 2.00:  CWLS LOG ASCII STANDARD - VERSION 2.00
WRAP .                   NO:  One line per depth step
~Well Information Block
#MNEM.UNIT        Data Type   Information
#---------- ----------------  -----------
STRT .M           390.60120:  START DEPTH
STOP .M          1234.44000:  STOP DEPTH
STEP .M             0.15240:  STEP
NULL .              -999.25:  NULL VALUE
COMP .                     :  COMPANY
WELL .         Resolution-1:  WELL
FLD  .                     :  FIELD
LOC  .                     :  LOCATION
CTRY .                     :  COUNTRY
STAT .                     :  STATE
CNTY .                     :  COUNTY
SRVC .     Shell BP Todd Canterbury Services Ltd:  SERVICE COMPANY
DATE .                     :  DATE
API  .                     :  API NUMBER
UWI  .         100000022150:  UNIQUE WELL ID
LATI .           -44.186126:  LATITUDE
LONG .          172.6362332:  LONGITUDE
~Curve Information Block
#MNEM.UNIT         API CODE   Curve Description
#---------- ----------------  -----------------
DEPTH.M                    :  Measured Depth (MD)
CT   .MH/M                 :  True formation conductivity
FPRESS.PSI                  :  Formation/hydrostatic pressure
FTEMP.DEGC                 :  Formation temperature
HMC_POR.IN                   :  Mudcake from nuclear/porosity
HMC_RES.IN                   :  Mudcake from resistivity/sonic
RM   .OHMM                 :  Mud resistivity
RMC  .OHMM                 :  Mudcake resistivity
RMF  .OHMM                 :  Mud filtrate resistivity
~Parameter Information Block
#MNEM.UNIT            Value   Description
#---------- ----------------  -----------
CUR_INT_BOT.M                1963:  Current interpolated bottom
PROJECT.     New Zealand Log QC Project:  
SET  .            EC_CURVES:  
ELEVATION_AMSL.M                  10:  Elevation above mean sea level
ELEVATION_REF.                   RT:  Measurement reference
FORMATION_AT_TD.            Volcanics:  Formation at TD
LICENCE_NUMBER.               PPL685:  Licence number
ONSHORE_OR_OFFSHORE.             Offshore:  Onshore/offshore
PR_NUMBER.                PR648:  Petroleum report number
SEAFLOOR_ELEVATION_BMSL.M             74.0000:  Seafloor elevation below mean sea level
SPUD_DATE.           09/07/1975:  Spud date
STATUS_AT_COMPLETION.     Dry and abandoned:  Status at completion
TD_DATE.           27/07/1975:  Total depth date
TOTAL_DEPTH_DRILLED.M                1963:  Total depth drilled
WATER_DEPTH.M                  64:  Water depth
~Other Information Block
# 
~A       DEPTH             CT         FPRESS          FTEMP        HMC_POR        HMC_RES             RM            RMC            RMF 
     390.60120       0.133540       665.7341        21.2754         0.0000         0.0000       0.526824       0.701630       0.368055
     390.75360       0.133528       665.9939        21.2790         0.0000         0.0000       0.526779       0.701570       0.368024
     390.90600       0.133516       666.2536        21.2827         0.0000         0.0000       0.526735       0.701511       0.367993
     391.05840       0.133905       666.5134        21.2863         0.0000         0.0000       0.526690       0.701452       0.367961
     391.21080       0.134939       666.7731        21.2899         0.0000         0.0000       0.526645       0.701392       0.367930
     391.36320       0.135974       667.0329        21.2935         0.0000         0.0000       0.526601       0.701333       0.367899
     391.51560       0.137013       667.2927        21.2971         0.0000         0.0000       0.526556       0.701274       0.367868
     391.66800       0.138093       667.5524        21.3007         0.0000         0.0000       0.526512       0.701214       0.367837
     391.82040       0.139172       667.8121        21.3044         0.0000         0.0000       0.526467       0.701155       0.367806
     391.97280       0.140252       668.0718        21.3080         0.0000         0.0000       0.526423       0.701096       0.367775
     392.12520       0.143131       668.3316        21.3116         0.0000         0.0000       0.526378       0.701037       0.367744
     392.27760       0.146402       668.5914        21.3152         0.0000         0.0000       0.526334       0.700977       0.367713
     392.43000       0.149673       668.8511        21.3188         0.0000         0.0000       0.526289       0.700918       0.367682
     392.58240       0.151070       669.1108        21.3225         0.0000         0.0000       0.526245       0.700859       0.367651
     392.73480       0.150874       669.3706        21.3261         0.0000         0.0000       0.526201       0.700800       0.367620
     392.88720       0.150679       669.6303        21.3297         0.0000         0.0000       0.526156       0.700741       0.367588
     393.03960       0.150399       669.8901        21.3333         0.0000         0.0000       0.526112       0.700681       0.367557
     393.19200       0.149879       670.1498        21.3369         0.0000         0.0000       0.526067       0.700622       0.367526
     393.34440       0.149358       670.4096        21.3405         0.0000         0.0000       0.526023       0.700563       0.367495
     393.49680       0.148837       670.6694        21.3442         0.0000         0.0000       0.525978       0.700504       0.367464
     393.64920       0.147295       670.9291        21.3478         0.0000         0.0000       0.525934       0.700445       0.367433
     393.80160       0.145731       671.1888        21.3514         0.0000         0.0000       0.525890       0.700386       0.367402
     393.95400       0.144168       671.4486        21.3550         0.0000         0.0000       0.525845       0.700327       0.367371
     394.10640       0.143599       671.7084        21.3586         0.0000         0.0000       0.525801       0.700267       0.367340
     394.25880       0.143460       671.9681        21.3622         0.0000         0.0000       0.525756       0.700208       0.367309
     394.41120       0.143322       672.2278        21.3659         0.0000         0.0000       0.525712       0.700149       0.367278
     394.56360       0.143562       672.4876        21.3695         0.0000         0.0000       0.525668       0.700090       0.367247
     394.71600       0.144332       672.7473        21.3731         0.0000         0.0000       0.525623       0.700031       0.367216
     394.86840       0.145102       673.0070        21.3767         0.0000         0.0000       0.525579       0.699972       0.367185
     395.02080       0.145866       673.2668        21.3803         0.0000         0.0000       0.525535       0.699913       0.367154
     395.17320       0.146592       673.5266        21.3840         0.0000         0.0000       0.525490       0.699854       0.367123
     395.32560       0.147319       673.7863        21.3876         0.0000         0.0000       0.525446       0.699795       0.367092
     395.47800       0.148046       674.0461        21.3912         0.0000         0.0000       0.525402       0.699736       0.367061
     395.63040       0.149709       674.3058        21.3948         0.0000         0.0000       0.525357       0.699677       0.367030
     395.78280       0.151530       674.5656        21.3984         0.0000         0.0000       0.525313       0.699618       0.366999
     395.93520       0.153351       674.8253        21.4020         0.0000         0.0000       0.525269       0.699559       0.366969
     396.08760       0.153603       675.0851        21.4057         0.0000         0.0000       0.525224       0.699500       0.366938
     396.24000       0.152693       675.3448        21.4093         0.0000         0.0000       0.525180       0.699441       0.366907
     396.39240       0.151783       675.6046        21.4129         0.0000         0.0000       0.525136       0.699382       0.366876
     396.54480       0.151781       675.8643        21.4165         0.0000         0.0000       0.525092       0.699323       0.366845
     396.69720       0.153962       676.1241        21.4201         0.0000         0.0000       0.525047       0.699264       0.366814
     396.84960       0.156143       676.3838        21.4238         0.0000         0.0000       0.525003       0.699205       0.366783
     397.00200       0.158290       676.6436        21.4274         0.0000         0.0000       0.524959       0.699146       0.366752
     397.15440       0.157902       676.9033        21.4310         0.0000         0.0000       0.524915       0.699087       0.366721
     397.30680       0.157515       677.1630        21.4346         0.0000         0.0000       0.524870       0.699028       0.366690
     397.45920       0.157127       677.4228        21.4382         0.0000         0.0000       0.524826       0.698969       0.366659
     397.61160       0.148995       677.6826        21.4418         0.0000         0.0000       0.524782       0.698910       0.366628
     397.76400       0.138031       677.9423        21.4455         0.0000         0.0000       0.524738       0.698851       0.366598
     397.91640       0.127068       678.2020        21.4491         0.0000         0.0000       0.524693       0.698793       0.366567
     398.06880       0.122037       678.4618        21.4527         0.0000         0.0000       0.524649       0.698734       0.366536
     398.22120       0.124213       678.7216        21.4563         0.0000         0.0000       0.524605       0.698675       0.366505
     398.37360       0.126390       678.9813        21.4599         0.0000         0.0000       0.524561       0.698616       0.366474
     398.52600       0.128483       679.2410        21.4636         0.0000         0.0000       0.524517       0.698557       0.366443
     398.67840       0.130171       679.5008        21.4672         0.0000         0.0000       0.524473       0.698498       0.366412
     398.83080       0.131858       679.7605        21.4708         0.0000         0.0000       0.524428       0.698440       0.366381
     398.98320       0.133546       680.0203        21.4744         0.0000         0.0000       0.524384       0.698381       0.366351
     399.13560       0.133633       680.2800        21.4780         0.0000         0.0000       0.524340       0.698322       0.366320
     399.28800       0.133521       680.5397        21.4816         0.0000         0.0000       0.524296       0.698263       0.366289
     399.44040       0.133410       680.7995        21.4853         0.0000         0.0000       0.524252       0.698204       0.366258
     399.59280       0.133364       681.0593        21.4889         0.0000         0.0000       0.524208       0.698146       0.366227
