~Version Information Block
VERS .                 2.00:  CWLS LOG ASCII STANDARD - VERSION 2.00
WRAP .                   NO:  One line per depth step
~Well Information Block
#MNEM.UNIT        Data Type   Information
#---------- ----------------  -----------
STRT .M           390.60120:  START DEPTH
STOP .M          1234.44000:  STOP DEPTH
STEP .M             0.15240:  STEP
NULL .              -999.25:  NULL VALUE
COMP .                     :  COMPANY
WELL .         Resolution-1:  WELL
FLD  .                     :  FIELD
LOC  .                     :  LOCATION
CTRY .                     :  COUNTRY
STAT .                     :  STATE
CNTY .                     :  COUNTY
SRVC .     Shell BP Todd Canterbury Services Ltd:  SERVICE COMPANY
DATE .                     :  DATE
API  .                     :  API NUMBER
UWI  .         100000022150:  UNIQUE WELL ID
LATI .           -44.186126:  LATITUDE
LONG .          172.6362332:  LONGITUDE
~Curve Information Block
#MNEM.UNIT         API CODE   Curve Description
#---------- ----------------  -----------------
DEPTH.M                    :  Measured Depth (MD)
CT   .MH/M                 :  True formation conductivity
FPRESS.PSI                  :  Formation/hydrostatic pressure
FTEMP.DEGC                 :  Formation temperature
HMC_POR.IN                   :  Mudcake from nuclear/porosity
HMC_RES.IN                   :  Mudcake from resistivity/sonic
RM   .OHMM                 :  Mud resistivity
RMC  .OHMM                 :  Mudcake resistivity
RMF  .OHMM                 :  Mud filtrate resistivity
~Parameter Information Block
#MNEM.UNIT            Value   Description
#---------- ----------------  -----------
CUR_INT_BOT.M                1963:  Current interpolated bottom
PROJECT.     New Zealand Log QC Project:  
SET  .            EC_CURVES:  
ELEVATION_AMSL.M                  10:  Elevation above mean sea level
ELEVATION_REF.                   RT:  Measurement reference
FORMATION_AT_TD.            Volcanics:  Formation at TD
LICENCE_NUMBER.               PPL685:  Licence number
ONSHORE_OR_OFFSHORE.             Offshore:  Onshore/offshore
PR_NUMBER.                PR648:  Petroleum report number
SEAFLOOR_ELEVATION_BMSL.M             74.0000:  Seafloor elevation below mean sea level
SPUD_DATE.           09/07/1975:  Spud date
STATUS_AT_COMPLETION.     Dry and abandoned:  Status at completion
TD_DATE.           27/07/1975:  Total depth date
TOTAL_DEPTH_DRILLED.M                1963:  Total depth drilled
WATER_DEPTH.M                  64:  Water depth
~Other Information Block
# 
~A       DEPTH             CT         FPRESS          FTEMP        HMC_POR        HMC_RES             RM            RMC            RMF 
# ...
     838.65720       0.719144      1429.3932        31.9124         0.0000         0.0000       0.421908       0.561901       0.294757
     838.80960       0.723058      1429.6530        31.9160         0.0000         0.0000       0.421879       0.561863       0.294737
     838.96200       0.726971      1429.9127        31.9196         0.0000         0.0000       0.421850       0.561825       0.294717
     839.11440       0.728217      1430.1725        31.9233         0.0000         0.0000       0.421822       0.561787       0.294697
     839.26680       0.728576      1430.4323        31.9269         0.0000         0.0000       0.421793       0.561749       0.294678
     839.41920       0.728935      1430.6920        31.9305         0.0000         0.0000       0.421765       0.561711       0.294658
     839.57160       0.727692      1430.9518        31.9341         0.0000         0.0000       0.421736       0.561673       0.294638
     839.72400       0.724640      1431.2114        31.9377         0.0000         0.0000       0.421708       0.561635       0.294618
     839.87640       0.721589      1431.4712        31.9413         0.0000         0.0000       0.421679       0.561597       0.294598
     840.02880       0.718933      1431.7310        31.9450         0.0000         0.0000       0.421651       0.561559       0.294578
     840.18120       0.717977      1431.9907        31.9486         0.0000         0.0000       0.421622       0.561521       0.294558
     840.33360       0.717020      1432.2505        31.9522         0.0000         0.0000       0.421593       0.561483       0.294538
     840.48600       0.716064      1432.5103        31.9558         0.0000         0.0000       0.421565       0.561445       0.294518
     840.63840       0.719247      1432.7700        31.9594         0.0000         0.0000       0.421536       0.561407       0.294498
     840.79080       0.722848      1433.0298        31.9631         0.0000         0.0000       0.421508       0.561369       0.294478
     840.94320       0.726449      1433.2896        31.9667         0.0000         0.0000       0.421479       0.561331       0.294458
     841.09560       0.727311      1433.5493        31.9703         0.0000         0.0000       0.421451       0.561293       0.294438
     841.24800       0.726546      1433.8091        31.9739         0.0000         0.0000       0.421422       0.561255       0.294418
     841.40040       0.725781      1434.0687        31.9775         0.0000         0.0000       0.421394       0.561217       0.294398
     841.55280       0.724314      1434.3285        31.9811         0.0000         0.0000       0.421365       0.561179       0.294379
     841.70520       0.721523      1434.5883        31.9848         0.0000         0.0000       0.421337       0.561141       0.294359
     841.85760       0.718732      1434.8480        31.9884         0.0000         0.0000       0.421308       0.561103       0.294339
     842.01000       0.715951      1435.1078        31.9920         0.0003         0.0003       0.421280       0.561065       0.294319
     842.16240       0.713306      1435.3674        31.9956         0.0046         0.0046       0.421251       0.561027       0.294299
     842.31480       0.710660      1435.6272        31.9992         0.0090         0.0090       0.421223       0.560989       0.294279
     842.46720       0.708015      1435.8870        32.0029         0.0133         0.0133       0.421194       0.560951       0.294259
     842.61960       0.699856      1436.1467        32.0065         0.0822         0.0822       0.421166       0.560913       0.294239
     842.77200       0.690184      1436.4065        32.0101         0.1688         0.1688       0.421137       0.560876       0.294219
     842.92440       0.680512      1436.6663        32.0137         0.2554         0.2554       0.421109       0.560838       0.294199
     843.07680       0.675692      1436.9260        32.0173         0.2526         0.2526       0.421080       0.560800       0.294179
     843.22920       0.675647      1437.1858        32.0209         0.1616         0.1616       0.421052       0.560762       0.294160
     843.38160       0.675603      1437.4456        32.0246         0.0707         0.0707       0.421024       0.560724       0.294140
     843.53400       0.676427      1437.7053        32.0282         0.0000         0.0000       0.420995       0.560686       0.294120
     843.68640       0.680274      1437.9650        32.0318         0.0000         0.0000       0.420967       0.560648       0.294100
     843.83880       0.684120      1438.2247        32.0354         0.0000         0.0000       0.420938       0.560610       0.294080
     843.99120       0.687967      1438.4844        32.0390         0.0000         0.0000       0.420910       0.560572       0.294060
     844.14360       0.690003      1438.7441        32.0427         0.0000         0.0000       0.420881       0.560534       0.294040
     844.29600       0.691927      1439.0039        32.0463         0.0000         0.0000       0.420853       0.560497       0.294020
     844.44840       0.693852      1439.2637        32.0499         0.0000         0.0000       0.420824       0.560459       0.294001
     844.60080       0.692229      1439.5234        32.0535         0.0000         0.0000       0.420796       0.560421       0.293981
     844.75320       0.688790      1439.7832        32.0571         0.0000         0.0000       0.420768       0.560383       0.293961
     844.90560       0.685351      1440.0428        32.0607         0.0000         0.0000       0.420739       0.560345       0.293941
     845.05800       0.679825      1440.3026        32.0644         0.0000         0.0000       0.420711       0.560307       0.293921
     845.21040       0.670900      1440.5624        32.0680         0.0000         0.0000       0.420682       0.560269       0.293901
     845.36280       0.661975      1440.8221        32.0716         0.0000         0.0000       0.420654       0.560232       0.293881
     845.51520       0.654304      1441.0819        32.0752         0.0000         0.0000       0.420625       0.560194       0.293862
     845.66760       0.657948      1441.3417        32.0788         0.0000         0.0000       0.420597       0.560156       0.293842
     845.82000       0.661592      1441.6014        32.0825         0.0000         0.0000       0.420569       0.560118       0.293822
     845.97240       0.665237      1441.8612        32.0861         0.0000         0.0000       0.420540       0.560080       0.293802
     846.12480       0.675113      1442.1208        32.0897         0.0000         0.0000       0.420512       0.560043       0.293782
     846.27720       0.686368      1442.3806        32.0933         0.0000         0.0000       0.420483       0.560005       0.293762
     846.42960       0.697623      1442.6404        32.0969         0.0000         0.0000       0.420455       0.559967       0.293743
     846.58200       0.707396      1442.9001        32.1005         0.0000         0.0000       0.420427       0.559929       0.293723
     846.73440       0.715898      1443.1599        32.1042         0.0000         0.0000       0.420398       0.559891       0.293703
     846.88680       0.724399      1443.4197        32.1078         0.0000         0.0000       0.420370       0.559853       0.293683
     847.03920       0.731785      1443.6794        32.1114         0.0000         0.0000       0.420342       0.559816       0.293663
     847.19160       0.735949      1443.9392        32.1150         0.0000         0.0000       0.420313       0.559778       0.293644
     847.34400       0.740113      1444.1989        32.1186         0.0000         0.0000       0.420285       0.559740       0.293624
     847.49640       0.744276      1444.4586        32.1222         0.0000         0.0000       0.420257       0.559702       0.293604
     847.64880       0.745637      1444.7184        32.1259         0.0000         0.0000       0.420228       0.559665       0.293584
