~Version Information Block
VERS .                 2.00:  CWLS LOG ASCII STANDARD - VERSION 2.00
WRAP .                   NO:  One line per depth step
~Well Information Block
#MNEM.UNIT        Data Type   Information
#---------- ----------------  -----------
STRT .M            74.52360:  START DEPTH
STOP .M          1955.44440:  STOP DEPTH
STEP .M             0.15240:  STEP
NULL .              -999.25:  NULL VALUE
COMP .                     :  COMPANY
WELL .         Resolution-1:  WELL
FLD  .                     :  FIELD
LOC  .                     :  LOCATION
CTRY .                     :  COUNTRY
STAT .                     :  STATE
CNTY .                     :  COUNTY
SRVC .     Shell BP Todd Canterbury Services Ltd:  SERVICE COMPANY
DATE .                     :  DATE
API  .                     :  API NUMBER
UWI  .         100000022150:  UNIQUE WELL ID
LATI .           -44.186126:  LATITUDE
LONG .          172.6362332:  LONGITUDE
~Curve Information Block
#MNEM.UNIT         API CODE   Curve Description
#---------- ----------------  -----------------
DEPTH.M                    :  
BS   .IN                   :  Bit Size (Created in Geolog)
CALI .IN            UNKNOWN:  Caliper (CALI)
DTC  .US/F          UNKNOWN:  Sonic (DT)
GR   .GAPI          UNKNOWN:  Gamma Ray (GR)
GR_CORR.GAPI                 :  Gamma ray corrected
RESD .OHMM          UNKNOWN:  Laterolog Deep Resistivity (LLD)
RESS .OHMM          UNKNOWN:  Shallow Laterolog (LLS)
SP   .MV            UNKNOWN:  Spontaneous Potential (SP)
~Parameter Information Block
#MNEM.UNIT            Value   Description
#---------- ----------------  -----------
CUR_INT_BOT.M                1963:  Current interpolated bottom
PROJECT.     New Zealand Log QC Project:  
SET  .     A0_FINAL_INTER_REF_D:  
ELEVATION_AMSL.M                  10:  Elevation above mean sea level
ELEVATION_REF.                   RT:  Measurement reference
FORMATION_AT_TD.            Volcanics:  Formation at TD
LICENCE_NUMBER.               PPL685:  Licence number
ONSHORE_OR_OFFSHORE.             Offshore:  Onshore/offshore
PR_NUMBER.                PR648:  Petroleum report number
SEAFLOOR_ELEVATION_BMSL.M             74.0000:  Seafloor elevation below mean sea level
SPUD_DATE.           09/07/1975:  Spud date
STATUS_AT_COMPLETION.     Dry and abandoned:  Status at completion
TD_DATE.           27/07/1975:  Total depth date
TOTAL_DEPTH_DRILLED.M                1963:  Total depth drilled
WATER_DEPTH.M                  64:  Water depth
~Other Information Block
# 
~A       DEPTH             BS           CALI            DTC             GR        GR_CORR           RESD           RESS             SP 
# ...
    1747.87560        12.2500        12.4515        99.4457        47.7346      -999.2500         3.5994         3.0238        79.1507
    1748.02800        12.2500        12.3894        98.2785        47.4370      -999.2500         3.8199         3.1986        78.9868
    1748.18040        12.2500        12.3891        96.8486        48.4369      -999.2500         4.0020         3.3013        78.9361
    1748.33280        12.2500        12.3889        95.4188        49.4368      -999.2500         4.1842         3.4040        78.8854
    1748.48520        12.2500        12.3887        93.9890        50.4367      -999.2500         4.3664         3.5067        78.8348
    1748.63760        12.2500        12.3971        94.0218        50.2457      -999.2500         4.3473         3.4922        78.8862
    1748.79000        12.2500        12.4063        94.2119        49.9266      -999.2500         4.3066         3.4652        78.9486
    1748.94240        12.2500        12.4156        94.4020        49.6074      -999.2500         4.2659         3.4381        79.0110
    1749.09480        12.2500        12.4157        94.6993        50.3202      -999.2500         4.2206         3.4140        79.0937
    1749.24720        12.2500        12.4102        95.0617        51.6600      -999.2500         4.1724         3.3917        79.1887
    1749.39960        12.2500        12.4046        95.4241        52.9997      -999.2500         4.1243         3.3694        79.2837
    1749.55200        12.2500        12.4058        95.7142        53.4994      -999.2500         4.0734         3.3401        79.3844
    1749.70440        12.2500        12.4197        95.8649        52.3770      -999.2500         4.0171         3.2972        79.4958
    1749.85680        12.2500        12.4337        96.0156        51.2546      -999.2500         3.9608         3.2543        79.6072
    1750.00920        12.2500        12.4466        96.1462        50.0759      -999.2500         3.9068         3.2129        79.7315
    1750.16160        12.2500        12.4433        95.9638        48.0200      -999.2500         3.8883         3.1966        80.0577
    1750.31400        12.2500        12.4399        95.7815        45.9641      -999.2500         3.8698         3.1802        80.3839
    1750.46640        12.2500        12.4365        95.5992        43.9082      -999.2500         3.8514         3.1638        80.7102
    1750.61880        12.2500        12.4673        96.2332        42.7830      -999.2500         3.7330         3.0761        80.8665
    1750.77120        12.2500        12.5077        97.0982        41.9211      -999.2500         3.5863         2.9683        80.9748
    1750.92360        12.2500        12.5482        97.9631        41.0592      -999.2500         3.4396         2.8605        81.0831
    1751.07600        12.2500        12.5699        98.4565        41.0397      -999.2500         3.4031         2.8224        81.1509
    1751.22840        12.2500        12.5727        98.5763        41.8670      -999.2500         3.4772         2.8544        81.1780
    1751.38080        12.2500        12.5755        98.6961        42.6943      -999.2500         3.5513         2.8864        81.2050
    1751.53320        12.2500        12.5838        98.8821        43.2730      -999.2500         3.5721         2.8827        81.2548
    1751.68560        12.2500        12.6119        99.3058        42.9587      -999.2500         3.4015         2.7509        81.3859
    1751.83800        12.2500        12.6400        99.7295        42.6445      -999.2500         3.2309         2.6192        81.5171
    1751.99040        12.2500        12.6681       100.1532        42.3302      -999.2500         3.0603         2.4874        81.6482
    1752.14280        12.2500        12.7335       100.6029        40.9754      -999.2500         2.8834         2.3756        81.7275
    1752.29520        12.2500        12.8014       101.0543        39.5507      -999.2500         2.7060         2.2652        81.8032
    1752.44760        12.2500        12.8693       101.5058        38.1259      -999.2500         2.5287         2.1548        81.8789
    1752.60000        12.2500        12.8810       101.7652        36.6322      -999.2500         2.4696         2.1123        81.8626
    1752.75240        12.2500        12.8632       101.9241        35.1024      -999.2500         2.4725         2.1054        81.7981
    1752.90480        12.2500        12.8454       102.0829        33.5726      -999.2500         2.4753         2.0986        81.7335
    1753.05720        12.2500        12.8514       102.0833        32.5664      -999.2500         2.4973         2.1088        81.6849
    1753.20960        12.2500        12.8971       101.8199        32.4317      -999.2500         2.5509         2.1475        81.6627
    1753.36200        12.2500        12.9428       101.5566        32.2970      -999.2500         2.6046         2.1863        81.6405
    1753.51440        12.2500        12.9784       101.3280        32.1993      -999.2500         2.6589         2.2235        81.6380
    1753.66680        12.2500        12.9174       101.4337        32.4554      -999.2500         2.7194         2.2466        81.8230
    1753.81920        12.2500        12.8563       101.5393        32.7115      -999.2500         2.7800         2.2697        82.0080
    1753.97160        12.2500        12.7953       101.6449        32.9677      -999.2500         2.8406         2.2928        82.1930
    1754.12400        12.2500        12.7142       101.3142        32.9860      -999.2500         2.8937         2.3221        82.4438
    1754.27640        12.2500        12.6285       100.8836        32.9500      -999.2500         2.9450         2.3527        82.7097
    1754.42880        12.2500        12.5428       100.4530        32.9139      -999.2500         2.9964         2.3833        82.9756
    1754.58120        12.2500        12.5107        99.9461        32.9166      -999.2500         3.0288         2.3974        83.1325
    1754.73360        12.2500        12.5255        99.3724        32.9532      -999.2500         3.0447         2.3969        83.1937
    1754.88600        12.2500        12.5404        98.7986        32.9899      -999.2500         3.0606         2.3964        83.2550
    1755.03840        12.2500        12.5669        98.4815        32.9546      -999.2500         3.0693         2.3933        83.2220
    1755.19080        12.2500        12.6284        98.9262        32.7055      -999.2500         3.0564         2.3824        82.9089
    1755.34320        12.2500        12.6898        99.3710        32.4564      -999.2500         3.0436         2.3714        82.5958
    1755.49560        12.2500        12.7513        99.8157        32.2073      -999.2500         3.0307         2.3605        82.2827
    1755.64800        12.2500        12.7466       100.4010        32.4312      -999.2500         3.0090         2.3587        81.6706
    1755.80040        12.2500        12.7400       100.9904        32.6693      -999.2500         2.9870         2.3571        81.0497
    1755.95280        12.2500        12.7334       101.5799        32.9073      -999.2500         2.9650         2.3556        80.4288
    1756.10520        12.2500        12.7294       101.5755        33.3830      -999.2500         2.9807         2.3777        79.9028
    1756.25760        12.2500        12.7266       101.3047        33.9653      -999.2500         3.0133         2.4105        79.4194
    1756.41000        12.2500        12.7238       101.0339        34.5475      -999.2500         3.0459         2.4433        78.9360
    1756.56240        12.2500        12.6911       100.5726        34.8942      -999.2500         3.0929         2.4760        78.9046
    1756.71480        12.2500        12.6153        99.8368        34.9012      -999.2500         3.1607         2.5085        79.5249
    1756.86720        12.2500        12.5396        99.1010        34.9081      -999.2500         3.2284         2.5411        80.1453
