~Version Information Block
VERS .                 2.00:  CWLS LOG ASCII STANDARD - VERSION 2.00
WRAP .                   NO:  One line per depth step
~Well Information Block
#MNEM.UNIT        Data Type   Information
#---------- ----------------  -----------
STRT .M           390.60120:  START DEPTH
STOP .M          1234.44000:  STOP DEPTH
STEP .M             0.15240:  STEP
NULL .              -999.25:  NULL VALUE
COMP .                     :  COMPANY
WELL .         Resolution-1:  WELL
FLD  .                     :  FIELD
LOC  .                     :  LOCATION
CTRY .                     :  COUNTRY
STAT .                     :  STATE
CNTY .                     :  COUNTY
SRVC .     Shell BP Todd Canterbury Services Ltd:  SERVICE COMPANY
DATE .                     :  DATE
API  .                     :  API NUMBER
UWI  .         100000022150:  UNIQUE WELL ID
LATI .           -44.186126:  LATITUDE
LONG .          172.6362332:  LONGITUDE
~Curve Information Block
#MNEM.UNIT         API CODE   Curve Description
#---------- ----------------  -----------------
DEPTH.M                    :  Measured Depth (MD)
CT   .MH/M                 :  True formation conductivity
FPRESS.PSI                  :  Formation/hydrostatic pressure
FTEMP.DEGC                 :  Formation temperature
HMC_POR.IN                   :  Mudcake from nuclear/porosity
HMC_RES.IN                   :  Mudcake from resistivity/sonic
RM   .OHMM                 :  Mud resistivity
RMC  .OHMM                 :  Mudcake resistivity
RMF  .OHMM                 :  Mud filtrate resistivity
~Parameter Information Block
#MNEM.UNIT            Value   Description
#---------- ----------------  -----------
CUR_INT_BOT.M                1963:  Current interpolated bottom
PROJECT.     New Zealand Log QC Project:  
SET  .            EC_CURVES:  
ELEVATION_AMSL.M                  10:  Elevation above mean sea level
ELEVATION_REF.                   RT:  Measurement reference
FORMATION_AT_TD.            Volcanics:  Formation at TD
LICENCE_NUMBER.               PPL685:  Licence number
ONSHORE_OR_OFFSHORE.             Offshore:  Onshore/offshore
PR_NUMBER.                PR648:  Petroleum report number
SEAFLOOR_ELEVATION_BMSL.M             74.0000:  Seafloor elevation below mean sea level
SPUD_DATE.           09/07/1975:  Spud date
STATUS_AT_COMPLETION.     Dry and abandoned:  Status at completion
TD_DATE.           27/07/1975:  Total depth date
TOTAL_DEPTH_DRILLED.M                1963:  Total depth drilled
WATER_DEPTH.M                  64:  Water depth
~Other Information Block
# 
~A       DEPTH             CT         FPRESS          FTEMP        HMC_POR        HMC_RES             RM            RMC            RMF 
# ...
     719.78520       0.626082      1226.7898        29.0903         0.0000         0.0000       0.445443       0.593246       0.311200
     719.93760       0.613990      1227.0496        29.0940         0.0000         0.0000       0.445411       0.593203       0.311177
     720.09000       0.604316      1227.3093        29.0976         0.0000         0.0000       0.445379       0.593161       0.311155
     720.24240       0.596320      1227.5691        29.1012         0.0000         0.0000       0.445347       0.593118       0.311133
     720.39480       0.588324      1227.8289        29.1048         0.0000         0.0000       0.445315       0.593076       0.311111
     720.54720       0.581358      1228.0886        29.1084         0.0000         0.0000       0.445283       0.593034       0.311088
     720.69960       0.576687      1228.3484        29.1121         0.0000         0.0000       0.445252       0.592991       0.311066
     720.85200       0.572015      1228.6082        29.1157         0.0000         0.0000       0.445220       0.592949       0.311044
     721.00440       0.567273      1228.8678        29.1193         0.0000         0.0000       0.445188       0.592906       0.311022
     721.15680       0.560133      1229.1276        29.1229         0.0000         0.0000       0.445156       0.592864       0.311000
     721.30920       0.552993      1229.3873        29.1265         0.0000         0.0000       0.445124       0.592822       0.310977
     721.46160       0.545853      1229.6471        29.1301         0.0000         0.0000       0.445093       0.592779       0.310955
     721.61400       0.540994      1229.9069        29.1338         0.0000         0.0000       0.445061       0.592737       0.310933
     721.76640       0.536904      1230.1665        29.1374         0.0000         0.0000       0.445029       0.592695       0.310911
     721.91880       0.532814      1230.4263        29.1410         0.0000         0.0000       0.444997       0.592652       0.310888
     722.07120       0.543099      1230.6860        29.1446         0.0000         0.0000       0.444965       0.592610       0.310866
     722.22360       0.569778      1230.9458        29.1482         0.0000         0.0000       0.444934       0.592568       0.310844
     722.37600       0.596457      1231.2056        29.1519         0.0000         0.0000       0.444902       0.592525       0.310822
     722.52840       0.620149      1231.4653        29.1555         0.0000         0.0000       0.444870       0.592483       0.310800
     722.68080       0.630797      1231.7251        29.1591         0.0000         0.0000       0.444838       0.592441       0.310777
     722.83320       0.641445      1231.9849        29.1627         0.0000         0.0000       0.444806       0.592398       0.310755
     722.98560       0.652093      1232.2446        29.1663         0.0000         0.0000       0.444775       0.592356       0.310733
     723.13800       0.654431      1232.5043        29.1699         0.0000         0.0000       0.444743       0.592314       0.310711
     723.29040       0.655901      1232.7640        29.1736         0.0000         0.0000       0.444711       0.592271       0.310689
     723.44280       0.657371      1233.0237        29.1772         0.0000         0.0000       0.444679       0.592229       0.310666
     723.59520       0.656239      1233.2834        29.1808         0.0000         0.0000       0.444648       0.592187       0.310644
     723.74760       0.653544      1233.5432        29.1844         0.0000         0.0000       0.444616       0.592145       0.310622
     723.90000       0.650848      1233.8030        29.1880         0.0000         0.0000       0.444584       0.592102       0.310600
     724.05240       0.651762      1234.0627        29.1917         0.0000         0.0000       0.444553       0.592060       0.310578
     724.20480       0.659562      1234.3224        29.1953         0.0000         0.0000       0.444521       0.592018       0.310556
     724.35720       0.667363      1234.5822        29.1989         0.0000         0.0000       0.444489       0.591976       0.310533
     724.50960       0.674984      1234.8419        29.2025         0.0000         0.0000       0.444457       0.591933       0.310511
     724.66200       0.679933      1235.1017        29.2061         0.0000         0.0000       0.444426       0.591891       0.310489
     724.81440       0.684882      1235.3615        29.2097         0.0000         0.0000       0.444394       0.591849       0.310467
     724.96680       0.689830      1235.6212        29.2134         0.0000         0.0000       0.444362       0.591807       0.310445
     725.11920       0.691066      1235.8810        29.2170         0.0000         0.0000       0.444330       0.591764       0.310423
     725.27160       0.691269      1236.1407        29.2206         0.0000         0.0000       0.444299       0.591722       0.310401
     725.42400       0.691471      1236.4005        29.2242         0.0000         0.0000       0.444267       0.591680       0.310378
     725.57640       0.692609      1236.6603        29.2278         0.0000         0.0000       0.444235       0.591638       0.310356
     725.72880       0.694677      1236.9200        29.2314         0.0000         0.0000       0.444204       0.591596       0.310334
     725.88120       0.696746      1237.1797        29.2351         0.0000         0.0000       0.444172       0.591553       0.310312
     726.03360       0.697796      1237.4395        29.2387         0.0000         0.0000       0.444140       0.591511       0.310290
     726.18600       0.695249      1237.6992        29.2423         0.0000         0.0000       0.444109       0.591469       0.310268
     726.33840       0.692701      1237.9590        29.2459         0.0000         0.0000       0.444077       0.591427       0.310246
     726.49080       0.690153      1238.2188        29.2495         0.0000         0.0000       0.444045       0.591385       0.310224
     726.64320       0.691198      1238.4785        29.2532         0.0000         0.0000       0.444014       0.591343       0.310201
     726.79560       0.692474      1238.7383        29.2568         0.0000         0.0000       0.443982       0.591300       0.310179
     726.94800       0.693750      1238.9980        29.2604         0.0000         0.0000       0.443950       0.591258       0.310157
     727.10040       0.696779      1239.2578        29.2640         0.0000         0.0000       0.443919       0.591216       0.310135
     727.25280       0.700716      1239.5176        29.2676         0.0000         0.0000       0.443887       0.591174       0.310113
     727.40520       0.704653      1239.7772        29.2712         0.0000         0.0000       0.443856       0.591132       0.310091
     727.55760       0.706070      1240.0370        29.2749         0.0000         0.0000       0.443824       0.591090       0.310069
     727.71000       0.703338      1240.2968        29.2785         0.0000         0.0000       0.443792       0.591048       0.310047
     727.86240       0.700606      1240.5565        29.2821         0.0000         0.0000       0.443761       0.591006       0.310025
     728.01480       0.696143      1240.8163        29.2857         0.0000         0.0000       0.443729       0.590963       0.310003
     728.16720       0.675581      1241.0759        29.2893         0.0000         0.0000       0.443697       0.590921       0.309980
     728.31960       0.655019      1241.3357        29.2930         0.0000         0.0000       0.443666       0.590879       0.309958
     728.47200       0.634457      1241.5955        29.2966         0.0000         0.0000       0.443634       0.590837       0.309936
     728.62440       0.614500      1241.8552        29.3002         0.0000         0.0000       0.443603       0.590795       0.309914
     728.77680       0.594678      1242.1150        29.3038         0.0000         0.0000       0.443571       0.590753       0.309892
