~Version Information Block
VERS .                 2.00:  CWLS LOG ASCII STANDARD - VERSION 2.00
WRAP .                   NO:  One line per depth step
~Well Information Block
#MNEM.UNIT        Data Type   Information
#---------- ----------------  -----------
STRT .M           377.95200:  START DEPTH
STOP .M          1955.59680:  STOP DEPTH
STEP .M             0.15240:  STEP
NULL .              -999.25:  NULL VALUE
COMP .                     :  COMPANY
WELL .         Resolution-1:  WELL
FLD  .                     :  FIELD
LOC  .                     :  LOCATION
CTRY .                     :  COUNTRY
STAT .                     :  STATE
CNTY .                     :  COUNTY
SRVC .     Shell BP Todd Canterbury Services Ltd:  SERVICE COMPANY
DATE .                     :  DATE
API  .                     :  API NUMBER
UWI  .         100000022150:  UNIQUE WELL ID
LATI .           -44.186126:  LATITUDE
LONG .          172.6362332:  LONGITUDE
~Curve Information Block
#MNEM.UNIT         API CODE   Curve Description
#---------- ----------------  -----------------
DEPTH.M                    :  
CALI .IN            UNKNOWN:  2  Caliper
DT   .US/F          UNKNOWN:  3  Sonic
LLD  .OHMM          UNKNOWN:  5  Latero-Log Deep
LLS  .OHMM          UNKNOWN:  6  Latero-Log Shallow
SP   .MV            UNKNOWN:  7  Spontaneous Potential
~Parameter Information Block
#MNEM.UNIT            Value   Description
#---------- ----------------  -----------
CUR_INT_BOT.M           1955.9016:  Current interpolated bottom
PROJECT.     New Zealand Log QC Project:  
SET  .      RAW_INTER_REF_D:  
ELEVATION_AMSL.M                  10:  Elevation above mean sea level
ELEVATION_REF.                   RT:  Measurement reference
FORMATION_AT_TD.            Volcanics:  Formation at TD
LICENCE_NUMBER.               PPL685:  Licence number
ONSHORE_OR_OFFSHORE.             Offshore:  Onshore/offshore
PR_NUMBER.                PR648:  Petroleum report number
SEAFLOOR_ELEVATION_BMSL.M             74.0000:  Seafloor elevation below mean sea level
SPUD_DATE.           09/07/1975:  Spud date
STATUS_AT_COMPLETION.     Dry and abandoned:  Status at completion
TD_DATE.           27/07/1975:  Total depth date
TOTAL_DEPTH_DRILLED.M                1963:  Total depth drilled
WATER_DEPTH.M                  64:  Water depth
~Other Information Block
# 
~A       DEPTH           CALI             DT            LLD            LLS             SP 
# ...
    1517.29440        13.3441       115.8395         2.8462         2.2019        88.8179
    1517.44680        13.3798       114.5957         2.8979         2.2135        89.1542
    1517.59920        13.5127       112.6127         2.8911         2.2269        89.4826
    1517.75160        13.4939       111.4606         2.8622         2.2356        89.6007
    1517.90400        13.4705       112.3941         2.8362         2.2160        89.5377
    1518.05640        13.5712       114.7255         2.8065         2.1919        89.3526
    1518.20880        13.5045       117.1814         2.7745         2.1726        89.2339
    1518.36120        13.3286       118.3281         2.7656         2.1836        89.1751
    1518.51360        13.1753       116.4689         2.7973         2.1836        89.2981
    1518.66600        13.0668       115.3937         2.7878         2.1525        89.2949
    1518.81840        13.0383       116.4635         2.7229         2.1058        89.1982
    1518.97080        13.1030       116.8494         2.6619         2.0745        89.0573
    1519.12320        13.1523       117.5938         2.6300         2.0816        89.0125
    1519.27560        13.1071       115.1452         2.6656         2.0564        89.0664
    1519.42800        13.0147       113.3780         2.7389         2.0866        89.2980
    1519.58040        12.9167       113.2319         2.7739         2.1675        89.5601
    1519.73280        12.8578       114.9446         2.7525         2.1805        89.7762
    1519.88520        12.8622       117.7792         2.7143         2.1360        89.7495
    1520.03760        12.9166       120.4974         2.6910         2.1069        89.5850
    1520.19000        12.9780       121.0336         2.6816         2.0954        89.3294
    1520.34240        13.0305       122.0219         2.6916         2.0961        89.0297
    1520.49480        13.0555       123.2296         2.7063         2.1059        88.6934
    1520.64720        13.0464       122.6109         2.7330         2.1287        88.4492
    1520.79960        13.0345       121.5658         2.7822         2.1624        88.2060
    1520.95200        13.0095       120.9182         2.8221         2.2089        87.9735
    1521.10440        12.9990       120.3246         2.8435         2.2484        87.7888
    1521.25680        13.0130       119.7952         2.8569         2.2494        87.6087
    1521.40920        13.0439       121.5382         2.8602         2.2240        87.4840
    1521.56160        13.1147       122.4108         2.8559         2.2150        87.4153
    1521.71400        13.1228       121.5523         2.8490         2.2161        87.4655
    1521.86640        13.0701       120.4111         2.8433         2.2184        87.6304
    1522.01880        13.0317       119.8103         2.8306         2.2190        87.8008
    1522.17120        13.0406       119.7597         2.8174         2.2053        88.0510
    1522.32360        13.0745       120.3379         2.8105         2.2000        88.4735
    1522.47600        13.1127       120.8335         2.8137         2.1901        88.8578
    1522.62840        13.1725       121.0195         2.8143         2.1725        89.1774
    1522.78080        13.2427       120.8039         2.7982         2.1723        89.2725
    1522.93320        13.2816       120.1324         2.7781         2.1772        89.1774
    1523.08560        13.2755       119.6233         2.7620         2.1848        89.0798
    1523.23800        13.2413       120.1690         2.7560         2.1870        88.9656
    1523.39040        13.2088       119.6928         2.7568         2.1763        88.8764
    1523.54280        13.1457       118.6277         2.7805         2.1850        88.9308
    1523.69520        13.0731       118.0337         2.8176         2.2210        89.0855
    1523.84760        13.0784       117.1332         2.8475         2.2545        89.2450
    1524.00000        13.2306       117.0053         2.8350         2.2668        89.2857
    1524.15240        13.3624       119.1321         2.7947         2.2503        89.2966
    1524.30480        13.2417       120.3460         2.7447         2.2123        89.2500
    1524.45720        13.1746       120.4408         2.7109         2.1666        89.2224
    1524.60960        13.2034       120.2636         2.7014         2.1458        89.1489
    1524.76200        13.2484       119.6386         2.7473         2.1450        89.0630
    1524.91440        13.2613       119.5137         2.8022         2.1619        89.0500
    1525.06680        13.2973       119.8063         2.8301         2.1808        89.0695
    1525.21920        13.4388       122.0435         2.8362         2.2056        89.0552
    1525.37160        13.6830       122.9870         2.8901         2.2338        89.0155
    1525.52400        13.9458       123.1986         2.9729         2.2718        88.8991
    1525.67640        14.0901       121.1919         2.9538         2.2944        88.7385
    1525.82880        14.1649       118.6453         2.8687         2.2424        88.5225
    1525.98120        14.2060       118.2178         2.8032         2.1980        88.3097
    1526.13360        14.2284       119.6198         2.7835         2.1811        88.1483
    1526.28600        14.2117       121.8230         2.8051         2.1880        88.0775
    1526.43840        14.1269       123.9230         2.8555         2.1989        88.1658
    1526.59080        14.0088       125.0055         2.8680         2.2182        88.2684
    1526.74320        13.9215       124.0242         2.8305         2.2308        88.4422
    1526.89560        13.8623       121.7723         2.7674         2.1991        88.6672
    1527.04800        13.7867       120.1407         2.7067         2.1506        88.9038
    1527.20040        13.6944       120.5543         2.7143         2.1246        89.1727
    1527.35280        13.5886       121.6678         2.7677         2.1409        89.4922
    1527.50520        13.4740       122.1280         2.8168         2.1697        89.8053
    1527.65760        13.3454       122.0795         2.8625         2.2049        90.0666
    1527.81000        13.2443       121.4489         2.8884         2.2363        90.2110
    1527.96240        13.1859       120.7377         2.8918         2.2394        90.2620
    1528.11480        13.1052       120.1043         2.8324         2.2167        90.2355
    1528.26720        13.0301       119.3185         2.7719         2.1886        90.1259
    1528.41960        12.9999       118.7195         2.8047         2.1821        90.0828
    1528.57200        12.9931       117.9189         2.9316         2.2384        90.0514
    1528.72440        12.9829       116.8989         3.1014         2.3375        89.9511
    1528.87680        12.9804       115.1321         3.2920         2.4813        89.8130
    1529.02920        12.9734       109.5200         3.5140         2.6117        89.6364
    1529.18160        12.9397       104.1593         3.4987         2.6998        89.4268
    1529.33400        12.8999        97.3419         3.1254         2.5291        89.2549
    1529.48640        12.8707        91.6638         2.8560         2.3281        89.0612
    1529.63880        12.8739        91.9211         2.8195         2.2150        88.9922
    1529.79120        12.9075       104.5337         2.8339         2.2046        88.9941
    1529.94360        12.9575       111.1813         2.8282         2.2161        89.0812
    1530.09600        13.0062       115.9380         2.7897         2.2032        89.1883
    1530.24840        13.0491       117.0322         2.7571         2.1855        89.2648
    1530.40080        13.0690       117.1860         2.7533         2.1844        89.3903
    1530.55320        13.0621       117.7537         2.7954         2.2125        89.4781
    1530.70560        13.0520       118.7113         2.8657         2.2496        89.5313
