~Version Information Block
VERS .                 2.00:  CWLS LOG ASCII STANDARD - VERSION 2.00
WRAP .                   NO:  One line per depth step
~Well Information Block
#MNEM.UNIT        Data Type   Information
#---------- ----------------  -----------
STRT .M            74.52360:  START DEPTH
STOP .M          1955.44440:  STOP DEPTH
STEP .M             0.15240:  STEP
NULL .              -999.25:  NULL VALUE
COMP .                     :  COMPANY
WELL .         Resolution-1:  WELL
FLD  .                     :  FIELD
LOC  .                     :  LOCATION
CTRY .                     :  COUNTRY
STAT .                     :  STATE
CNTY .                     :  COUNTY
SRVC .     Shell BP Todd Canterbury Services Ltd:  SERVICE COMPANY
DATE .                     :  DATE
API  .                     :  API NUMBER
UWI  .         100000022150:  UNIQUE WELL ID
LATI .           -44.186126:  LATITUDE
LONG .          172.6362332:  LONGITUDE
~Curve Information Block
#MNEM.UNIT         API CODE   Curve Description
#---------- ----------------  -----------------
DEPTH.M                    :  
BS   .IN                   :  Bit Size (Created in Geolog)
CALI .IN            UNKNOWN:  Caliper (CALI)
DTC  .US/F          UNKNOWN:  Sonic (DT)
GR   .GAPI          UNKNOWN:  Gamma Ray (GR)
GR_CORR.GAPI                 :  Gamma ray corrected
RESD .OHMM          UNKNOWN:  Laterolog Deep Resistivity (LLD)
RESS .OHMM          UNKNOWN:  Shallow Laterolog (LLS)
SP   .MV            UNKNOWN:  Spontaneous Potential (SP)
~Parameter Information Block
#MNEM.UNIT            Value   Description
#---------- ----------------  -----------
CUR_INT_BOT.M                1963:  Current interpolated bottom
PROJECT.     New Zealand Log QC Project:  
SET  .     A0_FINAL_INTER_REF_D:  
ELEVATION_AMSL.M                  10:  Elevation above mean sea level
ELEVATION_REF.                   RT:  Measurement reference
FORMATION_AT_TD.            Volcanics:  Formation at TD
LICENCE_NUMBER.               PPL685:  Licence number
ONSHORE_OR_OFFSHORE.             Offshore:  Onshore/offshore
PR_NUMBER.                PR648:  Petroleum report number
SEAFLOOR_ELEVATION_BMSL.M             74.0000:  Seafloor elevation below mean sea level
SPUD_DATE.           09/07/1975:  Spud date
STATUS_AT_COMPLETION.     Dry and abandoned:  Status at completion
TD_DATE.           27/07/1975:  Total depth date
TOTAL_DEPTH_DRILLED.M                1963:  Total depth drilled
WATER_DEPTH.M                  64:  Water depth
~Other Information Block
# 
~A       DEPTH             BS           CALI            DTC             GR        GR_CORR           RESD           RESS             SP 
# ...
    1098.65160        17.5000        17.5126       124.7413        64.0343        79.6061         1.4678         1.3411        43.2462
    1098.80400        17.5000        17.5108       124.1881        63.5905        79.0544         1.4534         1.3386        43.3812
    1098.95640        17.5000        17.5089       123.6349        63.1468        78.5028         1.4391         1.3361        43.5163
    1099.10880        17.5000        17.4911       123.2629        62.5801        77.7983         1.4249         1.3205        43.5714
    1099.26120        17.5000        17.4668       122.9635        61.9641        77.0326         1.4107         1.2995        43.5945
    1099.41360        17.5000        17.4426       122.6641        61.3482        76.2669         1.3965         1.2786        43.6176
    1099.56600        17.5000        17.4302       122.8960        61.4370        76.3773         1.3862         1.2666        43.7902
    1099.71840        17.5000        17.4333       123.8235        62.4485        77.6347         1.3809         1.2661        44.1586
    1099.87080        17.5000        17.4363       124.7510        63.4599        78.8920         1.3755         1.2657        44.5270
    1100.02320        17.5000        17.4407       125.5721        64.3122        79.9516         1.3711         1.2671        44.8638
    1100.17560        17.5000        17.4522       125.8005        64.2783        79.9095         1.3718         1.2788        45.0244
    1100.32800        17.5000        17.4637       126.0289        64.2445        79.8675         1.3724         1.2905        45.1851
    1100.48040        17.5000        17.4752       126.2573        64.2106        79.8254         1.3731         1.3022        45.3457
    1100.63280        17.5000        17.4845       125.6761        65.0863        80.9140         1.3768         1.3063        45.0791
    1100.78520        17.5000        17.4936       124.9755        66.0962        82.1694         1.3810         1.3093        44.7494
    1100.93760        17.5000        17.5026       124.2748        67.1061        83.4249         1.3852         1.3122        44.4197
    1101.09000        17.5000        17.5017       124.4463        67.4266        83.8234         1.3824         1.3050        44.0796
    1101.24240        17.5000        17.4939       125.2225        67.2692        83.6277         1.3747         1.2908        43.7324
    1101.39480        17.5000        17.4862       125.9987        67.1117        83.4320         1.3669         1.2765        43.3851
    1101.54720        17.5000        17.4786       126.4618        66.6307        82.8339         1.3608         1.2652        43.1111
    1101.69960        17.5000        17.4715       126.2272        65.4283        81.3391         1.3584         1.2602        43.0005
    1101.85200        17.5000        17.4644       125.9925        64.2259        79.8443         1.3560         1.2553        42.8899
    1102.00440        17.5000        17.4595       125.7769        63.0262        78.3529         1.3538         1.2507        42.7884
    1102.15680        17.5000        17.5321       126.2004        61.9192        76.9767         1.3587         1.2595        42.9924
    1102.30920        17.5000        17.6047       126.6239        60.8123        75.6006         1.3635         1.2683        43.1964
    1102.46160        17.5000        17.6773       127.0475        59.7053        74.2244         1.3684         1.2770        43.4005
    1102.61400        17.5000        17.6635       126.7026        59.8534        74.4085         1.3694         1.2777        43.7695
    1102.76640        17.5000        17.6206       126.0990        60.4242        75.1182         1.3691         1.2757        44.1940
    1102.91880        17.5000        17.5776       125.4953        60.9951        75.8279         1.3688         1.2736        44.6185
    1103.07120        17.5000        17.5473       125.1518        61.2587        76.1556         1.3646         1.2677        45.2030
    1103.22360        17.5000        17.5314       125.1050        61.1720        76.0478         1.3559         1.2574        45.9700
    1103.37600        17.5000        17.5155       125.0583        61.0852        75.9399         1.3471         1.2471        46.7370
    1103.52840        17.5000        17.5055       124.9916        60.7743        75.5534         1.3401         1.2387        47.5794
    1103.68080        17.5000        17.5210       124.8378        59.4845        73.9499         1.3405         1.2388        48.7513
    1103.83320        17.5000        17.5366       124.6841        58.1947        72.3464         1.3409         1.2389        49.9232
    1103.98560        17.5000        17.5522       124.5303        56.9048        70.7430         1.3413         1.2391        51.0950
    1104.13800        17.5000        17.5701       124.5919        54.8785        68.2239         1.3440         1.2270        51.5192
    1104.29040        17.5000        17.5883       124.6759        52.7753        65.6092         1.3469         1.2137        51.8653
    1104.44280        17.5000        17.6065       124.7599        50.6722        62.9946         1.3497         1.2004        52.2115
    1104.59520        17.5000        17.6251       124.6904        48.1565        59.8672         1.3197         1.1646        52.1599
    1104.74760        17.5000        17.6440       124.5286        45.3930        56.4317         1.2699         1.1151        51.8692
    1104.90000        17.5000        17.6628       124.3669        42.6296        52.9962         1.2200         1.0656        51.5786
    1105.05240        17.5000        17.6816       124.4142        40.0521        49.7920         1.1928         1.0349        51.2775
    1105.20480        17.5000        17.7000       124.8604        37.8297        47.0291         1.2088         1.0399        50.9566
    1105.35720        17.5000        17.7185       125.3066        35.6073        44.2663         1.2249         1.0448        50.6357
    1105.50960        17.5000        17.7375       125.8020        33.4547        41.5902         1.2378         1.0487        50.3334
    1105.66200        17.5000        17.7657       127.0272        32.3409        40.2055         1.2057         1.0351        50.3075
    1105.81440        17.5000        17.7939       128.2525        31.2270        38.8208         1.1735         1.0215        50.2816
    1105.96680        17.5000        17.8220       129.4778        30.1132        37.4361         1.1413         1.0079        50.2557
    1106.11920        17.5000        17.8300       131.4491        30.1102        37.4324         1.1194         0.9886        50.4796
    1106.27160        17.5000        17.8324       133.6281        30.4166        37.8134         1.1003         0.9676        50.7731
    1106.42400        17.5000        17.8347       135.8072        30.7231        38.1943         1.0812         0.9467        51.0666
    1106.57640        17.5000        17.8251       137.0179        31.0672        38.6222         1.0717         0.9363        51.4694
    1106.72880        17.5000        17.8037       137.2655        31.4489        39.0966         1.0719         0.9366        51.9809
    1106.88120        17.5000        17.7822       137.5130        31.8305        39.5711         1.0721         0.9368        52.4925
    1107.03360        17.5000        17.7630       137.7666        32.0301        39.8192         1.0738         0.9373        53.0449
    1107.18600        17.5000        17.7520       138.0417        31.5861        39.2672         1.0809         0.9387        53.7420
    1107.33840        17.5000        17.7409       138.3168        31.1421        38.7152         1.0880         0.9400        54.4391
    1107.49080        17.5000        17.7299       138.5918        30.6980        38.1632         1.0951         0.9414        55.1361
    1107.64320        17.5000        17.7391       137.8351        29.9546        37.2389         1.0975         0.9377        55.7659
