~Version Information Block
VERS .                 2.00:  CWLS LOG ASCII STANDARD - VERSION 2.00
WRAP .                   NO:  One line per depth step
~Well Information Block
#MNEM.UNIT        Data Type   Information
#---------- ----------------  -----------
STRT .M           390.60120:  START DEPTH
STOP .M          1234.44000:  STOP DEPTH
STEP .M             0.15240:  STEP
NULL .              -999.25:  NULL VALUE
COMP .                     :  COMPANY
WELL .         Resolution-1:  WELL
FLD  .                     :  FIELD
LOC  .                     :  LOCATION
CTRY .                     :  COUNTRY
STAT .                     :  STATE
CNTY .                     :  COUNTY
SRVC .     Shell BP Todd Canterbury Services Ltd:  SERVICE COMPANY
DATE .                     :  DATE
API  .                     :  API NUMBER
UWI  .         100000022150:  UNIQUE WELL ID
LATI .           -44.186126:  LATITUDE
LONG .          172.6362332:  LONGITUDE
~Curve Information Block
#MNEM.UNIT         API CODE   Curve Description
#---------- ----------------  -----------------
DEPTH.M                    :  Measured Depth (MD)
CT   .MH/M                 :  True formation conductivity
FPRESS.PSI                  :  Formation/hydrostatic pressure
FTEMP.DEGC                 :  Formation temperature
HMC_POR.IN                   :  Mudcake from nuclear/porosity
HMC_RES.IN                   :  Mudcake from resistivity/sonic
RM   .OHMM                 :  Mud resistivity
RMC  .OHMM                 :  Mudcake resistivity
RMF  .OHMM                 :  Mud filtrate resistivity
~Parameter Information Block
#MNEM.UNIT            Value   Description
#---------- ----------------  -----------
CUR_INT_BOT.M                1963:  Current interpolated bottom
PROJECT.     New Zealand Log QC Project:  
SET  .            EC_CURVES:  
ELEVATION_AMSL.M                  10:  Elevation above mean sea level
ELEVATION_REF.                   RT:  Measurement reference
FORMATION_AT_TD.            Volcanics:  Formation at TD
LICENCE_NUMBER.               PPL685:  Licence number
ONSHORE_OR_OFFSHORE.             Offshore:  Onshore/offshore
PR_NUMBER.                PR648:  Petroleum report number
SEAFLOOR_ELEVATION_BMSL.M             74.0000:  Seafloor elevation below mean sea level
SPUD_DATE.           09/07/1975:  Spud date
STATUS_AT_COMPLETION.     Dry and abandoned:  Status at completion
TD_DATE.           27/07/1975:  Total depth date
TOTAL_DEPTH_DRILLED.M                1963:  Total depth drilled
WATER_DEPTH.M                  64:  Water depth
~Other Information Block
# 
~A       DEPTH             CT         FPRESS          FTEMP        HMC_POR        HMC_RES             RM            RMC            RMF 
# ...
     555.19320       0.242088       946.2620        25.1829         0.0000         0.0000       0.482727       0.642902       0.337248
     555.34560       0.240078       946.5217        25.1865         0.0000         0.0000       0.482690       0.642852       0.337222
     555.49800       0.238069       946.7815        25.1901         0.0000         0.0000       0.482652       0.642802       0.337196
     555.65040       0.235968       947.0413        25.1937         0.0000         0.0000       0.482615       0.642752       0.337169
     555.80280       0.233866       947.3010        25.1974         0.0000         0.0000       0.482578       0.642702       0.337143
     555.95520       0.231765       947.5607        25.2010         0.0000         0.0000       0.482540       0.642653       0.337117
     556.10760       0.233317       947.8205        25.2046         0.0000         0.0000       0.482503       0.642603       0.337091
     556.26000       0.236391       948.0802        25.2082         0.0000         0.0000       0.482466       0.642553       0.337065
     556.41240       0.239465       948.3400        25.2118         0.0000         0.0000       0.482428       0.642503       0.337039
     556.56480       0.242483       948.5997        25.2154         0.0000         0.0000       0.482391       0.642453       0.337013
     556.71720       0.245425       948.8594        25.2191         0.0000         0.0000       0.482353       0.642404       0.336987
     556.86960       0.248367       949.1192        25.2227         0.0000         0.0000       0.482316       0.642354       0.336961
     557.02200       0.250778       949.3789        25.2263         0.0000         0.0000       0.482279       0.642304       0.336934
     557.17440       0.250039       949.6387        25.2299         0.0000         0.0000       0.482241       0.642255       0.336908
     557.32680       0.249299       949.8984        25.2335         0.0000         0.0000       0.482204       0.642205       0.336882
     557.47920       0.248560       950.1582        25.2372         0.0000         0.0000       0.482167       0.642155       0.336856
     557.63160       0.248067       950.4180        25.2408         0.0000         0.0000       0.482129       0.642105       0.336830
     557.78400       0.247612       950.6777        25.2444         0.0000         0.0000       0.482092       0.642056       0.336804
     557.93640       0.247157       950.9374        25.2480         0.0000         0.0000       0.482055       0.642006       0.336778
     558.08880       0.249428       951.1972        25.2516         0.0000         0.0000       0.482018       0.641956       0.336752
     558.24120       0.253651       951.4569        25.2552         0.0000         0.0000       0.481980       0.641907       0.336726
     558.39360       0.257874       951.7167        25.2589         0.0000         0.0000       0.481943       0.641857       0.336700
     558.54600       0.263168       951.9764        25.2625         0.0000         0.0000       0.481906       0.641807       0.336674
     558.69840       0.270939       952.2362        25.2661         0.0000         0.0000       0.481868       0.641758       0.336648
     558.85080       0.278711       952.4959        25.2697         0.0000         0.0000       0.481831       0.641708       0.336622
     559.00320       0.286502       952.7557        25.2733         0.0000         0.0000       0.481794       0.641658       0.336596
     559.15560       0.295228       953.0154        25.2770         0.0000         0.0000       0.481757       0.641609       0.336570
     559.30800       0.303953       953.2752        25.2806         0.0000         0.0000       0.481719       0.641559       0.336544
     559.46040       0.312678       953.5350        25.2842         0.0000         0.0000       0.481682       0.641510       0.336518
     559.61280       0.316112       953.7947        25.2878         0.0000         0.0000       0.481645       0.641460       0.336492
     559.76520       0.317690       954.0544        25.2914         0.0000         0.0000       0.481608       0.641410       0.336466
     559.91760       0.319267       954.3141        25.2950         0.0000         0.0000       0.481570       0.641361       0.336440
     560.07000       0.319708       954.5739        25.2987         0.0000         0.0000       0.481533       0.641311       0.336414
     560.22240       0.318813       954.8336        25.3023         0.0000         0.0000       0.481496       0.641262       0.336388
     560.37480       0.317917       955.0934        25.3059         0.0000         0.0000       0.481459       0.641212       0.336361
     560.52720       0.316035       955.3531        25.3095         0.0000         0.0000       0.481421       0.641162       0.336335
     560.67960       0.309613       955.6129        25.3131         0.0000         0.0000       0.481384       0.641113       0.336309
     560.83200       0.303190       955.8726        25.3167         0.0000         0.0000       0.481347       0.641063       0.336284
     560.98440       0.296767       956.1324        25.3204         0.0000         0.0000       0.481310       0.641014       0.336258
     561.13680       0.293789       956.3922        25.3240         0.0000         0.0000       0.481273       0.640964       0.336232
     561.28920       0.291204       956.6519        25.3276         0.0000         0.0000       0.481235       0.640915       0.336206
     561.44160       0.288619       956.9116        25.3312         0.0000         0.0000       0.481198       0.640865       0.336180
     561.59400       0.290912       957.1714        25.3348         0.0000         0.0000       0.481161       0.640816       0.336154
     561.74640       0.296234       957.4311        25.3385         0.0000         0.0000       0.481124       0.640766       0.336128
     561.89880       0.301556       957.6909        25.3421         0.0000         0.0000       0.481087       0.640717       0.336102
     562.05120       0.305389       957.9506        25.3457         0.0000         0.0000       0.481050       0.640667       0.336076
     562.20360       0.306278       958.2104        25.3493         0.0000         0.0000       0.481012       0.640618       0.336050
     562.35600       0.307167       958.4702        25.3529         0.0000         0.0000       0.480975       0.640568       0.336024
     562.50840       0.308090       958.7299        25.3565         0.0000         0.0000       0.480938       0.640519       0.335998
     562.66080       0.309599       958.9896        25.3602         0.0000         0.0000       0.480901       0.640469       0.335972
     562.81320       0.311109       959.2494        25.3638         0.0000         0.0000       0.480864       0.640420       0.335946
     562.96560       0.312619       959.5091        25.3674         0.0000         0.0000       0.480827       0.640370       0.335920
     563.11800       0.310659       959.7689        25.3710         0.0000         0.0000       0.480790       0.640321       0.335894
     563.27040       0.307687       960.0286        25.3746         0.0000         0.0000       0.480753       0.640272       0.335868
     563.42280       0.304716       960.2883        25.3783         0.0000         0.0000       0.480715       0.640222       0.335842
     563.57520       0.300996       960.5481        25.3819         0.0000         0.0000       0.480678       0.640173       0.335816
     563.72760       0.296509       960.8079        25.3855         0.0000         0.0000       0.480641       0.640123       0.335790
     563.88000       0.292023       961.0676        25.3891         0.0000         0.0000       0.480604       0.640074       0.335765
     564.03240       0.289542       961.3273        25.3927         0.0000         0.0000       0.480567       0.640025       0.335739
     564.18480       0.294492       961.5871        25.3963         0.0000         0.0000       0.480530       0.639975       0.335713
