~Version Information Block
VERS .                 2.00:  CWLS LOG ASCII STANDARD - VERSION 2.00
WRAP .                   NO:  One line per depth step
~Well Information Block
#MNEM.UNIT        Data Type   Information
#---------- ----------------  -----------
STRT .M            74.52360:  START DEPTH
STOP .M          1955.44440:  STOP DEPTH
STEP .M             0.15240:  STEP
NULL .              -999.25:  NULL VALUE
COMP .                     :  COMPANY
WELL .         Resolution-1:  WELL
FLD  .                     :  FIELD
LOC  .                     :  LOCATION
CTRY .                     :  COUNTRY
STAT .                     :  STATE
CNTY .                     :  COUNTY
SRVC .     Shell BP Todd Canterbury Services Ltd:  SERVICE COMPANY
DATE .                     :  DATE
API  .                     :  API NUMBER
UWI  .         100000022150:  UNIQUE WELL ID
LATI .           -44.186126:  LATITUDE
LONG .          172.6362332:  LONGITUDE
~Curve Information Block
#MNEM.UNIT         API CODE   Curve Description
#---------- ----------------  -----------------
DEPTH.M                    :  
BS   .IN                   :  Bit Size (Created in Geolog)
CALI .IN            UNKNOWN:  Caliper (CALI)
DTC  .US/F          UNKNOWN:  Sonic (DT)
GR   .GAPI          UNKNOWN:  Gamma Ray (GR)
GR_CORR.GAPI                 :  Gamma ray corrected
RESD .OHMM          UNKNOWN:  Laterolog Deep Resistivity (LLD)
RESS .OHMM          UNKNOWN:  Shallow Laterolog (LLS)
SP   .MV            UNKNOWN:  Spontaneous Potential (SP)
~Parameter Information Block
#MNEM.UNIT            Value   Description
#---------- ----------------  -----------
CUR_INT_BOT.M                1963:  Current interpolated bottom
PROJECT.     New Zealand Log QC Project:  
SET  .     A0_FINAL_INTER_REF_D:  
ELEVATION_AMSL.M                  10:  Elevation above mean sea level
ELEVATION_REF.                   RT:  Measurement reference
FORMATION_AT_TD.            Volcanics:  Formation at TD
LICENCE_NUMBER.               PPL685:  Licence number
ONSHORE_OR_OFFSHORE.             Offshore:  Onshore/offshore
PR_NUMBER.                PR648:  Petroleum report number
SEAFLOOR_ELEVATION_BMSL.M             74.0000:  Seafloor elevation below mean sea level
SPUD_DATE.           09/07/1975:  Spud date
STATUS_AT_COMPLETION.     Dry and abandoned:  Status at completion
TD_DATE.           27/07/1975:  Total depth date
TOTAL_DEPTH_DRILLED.M                1963:  Total depth drilled
WATER_DEPTH.M                  64:  Water depth
~Other Information Block
# 
~A       DEPTH             BS           CALI            DTC             GR        GR_CORR           RESD           RESS             SP 
# ...
     586.58760        17.5000        22.3651       168.8400        49.0861        61.0229         2.5235         1.8135         8.5471
     586.74000        17.5000        22.3618       164.0784        48.8877        60.7762         2.5363         1.8288         8.3986
     586.89240        17.5000        22.3585       159.3167        48.6893        60.5296         2.5490         1.8442         8.2501
     587.04480        17.5000        22.3561       155.2632        48.8240        60.6970         2.5575         1.8561         8.1984
     587.19720        17.5000        22.3557       152.9104        49.7586        61.8589         2.5557         1.8600         8.3791
     587.34960        17.5000        22.3553       150.5576        50.6933        63.0209         2.5539         1.8639         8.5598
     587.50200        17.5000        22.3551       148.2271        51.6250        64.1792         2.5522         1.8677         8.7392
     587.65440        17.5000        22.3684       147.5716        52.3366        65.0638         2.5568         1.8711         8.8243
     587.80680        17.5000        22.3816       146.9160        53.0482        65.9484         2.5613         1.8745         8.9094
     587.95920        17.5000        22.3948       146.2605        53.7598        66.8331         2.5659         1.8778         8.9945
     588.11160        17.5000        22.3978       145.5584        53.6922        66.7491         2.5944         1.9043         8.8893
     588.26400        17.5000        22.3970       144.8393        53.3398        66.3110         2.6318         1.9391         8.7144
     588.41640        17.5000        22.3962       144.1202        52.9875        65.8730         2.6692         1.9740         8.5396
     588.56880        17.5000        22.3496       143.4158        53.2187        66.1605         2.7070         2.0130         8.4568
     588.72120        17.5000        22.2473       142.7293        54.1592        67.3296         2.7453         2.0570         8.4857
     588.87360        17.5000        22.1451       142.0428        55.0997        68.4988         2.7836         2.1011         8.5146
     589.02600        17.5000        22.0067       141.7062        56.0637        69.6972         2.8215         2.1427         8.5920
     589.17840        17.5000        21.6930       143.0708        57.1419        71.0377         2.8572         2.1725         8.9056
     589.33080        17.5000        21.3792       144.4354        58.2202        72.3782         2.8929         2.2023         9.2193
     589.48320        17.5000        21.0654       145.7999        59.2985        73.7187         2.9287         2.2321         9.5329
     589.63560        17.5000        21.1085       145.0512        59.2373        73.6426         2.9137         2.1935         9.8402
     589.78800        17.5000        21.1957       144.0407        59.0349        73.3910         2.8924         2.1464        10.1467
     589.94040        17.5000        21.2830       143.0303        58.8325        73.1394         2.8711         2.0993        10.4532
     590.09280        17.5000        21.5219       142.1704        58.4602        72.6766         2.8219         2.0487        10.4660
     590.24520        17.5000        21.8581       141.4073        57.9788        72.0781         2.7547         1.9959        10.2902
     590.39760        17.5000        22.1943       140.6442        57.4974        71.4796         2.6876         1.9431        10.1144
     590.55000        17.5000        22.4172       140.9214        56.6927        70.4792         2.6336         1.9045         9.8525
     590.70240        17.5000        22.4079       143.3293        55.2261        68.6560         2.6062         1.8948         9.4141
     590.85480        17.5000        22.3986       145.7371        53.7595        66.8327         2.5789         1.8852         8.9758
     591.00720        17.5000        22.3893       148.1502        52.3316        65.0576         2.5531         1.8764         8.5388
     591.15960        17.5000        22.3809       150.6693        51.6862        64.2552         2.5582         1.8842         8.1290
     591.31200        17.5000        22.3726       153.1884        51.0407        63.4528         2.5632         1.8920         7.7193
     591.46440        17.5000        22.3642       155.7074        50.3952        62.6504         2.5683         1.8998         7.3096
     591.61680        17.5000        22.3654       154.5676        50.4895        62.7675         2.5629         1.9009         7.3953
     591.76920        17.5000        22.3695       152.3126        50.8092        63.1650         2.5544         1.9000         7.6321
     591.92160        17.5000        22.3736       150.0576        51.1290        63.5625         2.5459         1.8991         7.8689
     592.07400        17.5000        22.3830       147.8705        51.5756        64.1177         2.5526         1.8997         8.2253
     592.22640        17.5000        22.3979       145.7554        52.1565        64.8400         2.5755         1.9018         8.7085
     592.37880        17.5000        22.4128       143.6403        52.7375        65.5622         2.5983         1.9040         9.1917
     592.53120        17.5000        22.4260       142.1069        53.0313        65.9275         2.6153         1.9040         9.6759
     592.68360        17.5000        22.4330       142.8331        52.2095        64.9058         2.6095         1.8956        10.1643
     592.83600        17.5000        22.4400       143.5594        51.3877        63.8841         2.6037         1.8873        10.6528
     592.98840        17.5000        22.4470       144.2857        50.5659        62.8625         2.5979         1.8790        11.1412
     593.14080        17.5000        22.4408       145.6144        51.2284        63.6861         2.5629         1.8519        11.2333
     593.29320        17.5000        22.4335       146.9928        52.0131        64.6617         2.5255         1.8234        11.2927
     593.44560        17.5000        22.4263       148.3712        52.7979        65.6373         2.4880         1.7948        11.3521
     593.59800        17.5000        22.4136       149.4010        52.0635        64.7243         2.4401         1.7593        11.2411
     593.75040        17.5000        22.3978       150.2372        50.4858        62.7629         2.3862         1.7201        11.0354
     593.90280        17.5000        22.3821       151.0734        48.9081        60.8016         2.3323         1.6808        10.8297
     594.05520        17.5000        22.3689       152.5793        48.3592        60.1192         2.3076         1.6648        10.5533
     594.20760        17.5000        22.3603       155.2646        49.6220        61.6891         2.3342         1.6896        10.1524
     594.36000        17.5000        22.3516       157.9498        50.8848        63.2589         2.3607         1.7144         9.7514
     594.51240        17.5000        22.3441       159.3576        52.3131        65.0346         2.3920         1.7417         9.3518
     594.66480        17.5000        22.3496       146.3428        55.6113        69.1349         2.4760         1.7964         8.9671
     594.81720        17.5000        22.3552       133.3280        58.9096        73.2352         2.5599         1.8511         8.5824
     594.96960        17.5000        22.3608       120.3133        62.2078        77.3354         2.6439         1.9058         8.1978
     595.12200        17.5000        22.3694       117.4743        61.9060        76.9603         2.6754         1.9116         8.1447
     595.27440        17.5000        22.3787       117.1710        60.7073        75.4700         2.6939         1.9051         8.1742
     595.42680        17.5000        22.3881       116.8677        59.5085        73.9797         2.7123         1.8986         8.2037
     595.57920        17.5000        22.3988       118.6876        58.8662        73.1813         2.6835         1.8635         8.3837
