~Version Information Block
VERS .                 2.00:  CWLS LOG ASCII STANDARD - VERSION 2.00
WRAP .                   NO:  One line per depth step
~Well Information Block
#MNEM.UNIT        Data Type   Information
#---------- ----------------  -----------
STRT .M           377.95200:  START DEPTH
STOP .M          1955.59680:  STOP DEPTH
STEP .M             0.15240:  STEP
NULL .              -999.25:  NULL VALUE
COMP .                     :  COMPANY
WELL .         Resolution-1:  WELL
FLD  .                     :  FIELD
LOC  .                     :  LOCATION
CTRY .                     :  COUNTRY
STAT .                     :  STATE
CNTY .                     :  COUNTY
SRVC .     Shell BP Todd Canterbury Services Ltd:  SERVICE COMPANY
DATE .                     :  DATE
API  .                     :  API NUMBER
UWI  .         100000022150:  UNIQUE WELL ID
LATI .           -44.186126:  LATITUDE
LONG .          172.6362332:  LONGITUDE
~Curve Information Block
#MNEM.UNIT         API CODE   Curve Description
#---------- ----------------  -----------------
DEPTH.M                    :  
CALI .IN            UNKNOWN:  2  Caliper
DT   .US/F          UNKNOWN:  3  Sonic
LLD  .OHMM          UNKNOWN:  5  Latero-Log Deep
LLS  .OHMM          UNKNOWN:  6  Latero-Log Shallow
SP   .MV            UNKNOWN:  7  Spontaneous Potential
~Parameter Information Block
#MNEM.UNIT            Value   Description
#---------- ----------------  -----------
CUR_INT_BOT.M           1955.9016:  Current interpolated bottom
PROJECT.     New Zealand Log QC Project:  
SET  .      RAW_INTER_REF_D:  
ELEVATION_AMSL.M                  10:  Elevation above mean sea level
ELEVATION_REF.                   RT:  Measurement reference
FORMATION_AT_TD.            Volcanics:  Formation at TD
LICENCE_NUMBER.               PPL685:  Licence number
ONSHORE_OR_OFFSHORE.             Offshore:  Onshore/offshore
PR_NUMBER.                PR648:  Petroleum report number
SEAFLOOR_ELEVATION_BMSL.M             74.0000:  Seafloor elevation below mean sea level
SPUD_DATE.           09/07/1975:  Spud date
STATUS_AT_COMPLETION.     Dry and abandoned:  Status at completion
TD_DATE.           27/07/1975:  Total depth date
TOTAL_DEPTH_DRILLED.M                1963:  Total depth drilled
WATER_DEPTH.M                  64:  Water depth
~Other Information Block
# 
~A       DEPTH           CALI             DT            LLD            LLS             SP 
# ...
     893.36880        17.8799       132.1420         1.3261         1.2402        22.9150
     893.52120        17.9023       132.2574         1.3253         1.2371        23.1133
     893.67360        17.9238       132.0918         1.3239         1.2273        23.2588
     893.82600        17.9402       131.9032         1.3168         1.2189        23.4298
     893.97840        17.9536       131.8916         1.3125         1.2152        23.5279
     894.13080        17.9582       132.0184         1.3089         1.2125        23.5122
     894.28320        17.9540       132.1722         1.3078         1.2183        23.4626
     894.43560        17.9516       132.2059         1.3092         1.2228        23.5218
     894.58800        17.9509       132.0827         1.3084         1.2240        23.6990
     894.74040        17.9526       131.8784         1.3073         1.2232        24.0106
     894.89280        17.9573       131.6724         1.3062         1.2233        24.3655
     895.04520        17.9597       131.5239         1.3041         1.2244        24.7790
     895.19760        17.9655       131.4640         1.3016         1.2210        25.0034
     895.35000        17.9653       131.4160         1.3030         1.2153        24.6600
     895.50240        17.9541       131.4884         1.3042         1.2081        24.4360
     895.65480        17.8932       131.6556         1.3083         1.2081        24.3700
     895.80720        17.8890       131.9061         1.3095         1.2051        24.4705
     895.95960        17.9032       132.1590         1.3120         1.2042        24.5910
     896.11200        17.9311       132.4208         1.3145         1.2084        24.7366
     896.26440        17.9753       132.3909         1.3115         1.2159        24.9123
     896.41680        17.9866       131.7894         1.3142         1.2267        25.0025
     896.56920        17.9687       130.9681         1.3159         1.2349        25.1828
     896.72160        17.9521       130.1036         1.3092         1.2276        25.2874
     896.87400        17.9345       129.8896         1.2965         1.2154        25.1818
     897.02640        17.9250       133.2111         1.2919         1.2062        24.8715
     897.17880        17.9267       138.1664         1.2924         1.2034        24.4165
     897.33120        17.9507       138.7532         1.2953         1.2057        24.0147
     897.48360        17.9936       135.2794         1.3005         1.2130        23.6820
     897.63600        18.0544       132.4173         1.3031         1.2246        23.5072
     897.78840        18.1458       133.6338         1.3064         1.2322        23.4488
     897.94080        17.8506       135.5856         1.3094         1.2369        23.5045
     898.09320        17.6201       136.5693         1.3125         1.2378        23.6833
     898.24560        17.4192       135.0942         1.3142         1.2366        23.9373
     898.39800        17.2412       134.1538         1.3192         1.2321        24.1953
     898.55040        17.1179       133.1036         1.3198         1.2275        24.5600
     898.70280        17.0991       131.6563         1.3188         1.2246        25.1367
     898.85520        17.2226       131.8163         1.3178         1.2282        25.7927
     899.00760        17.3378       133.2790         1.3167         1.2294        26.3138
     899.16000        17.4111       133.7569         1.3145         1.2315        26.5440
     899.31240        17.4875       133.6830         1.3126         1.2346        26.8191
     899.46480        17.5778       133.6061         1.3134         1.2324        27.2434
     899.61720        17.6620       133.6964         1.3126         1.2314        27.8545
     899.76960        17.7479       133.8114         1.3122         1.2327        28.4369
     899.92200        17.8426       133.9334         1.3125         1.2321        28.8611
     900.07440        17.9062       133.9838         1.3159         1.2297        28.7506
     900.22680        17.9164       133.1012         1.3178         1.2299        27.9862
     900.37920        17.9136       131.5662         1.3185         1.2335        27.2626
     900.53160        17.9068       131.2518         1.3175         1.2353        26.6639
     900.68400        17.9031       132.0756         1.3152         1.2365        26.2046
     900.83640        17.8812       132.4447         1.3135         1.2414        25.8926
     900.98880        17.8528       132.2935         1.3126         1.2460        25.8518
     901.14120        17.8163       132.1609         1.3120         1.2518        26.0104
     901.29360        17.7654       132.5288         1.3137         1.2529        26.1012
     901.44600        17.6619       133.6268         1.3179         1.2520        26.1431
     901.59840        17.5773       134.5270         1.3175         1.2516        26.1753
     901.75080        17.5475       134.8267         1.3128         1.2559        26.1181
     901.90320        17.5983       135.2352         1.3063         1.2606        25.9744
     902.05560        17.6160       136.0048         1.3011         1.2627        25.7639
     902.20800        17.5754       136.0647         1.2998         1.2675        25.5086
     902.36040        17.5148       135.7776         1.3109         1.2847        25.2551
     902.51280        17.4191       134.5995         1.4296         1.3876        24.9861
     902.66520        17.3435       125.9941         1.7614         1.6305        24.6771
     902.81760        17.4565       112.3632         1.9822         1.9150        24.3625
     902.97000        17.9680        95.9596         1.7259         1.7296        24.1619
     903.12240        18.5700        84.5240         1.5288         1.5452        24.1631
     903.27480        19.1438       103.1650         1.4005         1.3980        24.3631
     903.42720        19.3292       117.6847         1.3378         1.2962        24.7563
     903.57960        18.7497       130.9632         1.3352         1.2502        25.1951
     903.73200        17.8768       133.9651         1.3450         1.2519        25.6572
     903.88440        17.7301       132.6505         1.3552         1.2581        26.0871
     904.03680        17.8379       131.1857         1.3670         1.2681        26.4504
     904.18920        17.9417       130.6768         1.3753         1.2764        26.7363
     904.34160        18.0086       131.4942         1.3818         1.2839        26.8953
     904.49400        18.0373       132.3424         1.3808         1.2874        26.8204
     904.64640        18.0316       132.7912         1.3763         1.2864        26.5318
     904.79880        18.0032       132.8263         1.3744         1.2814        26.2837
     904.95120        17.9626       132.7114         1.3771         1.2802        26.0386
     905.10360        17.9164       132.4559         1.3832         1.2815        25.8660
     905.25600        17.8736       131.9836         1.3835         1.2805        25.7624
     905.40840        17.8720       131.3039         1.3808         1.2760        25.7435
     905.56080        17.8926       130.9161         1.3786         1.2700        25.3937
     905.71320        17.9082       131.4259         1.3776         1.2655        24.8501
     905.86560        17.9158       131.9494         1.3793         1.2609        24.4810
     906.01800        17.9152       131.8525         1.3858         1.2677        24.3061
     906.17040        17.9333       131.4173         1.3984         1.2786        24.2936
     906.32280        17.9590       130.9829         1.4063         1.2871        24.4028
     906.47520        18.0260       131.5700         1.4100         1.2935        24.5915
     906.62760        18.1509       132.3132         1.4115         1.2997        24.7910
     906.78000        18.3292       132.9261         1.4159         1.3066        25.0312
