~Version Information Block
VERS .                 2.00:  CWLS LOG ASCII STANDARD - VERSION 2.00
WRAP .                   NO:  One line per depth step
~Well Information Block
#MNEM.UNIT        Data Type   Information
#---------- ----------------  -----------
STRT .M            74.52360:  START DEPTH
STOP .M          1955.44440:  STOP DEPTH
STEP .M             0.15240:  STEP
NULL .              -999.25:  NULL VALUE
COMP .                     :  COMPANY
WELL .         Resolution-1:  WELL
FLD  .                     :  FIELD
LOC  .                     :  LOCATION
CTRY .                     :  COUNTRY
STAT .                     :  STATE
CNTY .                     :  COUNTY
SRVC .     Shell BP Todd Canterbury Services Ltd:  SERVICE COMPANY
DATE .                     :  DATE
API  .                     :  API NUMBER
UWI  .         100000022150:  UNIQUE WELL ID
LATI .           -44.186126:  LATITUDE
LONG .          172.6362332:  LONGITUDE
~Curve Information Block
#MNEM.UNIT         API CODE   Curve Description
#---------- ----------------  -----------------
DEPTH.M                    :  
BS   .IN                   :  Bit Size (Created in Geolog)
CALI .IN            UNKNOWN:  Caliper (CALI)
DTC  .US/F          UNKNOWN:  Sonic (DT)
GR   .GAPI          UNKNOWN:  Gamma Ray (GR)
GR_CORR.GAPI                 :  Gamma ray corrected
RESD .OHMM          UNKNOWN:  Laterolog Deep Resistivity (LLD)
RESS .OHMM          UNKNOWN:  Shallow Laterolog (LLS)
SP   .MV            UNKNOWN:  Spontaneous Potential (SP)
~Parameter Information Block
#MNEM.UNIT            Value   Description
#---------- ----------------  -----------
CUR_INT_BOT.M                1963:  Current interpolated bottom
PROJECT.     New Zealand Log QC Project:  
SET  .     A0_FINAL_INTER_REF_D:  
ELEVATION_AMSL.M                  10:  Elevation above mean sea level
ELEVATION_REF.                   RT:  Measurement reference
FORMATION_AT_TD.            Volcanics:  Formation at TD
LICENCE_NUMBER.               PPL685:  Licence number
ONSHORE_OR_OFFSHORE.             Offshore:  Onshore/offshore
PR_NUMBER.                PR648:  Petroleum report number
SEAFLOOR_ELEVATION_BMSL.M             74.0000:  Seafloor elevation below mean sea level
SPUD_DATE.           09/07/1975:  Spud date
STATUS_AT_COMPLETION.     Dry and abandoned:  Status at completion
TD_DATE.           27/07/1975:  Total depth date
TOTAL_DEPTH_DRILLED.M                1963:  Total depth drilled
WATER_DEPTH.M                  64:  Water depth
~Other Information Block
# 
~A       DEPTH             BS           CALI            DTC             GR        GR_CORR           RESD           RESS             SP 
# ...
     486.00360        17.5000        19.2335       157.8665        64.3938        80.0531         8.4094         6.3482         0.4423
     486.15600        17.5000        19.3418       157.8260        64.0470        79.6220         8.3720         6.3352         0.5715
     486.30840        17.5000        19.4501       157.7855        63.7002        79.1908         8.3347         6.3223         0.7007
     486.46080        17.5000        19.5585       157.7450        63.3534        78.7597         8.2974         6.3094         0.8299
     486.61320        17.5000        19.6512       157.6118        63.9870        79.5474         8.2609         6.3097         1.2535
     486.76560        17.5000        19.7385       157.4464        64.9601        80.7571         8.2247         6.3146         1.7790
     486.91800        17.5000        19.8259       157.2811        65.9332        81.9669         8.1885         6.3195         2.3045
     487.07040        17.5000        19.8937       157.2745        66.5571        82.7424         8.2090         6.3108         2.7781
     487.22280        17.5000        19.9387       157.4528        66.7741        83.0122         8.2957         6.2862         3.1911
     487.37520        17.5000        19.9837       157.6311        66.9910        83.2819         8.3823         6.2616         3.6041
     487.52760        17.5000        19.9990       157.7346        67.1179        83.4396         8.4470         6.2444         3.9084
     487.68000        17.5000        19.8799       157.5002        66.8373        83.0908         8.4126         6.2607         3.7214
     487.83240        17.5000        19.7607       157.2658        66.5566        82.7419         8.3782         6.2770         3.5343
     487.98480        17.5000        19.6416       157.0313        66.2760        82.3930         8.3439         6.2933         3.3473
     488.13720        17.5000        19.6687       157.7329        66.2141        82.3161         8.3013         6.2595         3.1142
     488.28960        17.5000        19.7120       158.5383        66.1766        82.2694         8.2577         6.2201         2.8760
     488.44200        17.5000        19.7553       159.3436        66.1390        82.2226         8.2142         6.1807         2.6378
     488.59440        17.5000        19.7134       159.6579        66.0552        82.1185         8.1919         6.1661         2.7737
     488.74680        17.5000        19.6193       159.6704        65.9430        81.9790         8.1825         6.1667         3.1395
     488.89920        17.5000        19.5251       159.6830        65.8308        81.8395         8.1732         6.1674         3.5052
     489.05160        17.5000        19.4422       159.5233        65.7663        81.7594         8.1686         6.1704         3.7871
     489.20400        17.5000        19.3814       159.0268        65.7951        81.7952         8.1734         6.1779         3.9052
     489.35640        17.5000        19.3206       158.5304        65.8239        81.8310         8.1782         6.1854         4.0232
     489.50880        17.5000        19.2626       158.0688        65.7734        81.7682         8.1871         6.1912         4.1253
     489.66120        17.5000        19.2504       158.1760        64.4285        80.0962         8.2635         6.1686         3.9665
     489.81360        17.5000        19.2382       158.2832        63.0836        78.4242         8.3399         6.1460         3.8078
     489.96600        17.5000        19.2260       158.3904        61.7386        76.7522         8.4163         6.1234         3.6490
     490.11840        17.5000        19.3340       157.7967        60.6190        75.3603         8.4761         6.0129         3.3794
     490.27080        17.5000        19.4766       157.0017        59.5640        74.0488         8.5312         5.8772         3.0781
     490.42320        17.5000        19.6191       156.2068        58.5090        72.7373         8.5863         5.7414         2.7768
     490.57560        17.5000        19.8390       158.0496        57.6104        71.6201         8.5301         5.6241         2.5085
     490.72800        17.5000        20.1375       162.5721        56.8705        70.7003         8.3609         5.5254         2.2738
     490.88040        17.5000        20.4361       167.0945        56.1306        69.7805         8.1917         5.4267         2.0390
     491.03280        17.5000        20.7422       169.8293        55.4104        68.8851         8.0369         5.3489         1.8732
     491.18520        17.5000        21.0757       166.0457        54.7616        68.0785         7.9350         5.3470         1.9589
     491.33760        17.5000        21.4093       162.2621        54.1128        67.2719         7.8330         5.3451         2.0446
     491.49000        17.5000        21.7429       158.4785        53.4640        66.4654         7.7311         5.3432         2.1303
     491.64240        17.5000        21.9240       159.8678        55.1243        68.5294         7.8280         5.4036         2.3981
     491.79480        17.5000        22.0945       161.6202        56.9467        70.7950         7.9389         5.4684         2.6788
     491.94720        17.5000        22.2649       163.3727        58.7691        73.0606         8.0497         5.5331         2.9594
     492.09960        17.5000        22.3059       163.5356        60.5622        75.2897         8.0886         5.5319         3.2485
     492.25200        17.5000        22.2781       162.8557        62.3397        77.4995         8.0892         5.4957         3.5420
     492.40440        17.5000        22.2504       162.1759        64.1172        79.7093         8.0898         5.4595         3.8356
     492.55680        17.5000        22.1740       161.6281        65.5823        81.5306         8.0814         5.4640         4.0819
     492.70920        17.5000        22.0157       161.3027        66.5214        82.6981         8.0576         5.5370         4.2487
     492.86160        17.5000        21.8574       160.9772        67.4605        83.8656         8.0339         5.6100         4.4156
     493.01400        17.5000        21.6400       160.6858        68.4135        85.0503         8.0243         5.6912         4.5685
     493.16640        17.5000        20.8394       160.7315        69.5035        86.4054         8.1546         5.8547         4.5838
     493.31880        17.5000        20.0388       160.7772        70.5936        87.7605         8.2849         6.0181         4.5990
     493.47120        17.5000        19.2381       160.8229        71.6836        89.1156         8.4152         6.1815         4.6143
     493.62360        17.5000        18.9657       160.3319        72.2900        89.8695         8.4128         6.2031         4.4626
     493.77600        17.5000        18.8164       159.7158        72.7837        90.4833         8.3794         6.1917         4.2721
     493.92840        17.5000        18.6670       159.0996        73.2774        91.0970         8.3461         6.1802         4.0815
     494.08080        17.5000        18.6056       158.5877        73.5073        91.3828         8.3294         6.1815         3.8063
     494.23320        17.5000        18.6220       158.1682        73.5034        91.3780         8.3274         6.1941         3.4562
     494.38560        17.5000        18.6383       157.7487        73.4995        91.3731         8.3254         6.2068         3.1061
     494.53800        17.5000        18.6479       157.5992        73.4706        91.3372         8.3328         6.2402         2.7715
     494.69040        17.5000        18.6367       158.2630        73.3667        91.2080         8.3685         6.3364         2.4838
     494.84280        17.5000        18.6255       158.9268        73.2628        91.0788         8.4041         6.4326         2.1961
     494.99520        17.5000        18.6143       159.5906        73.1589        90.9497         8.4398         6.5288         1.9084
