~Version Information Block
VERS .                 2.00:  CWLS LOG ASCII STANDARD - VERSION 2.00
WRAP .                   NO:  One line per depth step
~Well Information Block
#MNEM.UNIT        Data Type   Information
#---------- ----------------  -----------
STRT .M            74.52360:  START DEPTH
STOP .M          1955.44440:  STOP DEPTH
STEP .M             0.15240:  STEP
NULL .              -999.25:  NULL VALUE
COMP .                     :  COMPANY
WELL .         Resolution-1:  WELL
FLD  .                     :  FIELD
LOC  .                     :  LOCATION
CTRY .                     :  COUNTRY
STAT .                     :  STATE
CNTY .                     :  COUNTY
SRVC .     Shell BP Todd Canterbury Services Ltd:  SERVICE COMPANY
DATE .                     :  DATE
API  .                     :  API NUMBER
UWI  .         100000022150:  UNIQUE WELL ID
LATI .           -44.186126:  LATITUDE
LONG .          172.6362332:  LONGITUDE
~Curve Information Block
#MNEM.UNIT         API CODE   Curve Description
#---------- ----------------  -----------------
DEPTH.M                    :  
BS   .IN                   :  Bit Size (Created in Geolog)
CALI .IN            UNKNOWN:  Caliper (CALI)
DTC  .US/F          UNKNOWN:  Sonic (DT)
GR   .GAPI          UNKNOWN:  Gamma Ray (GR)
GR_CORR.GAPI                 :  Gamma ray corrected
RESD .OHMM          UNKNOWN:  Laterolog Deep Resistivity (LLD)
RESS .OHMM          UNKNOWN:  Shallow Laterolog (LLS)
SP   .MV            UNKNOWN:  Spontaneous Potential (SP)
~Parameter Information Block
#MNEM.UNIT            Value   Description
#---------- ----------------  -----------
CUR_INT_BOT.M                1963:  Current interpolated bottom
PROJECT.     New Zealand Log QC Project:  
SET  .     A0_FINAL_INTER_REF_D:  
ELEVATION_AMSL.M                  10:  Elevation above mean sea level
ELEVATION_REF.                   RT:  Measurement reference
FORMATION_AT_TD.            Volcanics:  Formation at TD
LICENCE_NUMBER.               PPL685:  Licence number
ONSHORE_OR_OFFSHORE.             Offshore:  Onshore/offshore
PR_NUMBER.                PR648:  Petroleum report number
SEAFLOOR_ELEVATION_BMSL.M             74.0000:  Seafloor elevation below mean sea level
SPUD_DATE.           09/07/1975:  Spud date
STATUS_AT_COMPLETION.     Dry and abandoned:  Status at completion
TD_DATE.           27/07/1975:  Total depth date
TOTAL_DEPTH_DRILLED.M                1963:  Total depth drilled
WATER_DEPTH.M                  64:  Water depth
~Other Information Block
# 
~A       DEPTH             BS           CALI            DTC             GR        GR_CORR           RESD           RESS             SP 
# ...
    1848.45960        12.2500        14.4188        89.4211        48.5643      -999.2500         4.9875         4.1227        71.9515
    1848.61200        12.2500        14.4057        89.0964        49.6333      -999.2500         4.9826         4.1276        72.2114
    1848.76440        12.2500        14.3823        88.9447        50.7594      -999.2500         4.9720         4.1228        72.5170
    1848.91680        12.2500        14.3588        88.7930        51.8856      -999.2500         4.9615         4.1180        72.8226
    1849.06920        12.2500        14.3539        89.2528        52.6061      -999.2500         4.9050         4.0834        72.8134
    1849.22160        12.2500        14.3714        90.4476        52.8391      -999.2500         4.7933         4.0130        72.4258
    1849.37400        12.2500        14.3888        91.6425        53.0720      -999.2500         4.6817         3.9426        72.0383
    1849.52640        12.2500        14.3999        92.5820        53.3273      -999.2500         4.5792         3.8798        71.7316
    1849.67880        12.2500        14.3808        92.3026        53.6896      -999.2500         4.5207         3.8532        71.8109
    1849.83120        12.2500        14.3616        92.0232        54.0519      -999.2500         4.4623         3.8265        71.8902
    1849.98360        12.2500        14.3424        91.7438        54.4142      -999.2500         4.4038         3.7999        71.9695
    1850.13600        12.2500        14.3516        92.6662        54.3383      -999.2500         4.3501         3.7642        72.1249
    1850.28840        12.2500        14.3642        93.7335        54.2095      -999.2500         4.2970         3.7275        72.2895
    1850.44080        12.2500        14.3768        94.8008        54.0807      -999.2500         4.2438         3.6907        72.4541
    1850.59320        12.2500        14.3861        95.0847        54.1693      -999.2500         4.2304         3.6768        72.4750
    1850.74560        12.2500        14.3933        94.8710        54.3961      -999.2500         4.2420         3.6775        72.4046
    1850.89800        12.2500        14.4006        94.6573        54.6229      -999.2500         4.2537         3.6781        72.3342
    1851.05040        12.2500        14.3985        94.6018        54.8858      -999.2500         4.2749         3.6849        72.2636
    1851.20280        12.2500        14.3775        94.8664        55.2220      -999.2500         4.3151         3.7040        72.1926
    1851.35520        12.2500        14.3565        95.1309        55.5581      -999.2500         4.3553         3.7231        72.1215
    1851.50760        12.2500        14.3376        95.3906        55.8874      -999.2500         4.3910         3.7397        72.0592
    1851.66000        12.2500        14.3589        95.5567        56.0867      -999.2500         4.3414         3.7073        72.1629
    1851.81240        12.2500        14.3802        95.7228        56.2859      -999.2500         4.2918         3.6750        72.2666
    1851.96480        12.2500        14.4015        95.8889        56.4852      -999.2500         4.2423         3.6426        72.3704
    1852.11720        12.2500        14.3984        95.8698        56.0641      -999.2500         4.2435         3.6467        72.0452
    1852.26960        12.2500        14.3881        95.7950        55.4568      -999.2500         4.2599         3.6616        71.5912
    1852.42200        12.2500        14.3777        95.7203        54.8494      -999.2500         4.2763         3.6765        71.1371
    1852.57440        12.2500        14.3763        95.7315        54.1688      -999.2500         4.2906         3.6927        70.9167
    1852.72680        12.2500        14.3844        95.8329        53.4115      -999.2500         4.3025         3.7103        70.9411
    1852.87920        12.2500        14.3925        95.9342        52.6542      -999.2500         4.3145         3.7279        70.9655
    1853.03160        12.2500        14.3965        96.0525        52.1857      -999.2500         4.3144         3.7379        71.0691
    1853.18400        12.2500        14.3845        96.2355        52.8213      -999.2500         4.2685         3.7190        71.4757
    1853.33640        12.2500        14.3725        96.4186        53.4569      -999.2500         4.2227         3.7000        71.8822
    1853.48880        12.2500        14.3606        96.6017        54.0925      -999.2500         4.1768         3.6810        72.2887
    1853.64120        12.2500        14.3722        96.6088        53.6008      -999.2500         4.1785         3.6890        72.6834
    1853.79360        12.2500        14.3857        96.6019        53.0197      -999.2500         4.1839         3.6990        73.0771
    1853.94600        12.2500        14.3992        96.5950        52.4385      -999.2500         4.1894         3.7091        73.4708
    1854.09840        12.2500        14.4042        96.6076        52.6342      -999.2500         4.1521         3.6786        73.5120
    1854.25080        12.2500        14.4044        96.6308        53.2561      -999.2500         4.0915         3.6260        73.3597
    1854.40320        12.2500        14.4047        96.6539        53.8780      -999.2500         4.0309         3.5733        73.2075
    1854.55560        12.2500        14.3962        96.6346        53.9264      -999.2500         4.0514         3.5909        73.0461
    1854.70800        12.2500        14.3726        96.5411        52.9766      -999.2500         4.2135         3.7308        72.8689
    1854.86040        12.2500        14.3490        96.4477        52.0267      -999.2500         4.3755         3.8706        72.6917
    1855.01280        12.2500        14.3301        96.2053        51.1209      -999.2500         4.5479         4.0150        72.5269
    1855.16520        12.2500        14.3631        94.3375        50.6953      -999.2500         4.8327         4.2097        72.4966
    1855.31760        12.2500        14.3960        92.4698        50.2696      -999.2500         5.1175         4.4045        72.4662
    1855.47000        12.2500        14.4290        90.6020        49.8440      -999.2500         5.4023         4.5992        72.4359
    1855.62240        12.2500        14.4143        90.4950        50.2955      -999.2500         5.3511         4.5515        72.4505
    1855.77480        12.2500        14.3879        90.8196        50.9621      -999.2500         5.2174         4.4444        72.4762
    1855.92720        12.2500        14.3616        91.1441        51.6286      -999.2500         5.0838         4.3373        72.5019
    1856.07960        12.2500        14.3506        92.0054        52.5630      -999.2500         4.9162         4.2068        72.4733
    1856.23200        12.2500        14.3536        93.3576        53.7423      -999.2500         4.7177         4.0550        72.3951
    1856.38440        12.2500        14.3566        94.7098        54.9217      -999.2500         4.5192         3.9031        72.3168
    1856.53680        12.2500        14.3628        95.6527        55.6041      -999.2500         4.3484         3.7790        72.2579
    1856.68920        12.2500        14.3790        95.3101        54.7257      -999.2500         4.2648         3.7418        72.2597
    1856.84160        12.2500        14.3951        94.9675        53.8472      -999.2500         4.1812         3.7047        72.2615
    1856.99400        12.2500        14.4113        94.6250        52.9687      -999.2500         4.0976         3.6676        72.2632
    1857.14640        12.2500        14.3879        95.3739        51.6864      -999.2500         4.1833         3.7002        72.4067
    1857.29880        12.2500        14.3629        96.1676        50.3876      -999.2500         4.2759         3.7356        72.5560
    1857.45120        12.2500        14.3380        96.9613        49.0888      -999.2500         4.3686         3.7711        72.7053
