~Version Information Block
VERS .                 2.00:  CWLS LOG ASCII STANDARD - VERSION 2.00
WRAP .                   NO:  One line per depth step
~Well Information Block
#MNEM.UNIT        Data Type   Information
#---------- ----------------  -----------
STRT .M           390.60120:  START DEPTH
STOP .M          1234.44000:  STOP DEPTH
STEP .M             0.15240:  STEP
NULL .              -999.25:  NULL VALUE
COMP .                     :  COMPANY
WELL .         Resolution-1:  WELL
FLD  .                     :  FIELD
LOC  .                     :  LOCATION
CTRY .                     :  COUNTRY
STAT .                     :  STATE
CNTY .                     :  COUNTY
SRVC .     Shell BP Todd Canterbury Services Ltd:  SERVICE COMPANY
DATE .                     :  DATE
API  .                     :  API NUMBER
UWI  .         100000022150:  UNIQUE WELL ID
LATI .           -44.186126:  LATITUDE
LONG .          172.6362332:  LONGITUDE
~Curve Information Block
#MNEM.UNIT         API CODE   Curve Description
#---------- ----------------  -----------------
DEPTH.M                    :  Measured Depth (MD)
CT   .MH/M                 :  True formation conductivity
FPRESS.PSI                  :  Formation/hydrostatic pressure
FTEMP.DEGC                 :  Formation temperature
HMC_POR.IN                   :  Mudcake from nuclear/porosity
HMC_RES.IN                   :  Mudcake from resistivity/sonic
RM   .OHMM                 :  Mud resistivity
RMC  .OHMM                 :  Mudcake resistivity
RMF  .OHMM                 :  Mud filtrate resistivity
~Parameter Information Block
#MNEM.UNIT            Value   Description
#---------- ----------------  -----------
CUR_INT_BOT.M                1963:  Current interpolated bottom
PROJECT.     New Zealand Log QC Project:  
SET  .            EC_CURVES:  
ELEVATION_AMSL.M                  10:  Elevation above mean sea level
ELEVATION_REF.                   RT:  Measurement reference
FORMATION_AT_TD.            Volcanics:  Formation at TD
LICENCE_NUMBER.               PPL685:  Licence number
ONSHORE_OR_OFFSHORE.             Offshore:  Onshore/offshore
PR_NUMBER.                PR648:  Petroleum report number
SEAFLOOR_ELEVATION_BMSL.M             74.0000:  Seafloor elevation below mean sea level
SPUD_DATE.           09/07/1975:  Spud date
STATUS_AT_COMPLETION.     Dry and abandoned:  Status at completion
TD_DATE.           27/07/1975:  Total depth date
TOTAL_DEPTH_DRILLED.M                1963:  Total depth drilled
WATER_DEPTH.M                  64:  Water depth
~Other Information Block
# 
~A       DEPTH             CT         FPRESS          FTEMP        HMC_POR        HMC_RES             RM            RMC            RMF 
# ...
    1058.11320       0.687751      1803.4304        37.1224         0.0445         0.0445       0.384411       0.511963       0.268561
    1058.26560       0.692253      1803.6902        37.1260         0.0270         0.0270       0.384388       0.511932       0.268545
    1058.41800       0.696755      1803.9500        37.1296         0.0094         0.0094       0.384364       0.511900       0.268528
    1058.57040       0.701990      1804.2097        37.1332         0.0000         0.0000       0.384340       0.511869       0.268512
    1058.72280       0.708079      1804.4695        37.1368         0.0000         0.0000       0.384317       0.511837       0.268495
    1058.87520       0.714168      1804.7292        37.1404         0.0000         0.0000       0.384293       0.511805       0.268479
    1059.02760       0.718983      1804.9889        37.1441         0.0000         0.0000       0.384269       0.511774       0.268462
    1059.18000       0.718030      1805.2487        37.1477         0.0000         0.0000       0.384245       0.511742       0.268445
    1059.33240       0.717078      1805.5084        37.1513         0.0000         0.0000       0.384222       0.511711       0.268429
    1059.48480       0.716125      1805.7682        37.1549         0.0000         0.0000       0.384198       0.511679       0.268412
    1059.63720       0.714436      1806.0280        37.1585         0.0000         0.0000       0.384174       0.511648       0.268396
    1059.78960       0.712664      1806.2876        37.1622         0.0000         0.0000       0.384151       0.511616       0.268379
    1059.94200       0.710893      1806.5474        37.1658         0.0000         0.0000       0.384127       0.511584       0.268363
    1060.09440       0.708524      1806.8071        37.1694         0.0000         0.0000       0.384103       0.511553       0.268346
    1060.24680       0.705789      1807.0668        37.1730         0.0000         0.0000       0.384079       0.511521       0.268330
    1060.39920       0.703053      1807.3265        37.1766         0.0000         0.0000       0.384056       0.511490       0.268313
    1060.55160       0.701315      1807.5863        37.1802         0.0000         0.0000       0.384032       0.511458       0.268296
    1060.70400       0.701528      1807.8461        37.1839         0.0000         0.0000       0.384008       0.511427       0.268280
    1060.85640       0.701740      1808.1058        37.1875         0.0000         0.0000       0.383985       0.511395       0.268263
    1061.00880       0.701716      1808.3656        37.1911         0.0000         0.0000       0.383961       0.511364       0.268247
    1061.16120       0.697832      1808.6254        37.1947         0.0000         0.0000       0.383937       0.511332       0.268230
    1061.31360       0.693948      1808.8850        37.1983         0.0000         0.0000       0.383914       0.511301       0.268214
    1061.46600       0.690064      1809.1448        37.2020         0.0000         0.0000       0.383890       0.511269       0.268197
    1061.61840       0.691174      1809.4045        37.2056         0.0000         0.0000       0.383866       0.511238       0.268181
    1061.77080       0.693720      1809.6643        37.2092         0.0000         0.0000       0.383843       0.511206       0.268164
    1061.92320       0.696265      1809.9241        37.2128         0.0000         0.0000       0.383819       0.511175       0.268148
    1062.07560       0.698051      1810.1838        37.2164         0.0000         0.0000       0.383795       0.511143       0.268131
    1062.22800       0.699065      1810.4436        37.2200         0.0000         0.0000       0.383772       0.511112       0.268115
    1062.38040       0.700079      1810.7034        37.2237         0.0000         0.0000       0.383748       0.511080       0.268098
    1062.53280       0.699878      1810.9631        37.2273         0.0000         0.0000       0.383725       0.511049       0.268082
    1062.68520       0.695246      1811.2229        37.2309         0.0000         0.0000       0.383701       0.511017       0.268065
    1062.83760       0.690614      1811.4827        37.2345         0.0000         0.0000       0.383677       0.510986       0.268049
    1062.99000       0.685982      1811.7423        37.2381         0.0000         0.0000       0.383654       0.510954       0.268032
    1063.14240       0.680428      1812.0021        37.2418         0.0000         0.0000       0.383630       0.510923       0.268016
    1063.29480       0.674809      1812.2618        37.2454         0.0000         0.0000       0.383606       0.510891       0.267999
    1063.44720       0.669190      1812.5216        37.2490         0.0000         0.0000       0.383583       0.510860       0.267982
    1063.59960       0.665892      1812.7814        37.2526         0.0000         0.0000       0.383559       0.510828       0.267966
    1063.75200       0.663825      1813.0410        37.2562         0.0000         0.0000       0.383536       0.510797       0.267949
    1063.90440       0.661757      1813.3008        37.2598         0.0000         0.0000       0.383512       0.510765       0.267933
    1064.05680       0.660313      1813.5605        37.2635         0.0000         0.0000       0.383488       0.510734       0.267917
    1064.20920       0.659917      1813.8203        37.2671         0.0000         0.0000       0.383465       0.510703       0.267900
    1064.36160       0.659522      1814.0801        37.2707         0.0000         0.0000       0.383441       0.510671       0.267884
    1064.51400       0.659473      1814.3398        37.2743         0.0000         0.0000       0.383417       0.510640       0.267867
    1064.66640       0.662857      1814.5996        37.2779         0.0000         0.0000       0.383394       0.510608       0.267851
    1064.81880       0.666241      1814.8594        37.2816         0.0000         0.0000       0.383370       0.510577       0.267834
    1064.97120       0.669625      1815.1191        37.2852         0.0000         0.0000       0.383347       0.510545       0.267818
    1065.12360       0.671195      1815.3788        37.2888         0.0000         0.0000       0.383323       0.510514       0.267801
    1065.27600       0.672343      1815.6385        37.2924         0.0000         0.0000       0.383299       0.510483       0.267785
    1065.42840       0.673490      1815.8982        37.2960         0.0000         0.0000       0.383276       0.510451       0.267768
    1065.58080       0.672887      1816.1580        37.2996         0.0000         0.0000       0.383252       0.510420       0.267752
    1065.73320       0.670732      1816.4177        37.3033         0.0000         0.0000       0.383229       0.510388       0.267735
    1065.88560       0.668576      1816.6775        37.3069         0.0000         0.0000       0.383205       0.510357       0.267719
    1066.03800       0.668785      1816.9373        37.3105         0.0000         0.0000       0.383182       0.510326       0.267702
    1066.19040       0.676108      1817.1969        37.3141         0.0000         0.0000       0.383158       0.510294       0.267686
    1066.34280       0.683432      1817.4567        37.3177         0.0000         0.0000       0.383134       0.510263       0.267669
    1066.49520       0.690756      1817.7164        37.3214         0.0000         0.0000       0.383111       0.510231       0.267653
    1066.64760       0.694518      1817.9762        37.3250         0.0000         0.0000       0.383087       0.510200       0.267636
    1066.80000       0.698165      1818.2360        37.3286         0.0000         0.0000       0.383064       0.510169       0.267620
    1066.95240       0.701812      1818.4957        37.3322         0.0000         0.0000       0.383040       0.510137       0.267603
    1067.10480       0.701168      1818.7555        37.3358         0.0000         0.0000       0.383017       0.510106       0.267587
