~Version Information Block
VERS .                 2.00:  CWLS LOG ASCII STANDARD - VERSION 2.00
WRAP .                   NO:  One line per depth step
~Well Information Block
#MNEM.UNIT        Data Type   Information
#---------- ----------------  -----------
STRT .M           390.60120:  START DEPTH
STOP .M          1234.44000:  STOP DEPTH
STEP .M             0.15240:  STEP
NULL .              -999.25:  NULL VALUE
COMP .                     :  COMPANY
WELL .         Resolution-1:  WELL
FLD  .                     :  FIELD
LOC  .                     :  LOCATION
CTRY .                     :  COUNTRY
STAT .                     :  STATE
CNTY .                     :  COUNTY
SRVC .     Shell BP Todd Canterbury Services Ltd:  SERVICE COMPANY
DATE .                     :  DATE
API  .                     :  API NUMBER
UWI  .         100000022150:  UNIQUE WELL ID
LATI .           -44.186126:  LATITUDE
LONG .          172.6362332:  LONGITUDE
~Curve Information Block
#MNEM.UNIT         API CODE   Curve Description
#---------- ----------------  -----------------
DEPTH.M                    :  Measured Depth (MD)
CT   .MH/M                 :  True formation conductivity
FPRESS.PSI                  :  Formation/hydrostatic pressure
FTEMP.DEGC                 :  Formation temperature
HMC_POR.IN                   :  Mudcake from nuclear/porosity
HMC_RES.IN                   :  Mudcake from resistivity/sonic
RM   .OHMM                 :  Mud resistivity
RMC  .OHMM                 :  Mudcake resistivity
RMF  .OHMM                 :  Mud filtrate resistivity
~Parameter Information Block
#MNEM.UNIT            Value   Description
#---------- ----------------  -----------
CUR_INT_BOT.M                1963:  Current interpolated bottom
PROJECT.     New Zealand Log QC Project:  
SET  .            EC_CURVES:  
ELEVATION_AMSL.M                  10:  Elevation above mean sea level
ELEVATION_REF.                   RT:  Measurement reference
FORMATION_AT_TD.            Volcanics:  Formation at TD
LICENCE_NUMBER.               PPL685:  Licence number
ONSHORE_OR_OFFSHORE.             Offshore:  Onshore/offshore
PR_NUMBER.                PR648:  Petroleum report number
SEAFLOOR_ELEVATION_BMSL.M             74.0000:  Seafloor elevation below mean sea level
SPUD_DATE.           09/07/1975:  Spud date
STATUS_AT_COMPLETION.     Dry and abandoned:  Status at completion
TD_DATE.           27/07/1975:  Total depth date
TOTAL_DEPTH_DRILLED.M                1963:  Total depth drilled
WATER_DEPTH.M                  64:  Water depth
~Other Information Block
# 
~A       DEPTH             CT         FPRESS          FTEMP        HMC_POR        HMC_RES             RM            RMC            RMF 
# ...
     948.38520       0.745296      1616.4119        34.5174         0.0000         0.0000       0.402288       0.535771       0.281050
     948.53760       0.748398      1616.6716        34.5210         0.0056         0.0056       0.402262       0.535737       0.281032
     948.69000       0.751107      1616.9314        34.5246         0.0285         0.0285       0.402236       0.535702       0.281014
     948.84240       0.753817      1617.1912        34.5282         0.0514         0.0514       0.402210       0.535667       0.280996
     948.99480       0.756526      1617.4508        34.5319         0.0743         0.0743       0.402184       0.535633       0.280978
     949.14720       0.756204      1617.7106        34.5355         0.1034         0.1034       0.402158       0.535598       0.280960
     949.29960       0.755775      1617.9703        34.5391         0.1327         0.1327       0.402132       0.535564       0.280941
     949.45200       0.755346      1618.2301        34.5427         0.1620         0.1620       0.402106       0.535529       0.280923
     949.60440       0.750746      1618.4899        34.5463         0.1923         0.1923       0.402080       0.535495       0.280905
     949.75680       0.744229      1618.7495        34.5499         0.2230         0.2230       0.402054       0.535460       0.280887
     949.90920       0.737712      1619.0093        34.5536         0.2537         0.2537       0.402028       0.535425       0.280869
     950.06160       0.734393      1619.2690        34.5572         0.2850         0.2850       0.402002       0.535391       0.280851
     950.21400       0.735787      1619.5288        34.5608         0.3173         0.3173       0.401976       0.535356       0.280833
     950.36640       0.737181      1619.7886        34.5644         0.3496         0.3496       0.401950       0.535322       0.280814
     950.51880       0.739059      1620.0483        34.5680         0.3768         0.3768       0.401924       0.535287       0.280796
     950.67120       0.744375      1620.3081        34.5717         0.3670         0.3670       0.401898       0.535253       0.280778
     950.82360       0.749692      1620.5679        34.5753         0.3573         0.3573       0.401872       0.535218       0.280760
     950.97600       0.755008      1620.8276        34.5789         0.3475         0.3475       0.401846       0.535184       0.280742
     951.12840       0.759020      1621.0873        34.5825         0.3175         0.3175       0.401820       0.535149       0.280724
     951.28080       0.762788      1621.3470        34.5861         0.2836         0.2836       0.401795       0.535115       0.280706
     951.43320       0.766556      1621.6067        34.5897         0.2497         0.2497       0.401769       0.535080       0.280688
     951.58560       0.769138      1621.8665        34.5934         0.2554         0.2554       0.401743       0.535046       0.280670
     951.73800       0.770795      1622.1262        34.5970         0.2920         0.2920       0.401717       0.535011       0.280651
     951.89040       0.772452      1622.3860        34.6006         0.3286         0.3286       0.401691       0.534976       0.280633
     952.04280       0.773029      1622.6458        34.6042         0.3523         0.3523       0.401665       0.534942       0.280615
     952.19520       0.770839      1622.9054        34.6078         0.3429         0.3429       0.401639       0.534908       0.280597
     952.34760       0.768649      1623.1652        34.6115         0.3336         0.3336       0.401613       0.534873       0.280579
     952.50000       0.766460      1623.4249        34.6151         0.3243         0.3243       0.401587       0.534838       0.280561
     952.65240       0.760201      1623.6847        34.6187         0.2890         0.2890       0.401561       0.534804       0.280543
     952.80480       0.753942      1623.9445        34.6223         0.2537         0.2537       0.401536       0.534770       0.280525
     952.95720       0.747683      1624.2042        34.6259         0.2184         0.2184       0.401510       0.534735       0.280507
     953.10960       0.738753      1624.4640        34.6295         0.2032         0.2032       0.401484       0.534701       0.280489
     953.26200       0.728780      1624.7238        34.6332         0.1958         0.1958       0.401458       0.534666       0.280471
     953.41440       0.718808      1624.9835        34.6368         0.1884         0.1884       0.401432       0.534632       0.280453
     953.56680       0.711707      1625.2433        34.6404         0.1889         0.1889       0.401406       0.534597       0.280434
     953.71920       0.708287      1625.5029        34.6440         0.1994         0.1994       0.401380       0.534563       0.280416
     953.87160       0.704868      1625.7627        34.6476         0.2099         0.2099       0.401354       0.534528       0.280398
     954.02400       0.702471      1626.0225        34.6512         0.2131         0.2131       0.401329       0.534494       0.280380
     954.17640       0.705545      1626.2822        34.6549         0.1770         0.1770       0.401303       0.534459       0.280362
     954.32880       0.708619      1626.5420        34.6585         0.1410         0.1410       0.401277       0.534425       0.280344
     954.48120       0.711694      1626.8018        34.6621         0.1049         0.1049       0.401251       0.534391       0.280326
     954.63360       0.712211      1627.0615        34.6657         0.0736         0.0736       0.401225       0.534356       0.280308
     954.78600       0.712369      1627.3213        34.6693         0.0430         0.0430       0.401199       0.534322       0.280290
     954.93840       0.712527      1627.5811        34.6730         0.0124         0.0124       0.401174       0.534287       0.280272
     955.09080       0.716510      1627.8408        34.6766         0.0000         0.0000       0.401148       0.534253       0.280254
     955.24320       0.723088      1628.1006        34.6802         0.0000         0.0000       0.401122       0.534219       0.280236
     955.39560       0.729666      1628.3602        34.6838         0.0000         0.0000       0.401096       0.534184       0.280218
     955.54800       0.734656      1628.6200        34.6874         0.0000         0.0000       0.401070       0.534150       0.280200
     955.70040       0.736192      1628.8798        34.6910         0.0000         0.0000       0.401044       0.534115       0.280182
     955.85280       0.737729      1629.1395        34.6947         0.0000         0.0000       0.401019       0.534081       0.280164
     956.00520       0.738997      1629.3993        34.6983         0.0005         0.0005       0.400993       0.534047       0.280146
     956.15760       0.732668      1629.6589        34.7019         0.0137         0.0137       0.400967       0.534012       0.280128
     956.31000       0.726340      1629.9187        34.7055         0.0269         0.0269       0.400941       0.533978       0.280110
     956.46240       0.720012      1630.1785        34.7091         0.0401         0.0401       0.400915       0.533943       0.280091
     956.61480       0.714003      1630.4382        34.7128         0.0489         0.0489       0.400889       0.533909       0.280073
     956.76720       0.708098      1630.6980        34.7164         0.0562         0.0562       0.400864       0.533875       0.280055
     956.91960       0.702193      1630.9578        34.7200         0.0635         0.0635       0.400838       0.533840       0.280037
     957.07200       0.697875      1631.2175        34.7236         0.0649         0.0649       0.400812       0.533806       0.280019
     957.22440       0.695331      1631.4773        34.7272         0.0595         0.0595       0.400786       0.533772       0.280001
     957.37680       0.692787      1631.7371        34.7308         0.0542         0.0542       0.400761       0.533737       0.279983
