~Version Information Block
VERS .                 2.00:  CWLS LOG ASCII STANDARD - VERSION 2.00
WRAP .                   NO:  One line per depth step
~Well Information Block
#MNEM.UNIT        Data Type   Information
#---------- ----------------  -----------
STRT .M            74.52360:  START DEPTH
STOP .M          1955.44440:  STOP DEPTH
STEP .M             0.15240:  STEP
NULL .              -999.25:  NULL VALUE
COMP .                     :  COMPANY
WELL .         Resolution-1:  WELL
FLD  .                     :  FIELD
LOC  .                     :  LOCATION
CTRY .                     :  COUNTRY
STAT .                     :  STATE
CNTY .                     :  COUNTY
SRVC .     Shell BP Todd Canterbury Services Ltd:  SERVICE COMPANY
DATE .                     :  DATE
API  .                     :  API NUMBER
UWI  .         100000022150:  UNIQUE WELL ID
LATI .           -44.186126:  LATITUDE
LONG .          172.6362332:  LONGITUDE
~Curve Information Block
#MNEM.UNIT         API CODE   Curve Description
#---------- ----------------  -----------------
DEPTH.M                    :  
BS   .IN                   :  Bit Size (Created in Geolog)
CALI .IN            UNKNOWN:  Caliper (CALI)
DTC  .US/F          UNKNOWN:  Sonic (DT)
GR   .GAPI          UNKNOWN:  Gamma Ray (GR)
GR_CORR.GAPI                 :  Gamma ray corrected
RESD .OHMM          UNKNOWN:  Laterolog Deep Resistivity (LLD)
RESS .OHMM          UNKNOWN:  Shallow Laterolog (LLS)
SP   .MV            UNKNOWN:  Spontaneous Potential (SP)
~Parameter Information Block
#MNEM.UNIT            Value   Description
#---------- ----------------  -----------
CUR_INT_BOT.M                1963:  Current interpolated bottom
PROJECT.     New Zealand Log QC Project:  
SET  .     A0_FINAL_INTER_REF_D:  
ELEVATION_AMSL.M                  10:  Elevation above mean sea level
ELEVATION_REF.                   RT:  Measurement reference
FORMATION_AT_TD.            Volcanics:  Formation at TD
LICENCE_NUMBER.               PPL685:  Licence number
ONSHORE_OR_OFFSHORE.             Offshore:  Onshore/offshore
PR_NUMBER.                PR648:  Petroleum report number
SEAFLOOR_ELEVATION_BMSL.M             74.0000:  Seafloor elevation below mean sea level
SPUD_DATE.           09/07/1975:  Spud date
STATUS_AT_COMPLETION.     Dry and abandoned:  Status at completion
TD_DATE.           27/07/1975:  Total depth date
TOTAL_DEPTH_DRILLED.M                1963:  Total depth drilled
WATER_DEPTH.M                  64:  Water depth
~Other Information Block
# 
~A       DEPTH             BS           CALI            DTC             GR        GR_CORR           RESD           RESS             SP 
# ...
     696.31560        17.5000        22.0140       139.2826        48.2883        60.0310         1.7070         1.4039        21.3029
     696.46800        17.5000        22.0596       139.4029        47.8952        59.5423         1.7341         1.4224        21.3656
     696.62040        17.5000        22.1216       139.2266        48.1790        59.8952         1.7347         1.4236        20.4522
     696.77280        17.5000        22.1878       138.9716        48.6427        60.4716         1.7283         1.4201        19.2795
     696.92520        17.5000        22.2540       138.7165        49.1064        61.0481         1.7219         1.4167        18.1067
     697.07760        17.5000        22.2817       138.3322        48.9093        60.8031         1.7029         1.3988        17.1012
     697.23000        17.5000        22.2721       137.8233        48.0753        59.7662         1.6719         1.3671        16.2569
     697.38240        17.5000        22.2626       137.3144        47.2412        58.7294         1.6409         1.3353        15.4126
     697.53480        17.5000        22.2634       137.2367        46.5167        57.8286         1.6139         1.3074        14.8599
     697.68720        17.5000        22.2995       138.6161        46.1620        57.3877         1.6005         1.2925        15.2924
     697.83960        17.5000        22.3356       139.9954        45.8074        56.9468         1.5872         1.2776        15.7249
     697.99200        17.5000        22.3717       141.3748        45.4527        56.5059         1.5738         1.2627        16.1574
     698.14440        17.5000        22.3825       141.1651        45.0979        56.0648         1.5785         1.2689        16.2195
     698.29680        17.5000        22.3918       140.8674        44.7431        55.6237         1.5842         1.2763        16.2610
     698.44920        17.5000        22.4011       140.5697        44.3883        55.1826         1.5899         1.2838        16.3026
     698.60160        17.5000        22.4084       140.8410        43.1050        53.5872         1.5920         1.2906        16.2454
     698.75400        17.5000        22.4146       141.3968        41.3575        51.4148         1.5922         1.2972        16.1388
     698.90640        17.5000        22.4208       141.9526        39.6100        49.2423         1.5925         1.3037        16.0322
     699.05880        17.5000        22.4295       142.6087        38.4572        47.8092         1.5863         1.3032        15.9288
     699.21120        17.5000        22.4422       143.4243        38.2510        47.5529         1.5699         1.2913        15.8305
     699.36360        17.5000        22.4550       144.2399        38.0449        47.2967         1.5535         1.2794        15.7322
     699.51600        17.5000        22.4631       144.9679        37.8037        46.9968         1.5346         1.2643        15.6419
     699.66840        17.5000        22.4322       144.9493        37.2631        46.3247         1.4944         1.2220        15.6200
     699.82080        17.5000        22.4012       144.9307        36.7225        45.6526         1.4542         1.1797        15.5980
     699.97320        17.5000        22.3703       144.9121        36.1819        44.9806         1.4140         1.1374        15.5761
     700.12560        17.5000        22.3202       145.0566        37.1040        46.1269         1.4068         1.1225        15.6164
     700.27800        17.5000        22.2660       145.2359        38.3382        47.6613         1.4065         1.1134        15.6701
     700.43040        17.5000        22.2119       145.4152        39.5725        49.1957         1.4063         1.1043        15.7237
     700.58280        17.5000        22.1674       144.7651        40.5233        50.3778         1.4343         1.1293        15.8469
     700.73520        17.5000        22.1311       143.4178        41.2359        51.2636         1.4860         1.1830        16.0286
     700.88760        17.5000        22.0948       142.0704        41.9484        52.1494         1.5377         1.2366        16.2104
     701.04000        17.5000        22.0909       140.9039        42.6625        53.0372         1.5837         1.2822        16.3858
     701.19240        17.5000        22.1780       140.2452        43.3808        53.9301         1.6135         1.3048        16.5437
     701.34480        17.5000        22.2651       139.5866        44.0991        54.8231         1.6433         1.3274        16.7015
     701.49720        17.5000        22.3523       138.9279        44.8174        55.7161         1.6732         1.3500        16.8593
     701.64960        17.5000        22.3508       138.8942        45.1012        56.0689         1.6849         1.3534        16.5596
     701.80200        17.5000        22.3477       138.8721        45.3769        56.4117         1.6963         1.3565        16.2514
     701.95440        17.5000        22.3446       138.8500        45.6526        56.7544         1.7078         1.3596        15.9432
     702.10680        17.5000        22.3414       138.7005        45.2727        56.2821         1.7014         1.3554        15.4298
     702.25920        17.5000        22.3383       138.4966        44.6127        55.4617         1.6875         1.3480        14.8289
     702.41160        17.5000        22.3351       138.2928        43.9528        54.6413         1.6735         1.3406        14.2281
     702.56400        17.5000        22.3134       138.2487        43.3530        53.8956         1.6542         1.3299        13.7889
     702.71640        17.5000        22.2661       138.4252        42.8362        53.2531         1.6274         1.3148        13.5730
     702.86880        17.5000        22.2188       138.6017        42.3194        52.6106         1.6007         1.2997        13.3572
     703.02120        17.5000        22.1469       138.7795        41.9583        52.1618         1.5769         1.2862        13.2603
     703.17360        17.5000        21.9225       138.9648        42.5613        52.9114         1.5723         1.2824        13.8996
     703.32600        17.5000        21.6981       139.1501        43.1643        53.6610         1.5676         1.2786        14.5389
     703.47840        17.5000        21.4738       139.3354        43.7673        54.4106         1.5629         1.2747        15.1782
     703.63080        17.5000        21.3769       140.2500        44.9566        55.8891         1.5413         1.2544        15.9877
     703.78320        17.5000        21.3012       141.2850        46.2427        57.4879         1.5170         1.2314        16.8253
     703.93560        17.5000        21.2254       142.3199        47.5288        59.0868         1.4927         1.2083        17.6629
     704.08800        17.5000        21.1991       139.8909        49.6470        61.7201         1.5143         1.2187        17.8873
     704.24040        17.5000        21.2091       134.9267        52.3742        65.1106         1.5693         1.2536        17.6628
     704.39280        17.5000        21.2190       129.9626        55.1014        68.5010         1.6244         1.2884        17.4384
     704.54520        17.5000        21.2431       127.4901        56.7409        70.5392         1.6484         1.3058        17.1270
     704.69760        17.5000        21.3010       130.9269        55.8007        69.3703         1.5987         1.2814        16.6094
     704.85000        17.5000        21.3588       134.3637        54.8604        68.2014         1.5490         1.2571        16.0918
     705.00240        17.5000        21.4189       137.7669        53.9303        67.0451         1.5003         1.2332        15.5787
     705.15480        17.5000        21.6184       139.0760        53.6350        66.6779         1.5109         1.2356        15.3487
     705.30720        17.5000        21.8179       140.3850        53.3397        66.3108         1.5215         1.2380        15.1188
