~Version Information Block
VERS .                 2.00:  CWLS LOG ASCII STANDARD - VERSION 2.00
WRAP .                   NO:  One line per depth step
~Well Information Block
#MNEM.UNIT        Data Type   Information
#---------- ----------------  -----------
STRT .M           390.60120:  START DEPTH
STOP .M          1234.44000:  STOP DEPTH
STEP .M             0.15240:  STEP
NULL .              -999.25:  NULL VALUE
COMP .                     :  COMPANY
WELL .         Resolution-1:  WELL
FLD  .                     :  FIELD
LOC  .                     :  LOCATION
CTRY .                     :  COUNTRY
STAT .                     :  STATE
CNTY .                     :  COUNTY
SRVC .     Shell BP Todd Canterbury Services Ltd:  SERVICE COMPANY
DATE .                     :  DATE
API  .                     :  API NUMBER
UWI  .         100000022150:  UNIQUE WELL ID
LATI .           -44.186126:  LATITUDE
LONG .          172.6362332:  LONGITUDE
~Curve Information Block
#MNEM.UNIT         API CODE   Curve Description
#---------- ----------------  -----------------
DEPTH.M                    :  Measured Depth (MD)
CT   .MH/M                 :  True formation conductivity
FPRESS.PSI                  :  Formation/hydrostatic pressure
FTEMP.DEGC                 :  Formation temperature
HMC_POR.IN                   :  Mudcake from nuclear/porosity
HMC_RES.IN                   :  Mudcake from resistivity/sonic
RM   .OHMM                 :  Mud resistivity
RMC  .OHMM                 :  Mudcake resistivity
RMF  .OHMM                 :  Mud filtrate resistivity
~Parameter Information Block
#MNEM.UNIT            Value   Description
#---------- ----------------  -----------
CUR_INT_BOT.M                1963:  Current interpolated bottom
PROJECT.     New Zealand Log QC Project:  
SET  .            EC_CURVES:  
ELEVATION_AMSL.M                  10:  Elevation above mean sea level
ELEVATION_REF.                   RT:  Measurement reference
FORMATION_AT_TD.            Volcanics:  Formation at TD
LICENCE_NUMBER.               PPL685:  Licence number
ONSHORE_OR_OFFSHORE.             Offshore:  Onshore/offshore
PR_NUMBER.                PR648:  Petroleum report number
SEAFLOOR_ELEVATION_BMSL.M             74.0000:  Seafloor elevation below mean sea level
SPUD_DATE.           09/07/1975:  Spud date
STATUS_AT_COMPLETION.     Dry and abandoned:  Status at completion
TD_DATE.           27/07/1975:  Total depth date
TOTAL_DEPTH_DRILLED.M                1963:  Total depth drilled
WATER_DEPTH.M                  64:  Water depth
~Other Information Block
# 
~A       DEPTH             CT         FPRESS          FTEMP        HMC_POR        HMC_RES             RM            RMC            RMF 
# ...
    1003.24920       0.680523      1709.9211        35.8199         0.0000         0.0000       0.393146       0.523597       0.274664
    1003.40160       0.677229      1710.1809        35.8235         0.0000         0.0000       0.393122       0.523564       0.274647
    1003.55400       0.676687      1710.4407        35.8271         0.0000         0.0000       0.393097       0.523531       0.274629
    1003.70640       0.681163      1710.7004        35.8307         0.0000         0.0000       0.393072       0.523498       0.274612
    1003.85880       0.685638      1710.9602        35.8343         0.0000         0.0000       0.393047       0.523465       0.274595
    1004.01120       0.690199      1711.2198        35.8380         0.0019         0.0019       0.393022       0.523432       0.274577
    1004.16360       0.695838      1711.4796        35.8416         0.0271         0.0271       0.392998       0.523399       0.274560
    1004.31600       0.701477      1711.7394        35.8452         0.0523         0.0523       0.392973       0.523366       0.274543
    1004.46840       0.707116      1711.9991        35.8488         0.0776         0.0776       0.392948       0.523333       0.274525
    1004.62080       0.710055      1712.2589        35.8524         0.0899         0.0899       0.392923       0.523300       0.274508
    1004.77320       0.712288      1712.5186        35.8560         0.0987         0.0987       0.392898       0.523267       0.274491
    1004.92560       0.714522      1712.7783        35.8597         0.1076         0.1076       0.392874       0.523234       0.274473
    1005.07800       0.715627      1713.0381        35.8633         0.1020         0.1020       0.392849       0.523201       0.274456
    1005.23040       0.715655      1713.2979        35.8669         0.0826         0.0826       0.392824       0.523168       0.274439
    1005.38280       0.715684      1713.5576        35.8705         0.0632         0.0632       0.392799       0.523135       0.274421
    1005.53520       0.714846      1713.8173        35.8741         0.0449         0.0449       0.392775       0.523102       0.274404
    1005.68760       0.711125      1714.0770        35.8778         0.0302         0.0302       0.392750       0.523069       0.274387
    1005.84000       0.707405      1714.3368        35.8814         0.0155         0.0155       0.392725       0.523036       0.274370
    1005.99240       0.703684      1714.5966        35.8850         0.0007         0.0007       0.392700       0.523003       0.274352
    1006.14480       0.701586      1714.8563        35.8886         0.0003         0.0003       0.392675       0.522970       0.274335
    1006.29720       0.699574      1715.1161        35.8922         0.0007         0.0007       0.392651       0.522937       0.274318
    1006.44960       0.697561      1715.3757        35.8958         0.0011         0.0011       0.392626       0.522904       0.274300
    1006.60200       0.697732      1715.6355        35.8995         0.0046         0.0046       0.392601       0.522871       0.274283
    1006.75440       0.698981      1715.8953        35.9031         0.0096         0.0096       0.392576       0.522838       0.274266
    1006.90680       0.700231      1716.1550        35.9067         0.0147         0.0147       0.392552       0.522805       0.274248
    1007.05920       0.700297      1716.4148        35.9103         0.0232         0.0232       0.392527       0.522772       0.274231
    1007.21160       0.698500      1716.6746        35.9139         0.0372         0.0372       0.392502       0.522739       0.274214
    1007.36400       0.696703      1716.9343        35.9176         0.0513         0.0513       0.392478       0.522706       0.274197
    1007.51640       0.694673      1717.1941        35.9212         0.0676         0.0676       0.392453       0.522673       0.274179
    1007.66880       0.690715      1717.4539        35.9248         0.1028         0.1028       0.392428       0.522640       0.274162
    1007.82120       0.686758      1717.7136        35.9284         0.1381         0.1381       0.392403       0.522607       0.274145
    1007.97360       0.682800      1717.9733        35.9320         0.1734         0.1734       0.392379       0.522574       0.274128
    1008.12600       0.679122      1718.2330        35.9356         0.1577         0.1577       0.392354       0.522541       0.274110
    1008.27840       0.675504      1718.4928        35.9393         0.1314         0.1314       0.392329       0.522508       0.274093
    1008.43080       0.671885      1718.7526        35.9429         0.1051         0.1051       0.392304       0.522476       0.274076
    1008.58320       0.671418      1719.0123        35.9465         0.0776         0.0776       0.392280       0.522443       0.274058
    1008.73560       0.673573      1719.2720        35.9501         0.0492         0.0492       0.392255       0.522410       0.274041
    1008.88800       0.675727      1719.5317        35.9537         0.0209         0.0209       0.392230       0.522377       0.274024
    1009.04040       0.678301      1719.7915        35.9574         0.0000         0.0000       0.392206       0.522344       0.274007
    1009.19280       0.682036      1720.0513        35.9610         0.0000         0.0000       0.392181       0.522311       0.273989
    1009.34520       0.685771      1720.3110        35.9646         0.0000         0.0000       0.392156       0.522278       0.273972
    1009.49760       0.689506      1720.5708        35.9682         0.0000         0.0000       0.392132       0.522245       0.273955
    1009.65000       0.691456      1720.8306        35.9718         0.0000         0.0000       0.392107       0.522212       0.273938
    1009.80240       0.693378      1721.0903        35.9754         0.0000         0.0000       0.392082       0.522180       0.273920
    1009.95480       0.695299      1721.3501        35.9791         0.0000         0.0000       0.392058       0.522147       0.273903
    1010.10720       0.695772      1721.6099        35.9827         0.0000         0.0000       0.392033       0.522114       0.273886
    1010.25960       0.695634      1721.8696        35.9863         0.0000         0.0000       0.392008       0.522081       0.273869
    1010.41200       0.695497      1722.1293        35.9899         0.0000         0.0000       0.391984       0.522048       0.273852
    1010.56440       0.697604      1722.3890        35.9935         0.0000         0.0000       0.391959       0.522015       0.273834
    1010.71680       0.702778      1722.6488        35.9972         0.0000         0.0000       0.391934       0.521982       0.273817
    1010.86920       0.707952      1722.9086        36.0008         0.0000         0.0000       0.391910       0.521950       0.273800
    1011.02160       0.712370      1723.1683        36.0044         0.0000         0.0000       0.391885       0.521917       0.273783
    1011.17400       0.712204      1723.4280        36.0080         0.0000         0.0000       0.391860       0.521884       0.273765
    1011.32640       0.712039      1723.6877        36.0116         0.0000         0.0000       0.391836       0.521851       0.273748
    1011.47880       0.711873      1723.9474        36.0152         0.0000         0.0000       0.391811       0.521818       0.273731
    1011.63120       0.708208      1724.2072        36.0189         0.0000         0.0000       0.391786       0.521785       0.273714
    1011.78360       0.703977      1724.4669        36.0225         0.0000         0.0000       0.391762       0.521753       0.273696
    1011.93600       0.699745      1724.7267        36.0261         0.0000         0.0000       0.391737       0.521720       0.273679
    1012.08840       0.697725      1724.9865        36.0297         0.0000         0.0000       0.391712       0.521687       0.273662
    1012.24080       0.697304      1725.2462        36.0333         0.0000         0.0000       0.391688       0.521654       0.273645
