~Version Information Block
VERS .                 2.00:  CWLS LOG ASCII STANDARD - VERSION 2.00
WRAP .                   NO:  One line per depth step
~Well Information Block
#MNEM.UNIT        Data Type   Information
#---------- ----------------  -----------
STRT .M           377.95200:  START DEPTH
STOP .M          1955.59680:  STOP DEPTH
STEP .M             0.15240:  STEP
NULL .              -999.25:  NULL VALUE
COMP .                     :  COMPANY
WELL .         Resolution-1:  WELL
FLD  .                     :  FIELD
LOC  .                     :  LOCATION
CTRY .                     :  COUNTRY
STAT .                     :  STATE
CNTY .                     :  COUNTY
SRVC .     Shell BP Todd Canterbury Services Ltd:  SERVICE COMPANY
DATE .                     :  DATE
API  .                     :  API NUMBER
UWI  .         100000022150:  UNIQUE WELL ID
LATI .           -44.186126:  LATITUDE
LONG .          172.6362332:  LONGITUDE
~Curve Information Block
#MNEM.UNIT         API CODE   Curve Description
#---------- ----------------  -----------------
DEPTH.M                    :  
CALI .IN            UNKNOWN:  2  Caliper
DT   .US/F          UNKNOWN:  3  Sonic
LLD  .OHMM          UNKNOWN:  5  Latero-Log Deep
LLS  .OHMM          UNKNOWN:  6  Latero-Log Shallow
SP   .MV            UNKNOWN:  7  Spontaneous Potential
~Parameter Information Block
#MNEM.UNIT            Value   Description
#---------- ----------------  -----------
CUR_INT_BOT.M           1955.9016:  Current interpolated bottom
PROJECT.     New Zealand Log QC Project:  
SET  .      RAW_INTER_REF_D:  
ELEVATION_AMSL.M                  10:  Elevation above mean sea level
ELEVATION_REF.                   RT:  Measurement reference
FORMATION_AT_TD.            Volcanics:  Formation at TD
LICENCE_NUMBER.               PPL685:  Licence number
ONSHORE_OR_OFFSHORE.             Offshore:  Onshore/offshore
PR_NUMBER.                PR648:  Petroleum report number
SEAFLOOR_ELEVATION_BMSL.M             74.0000:  Seafloor elevation below mean sea level
SPUD_DATE.           09/07/1975:  Spud date
STATUS_AT_COMPLETION.     Dry and abandoned:  Status at completion
TD_DATE.           27/07/1975:  Total depth date
TOTAL_DEPTH_DRILLED.M                1963:  Total depth drilled
WATER_DEPTH.M                  64:  Water depth
~Other Information Block
# 
~A       DEPTH           CALI             DT            LLD            LLS             SP 
# ...
    1937.76600        13.6596        62.6579        97.2693        76.6333        73.8341
    1937.91840        13.6743        61.9490        93.9935        73.2806        73.7432
    1938.07080        13.6588        61.4231        90.7294        69.0921        73.7106
    1938.22320        13.6349        61.3171        87.5092        64.8144        73.7191
    1938.37560        13.6078        61.0739        84.2579        60.9130        73.7578
    1938.52800        13.6053        60.9267        80.0899        56.7977        73.7480
    1938.68040        13.6155        60.9272        74.2817        51.5414        73.7140
    1938.83280        13.6270        61.0445        67.3013        45.2327        73.6269
    1938.98520        13.6532        61.1030        59.9470        36.6181        73.4802
    1939.13760        13.6780        61.0309        52.4311        30.2747        73.2866
    1939.29000        13.6877        60.3934        45.3564        26.6748        73.1276
    1939.44240        13.6698        59.7499        40.3843        24.5269        72.8934
    1939.59480        13.6574        59.9810        35.7978        22.3144        72.6376
    1939.74720        13.6522        60.8850        30.5816        19.1559        72.4368
    1939.89960        13.6448        61.9119        26.9603        17.2677        72.3431
    1940.05200        13.6426        62.8393        25.6222        16.9739        72.3660
    1940.20440        13.6455        63.4279        25.3611        17.2679        72.5756
    1940.35680        13.6474        63.7155        26.0663        18.0222        73.1232
    1940.50920        13.6503        63.5189        27.5952        19.1752        73.6782
    1940.66160        13.6581        62.8343        30.2130        20.6616        73.8225
    1940.81400        13.6687        62.0324        33.4865        22.3324        73.6814
    1940.96640        13.6732        61.5755        36.9059        24.2867        73.3682
    1941.11880        13.6614        60.9588        39.9397        25.8415        72.9889
    1941.27120        13.6407        60.5309        41.8358        26.8055        72.6808
    1941.42360        13.6172        60.6785        42.0385        26.3556        72.4624
    1941.57600        13.5878        61.3501        40.8705        25.0261        72.4029
    1941.72840        13.5613        62.8938        38.6616        23.2456        72.4554
    1941.88080        13.5400        63.9018        35.5025        21.4057        72.5538
    1942.03320        13.5289        63.7952        32.2598        19.6144        72.7341
    1942.18560        13.5178        63.8862        31.1656        18.9594        72.9938
    1942.33800        13.5113        63.4437        33.3716        20.1314        73.3540
    1942.49040        13.4936        62.8341        37.7189        22.1459        73.3768
    1942.64280        13.4744        61.8886        43.0715        24.5110        73.0733
    1942.79520        13.4421        61.6645        49.4789        27.3993        72.9162
    1942.94760        13.4199        61.5339        55.9405        31.1504        73.1851
    1943.10000        13.4166        60.9105        62.7539        35.6957        73.5474
    1943.25240        13.4199        60.2365        69.8605        41.0796        73.8490
    1943.40480        13.4300        60.0552        76.4285        45.5069        74.0280
    1943.55720        13.4492        60.2984        78.6780        46.3344        74.3756
    1943.70960        13.4654        60.6559        75.0022        42.5062        74.8771
    1943.86200        13.4852        61.0429        68.2487        38.2509        75.4529
    1944.01440        13.5056        61.4557        62.1571        34.4979        75.9511
    1944.16680        13.5326        61.6206        58.2237        31.2488        76.1116
    1944.31920        13.5473        61.3065        54.9306        28.8425        75.8331
    1944.47160        13.5445        60.9222        51.8767        27.4452        75.4450
    1944.62400        13.5305        60.5581        49.5094        26.1236        75.2129
    1944.77640        13.5312        60.6045        46.9632        24.9122        75.2786
    1944.92880        13.5532        61.3561        44.2821        23.5992        75.5636
    1945.08120        13.6007        62.4295        40.8280        21.6716        75.9991
    1945.23360        13.6559        63.5811        36.5576        19.8173        76.4918
    1945.38600        13.6972        64.6390        32.5168        17.5317        76.9057
    1945.53840        13.7133        65.5625        28.8573        15.2045        77.0686
    1945.69080        13.7056        66.2180        25.7725        13.4063        76.5970
    1945.84320        13.6887        65.8633        23.3943        12.2898        76.1557
    1945.99560        13.6946        65.1330        21.7853        11.6440        75.9229
    1946.14800        13.7104        64.3506        20.8017        11.0094        76.1832
    1946.30040        13.7383        63.7474        20.2185        10.6226        76.6453
    1946.45280        13.7726        63.3539        19.7245        10.6894        77.1107
    1946.60520        13.8025        63.0770        19.6111        10.7208        77.3862
    1946.75760        13.8221        62.7004        19.8193        11.0106        77.5246
    1946.91000        13.8328        62.4353        20.2783        11.7008        77.2712
    1947.06240        13.8160        62.3595        20.8044        12.4305        76.6068
    1947.21480        13.8034        61.8862        21.8049        13.1803        75.9947
    1947.36720        13.7947        60.8624        22.8589        13.7025        75.5362
    1947.51960        13.8550        59.9700        24.1925        13.8092        75.3194
    1947.67200        13.9470        59.4794        25.4756        13.6584        75.4767
    1947.82440        14.0060        59.8978        25.2719        13.2665        75.7293
    1947.97680        14.0668        60.1781        24.3137        12.8951        75.8799
    1948.12920        14.0937        60.2967        23.6402        13.3990        75.8451
    1948.28160        14.0579        60.6776        24.0189        14.3910        75.6824
    1948.43400        14.0220        60.5213        25.4280        15.1195        75.5928
    1948.58640        14.0025        59.5404        27.2852        15.7838        75.6771
    1948.73880        13.9950        58.6449        29.8845        16.8786        75.8031
    1948.89120        14.0070        58.1350        32.2927        18.2193        76.1086
    1949.04360        14.0126        57.9713        33.4112        18.8289        76.5023
    1949.19600        14.0092        57.9953        35.3789        18.2675        76.8729
    1949.34840        13.9928        58.3136        37.8932        19.5088        77.0560
    1949.50080        13.9483        57.8376        41.0260        21.1459        76.9170
    1949.65320        13.8531        57.7790        44.6774        23.1204        76.5399
    1949.80560        13.6796        58.2741        48.9771        25.2745        76.1306
    1949.95800        13.3944        58.1302        52.5015        27.3392        75.7929
    1950.11040        13.3024        57.8143        52.6014        27.0273        75.5356
    1950.26280        13.2637        58.1423        48.9971        23.5019        75.3107
    1950.41520        13.2598        58.5971        44.2743        22.1458        75.2749
    1950.56760        13.2854        59.2499        39.7828        21.0429        75.3687
    1950.72000        13.2750        60.0110        35.9427        19.5412        75.5815
    1950.87240        13.1801        60.5741        33.9601        18.5564        75.8304
    1951.02480        13.0884        60.3701        34.1073        18.8491        76.0994
    1951.17720        12.9853        59.6081        35.2284        19.4128        76.2999
