~Version Information Block
VERS .                 2.00:  CWLS LOG ASCII STANDARD - VERSION 2.00
WRAP .                   NO:  One line per depth step
~Well Information Block
#MNEM.UNIT        Data Type   Information
#---------- ----------------  -----------
STRT .M            74.52360:  START DEPTH
STOP .M          1955.44440:  STOP DEPTH
STEP .M             0.15240:  STEP
NULL .              -999.25:  NULL VALUE
COMP .                     :  COMPANY
WELL .         Resolution-1:  WELL
FLD  .                     :  FIELD
LOC  .                     :  LOCATION
CTRY .                     :  COUNTRY
STAT .                     :  STATE
CNTY .                     :  COUNTY
SRVC .     Shell BP Todd Canterbury Services Ltd:  SERVICE COMPANY
DATE .                     :  DATE
API  .                     :  API NUMBER
UWI  .         100000022150:  UNIQUE WELL ID
LATI .           -44.186126:  LATITUDE
LONG .          172.6362332:  LONGITUDE
~Curve Information Block
#MNEM.UNIT         API CODE   Curve Description
#---------- ----------------  -----------------
DEPTH.M                    :  
BS   .IN                   :  Bit Size (Created in Geolog)
CALI .IN            UNKNOWN:  Caliper (CALI)
DTC  .US/F          UNKNOWN:  Sonic (DT)
GR   .GAPI          UNKNOWN:  Gamma Ray (GR)
GR_CORR.GAPI                 :  Gamma ray corrected
RESD .OHMM          UNKNOWN:  Laterolog Deep Resistivity (LLD)
RESS .OHMM          UNKNOWN:  Shallow Laterolog (LLS)
SP   .MV            UNKNOWN:  Spontaneous Potential (SP)
~Parameter Information Block
#MNEM.UNIT            Value   Description
#---------- ----------------  -----------
CUR_INT_BOT.M                1963:  Current interpolated bottom
PROJECT.     New Zealand Log QC Project:  
SET  .     A0_FINAL_INTER_REF_D:  
ELEVATION_AMSL.M                  10:  Elevation above mean sea level
ELEVATION_REF.                   RT:  Measurement reference
FORMATION_AT_TD.            Volcanics:  Formation at TD
LICENCE_NUMBER.               PPL685:  Licence number
ONSHORE_OR_OFFSHORE.             Offshore:  Onshore/offshore
PR_NUMBER.                PR648:  Petroleum report number
SEAFLOOR_ELEVATION_BMSL.M             74.0000:  Seafloor elevation below mean sea level
SPUD_DATE.           09/07/1975:  Spud date
STATUS_AT_COMPLETION.     Dry and abandoned:  Status at completion
TD_DATE.           27/07/1975:  Total depth date
TOTAL_DEPTH_DRILLED.M                1963:  Total depth drilled
WATER_DEPTH.M                  64:  Water depth
~Other Information Block
# 
~A       DEPTH             BS           CALI            DTC             GR        GR_CORR           RESD           RESS             SP 
# ...
     998.06760        17.5000        18.1171       126.4501        67.4826        83.8930         1.4939         1.3513        35.5310
     998.22000        17.5000        18.1844       126.6226        67.0046        83.2987         1.4845         1.3484        36.0600
     998.37240        17.5000        18.2517       126.7952        66.5266        82.7045         1.4751         1.3455        36.5890
     998.52480        17.5000        18.2976       127.0885        65.9561        81.9953         1.4652         1.3417        37.1393
     998.67720        17.5000        18.2336       128.0029        64.9098        80.6945         1.4527         1.3332        37.7994
     998.82960        17.5000        18.1697       128.9173        63.8634        79.3937         1.4401         1.3247        38.4595
     998.98200        17.5000        18.1057       129.8316        62.8170        78.0929         1.4276         1.3161        39.1197
     999.13440        17.5000        18.1745       130.2371        62.3765        77.5452         1.4294         1.3148        38.8394
     999.28680        17.5000        18.2610       130.5745        62.0171        77.0984         1.4331         1.3143        38.4331
     999.43920        17.5000        18.3475       130.9119        61.6576        76.6516         1.4368         1.3139        38.0269
     999.59160        17.5000        18.3305       130.5925        61.8014        76.8302         1.4375         1.3161        37.2745
     999.74400        17.5000        18.2447       129.8372        62.2791        77.4241         1.4361         1.3200        36.2924
     999.89640        17.5000        18.1590       129.0820        62.7567        78.0179         1.4348         1.3239        35.3103
    1000.04880        17.5000        18.1263       128.7390        63.1506        78.5076         1.4375         1.3270        34.5797
    1000.20120        17.5000        18.2064       129.2712        63.3666        78.7761         1.4489         1.3284        34.3831
    1000.35360        17.5000        18.2865       129.8034        63.5826        79.0446         1.4604         1.3299        34.1865
    1000.50600        17.5000        18.3691       130.3287        63.7512        79.2543         1.4711         1.3312        34.0062
    1000.65840        17.5000        18.5124       130.6841        62.7652        78.0284         1.4654         1.3314        34.2268
    1000.81080        17.5000        18.6556       131.0396        61.7791        76.8026         1.4597         1.3315        34.4474
    1000.96320        17.5000        18.7989       131.3951        60.7930        75.5767         1.4539         1.3316        34.6680
    1001.11560        17.5000        18.9375       131.6464        60.1333        74.7565         1.4388         1.3185        35.0208
    1001.26800        17.5000        19.0746       131.8647        59.5775        74.0655         1.4206         1.3013        35.4158
    1001.42040        17.5000        19.2116       132.0829        59.0216        73.3745         1.4025         1.2840        35.8107
    1001.57280        17.5000        19.3996       132.0118        59.0398        73.3970         1.3946         1.2747        36.2164
    1001.72520        17.5000        19.6432       131.6243        59.6856        74.1999         1.3979         1.2744        36.6339
    1001.87760        17.5000        19.8868       131.2367        60.3314        75.0027         1.4013         1.2740        37.0513
    1002.03000        17.5000        20.0426       131.0354        60.9215        75.7363         1.4065         1.2763        37.3380
    1002.18240        17.5000        19.8403       131.5940        61.2844        76.1875         1.4193         1.2897        37.0911
    1002.33480        17.5000        19.6381       132.1526        61.6473        76.6387         1.4322         1.3031        36.8442
    1002.48720        17.5000        19.4359       132.7112        62.0102        77.0899         1.4450         1.3165        36.5973
    1002.63960        17.5000        18.9792       131.7786        62.4414        77.6259         1.4495         1.3222        35.9443
    1002.79200        17.5000        18.4992       130.7093        62.8788        78.1697         1.4531         1.3271        35.2540
    1002.94440        17.5000        18.0192       129.6399        63.3162        78.7135         1.4568         1.3321        34.5637
    1003.09680        17.5000        17.7947       129.0777        63.8673        79.3985         1.4626         1.3369        34.2580
    1003.24920        17.5000        17.7170       128.8069        64.4836        80.1647         1.4694         1.3418        34.1730
    1003.40160        17.5000        17.6393       128.5361        65.0999        80.9309         1.4763         1.3466        34.0881
    1003.55400        17.5000        17.5834       128.4368        65.4787        81.4019         1.4775         1.3463        34.1790
    1003.70640        17.5000        17.5674       128.6500        65.4247        81.3347         1.4680         1.3367        34.5902
    1003.85880        17.5000        17.5514       128.8631        65.3707        81.2675         1.4586         1.3270        35.0014
    1004.01120        17.5000        17.5339       129.0663        65.2627        81.1333         1.4491         1.3174        35.4342
    1004.16360        17.5000        17.4976       129.1432        64.4755        80.1547         1.4375         1.3071        36.1395
    1004.31600        17.5000        17.4613       129.2202        63.6883        79.1760         1.4259         1.2969        36.8449
    1004.46840        17.5000        17.4250       129.2972        62.9011        78.1974         1.4143         1.2867        37.5502
    1004.62080        17.5000        17.4105       129.6104        63.4427        78.8707         1.4084         1.2830        38.2940
    1004.77320        17.5000        17.4017       129.9855        64.3320        79.9763         1.4040         1.2810        39.0478
    1004.92560        17.5000        17.3928       130.3606        65.2213        81.0818         1.3996         1.2789        39.8016
    1005.07800        17.5000        17.3984       130.4610        65.8036        81.8057         1.3974         1.2806        40.1127
    1005.23040        17.5000        17.4178       130.2995        66.0932        82.1658         1.3975         1.2859        40.0016
    1005.38280        17.5000        17.4371       130.1379        66.3828        82.5258         1.3975         1.2911        39.8906
    1005.53520        17.5000        17.4567       130.0398        66.3743        82.5152         1.3993         1.2961        39.5760
    1005.68760        17.5000        17.4770       130.1531        65.3731        81.2706         1.4065         1.3003        38.5837
    1005.84000        17.5000        17.4972       130.2664        64.3720        80.0260         1.4138         1.3045        37.5915
    1005.99240        17.5000        17.5175       130.3798        63.3709        78.7814         1.4211         1.3087        36.5992
    1006.14480        17.5000        17.5153       130.6031        63.4286        78.8532         1.4253         1.3100        36.1755
    1006.29720        17.5000        17.5120       130.8321        63.5420        78.9941         1.4293         1.3111        35.7816
    1006.44960        17.5000        17.5087       131.0612        63.6553        79.1350         1.4334         1.3122        35.3877
    1006.60200        17.5000        17.5024       131.0601        63.3514        78.7572         1.4331         1.3122        35.1850
    1006.75440        17.5000        17.4947       130.9452        62.8414        78.1232         1.4306         1.3117        35.0768
    1006.90680        17.5000        17.4870       130.8303        62.3314        77.4892         1.4282         1.3111        34.9686
    1007.05920        17.5000        17.4768       130.4975        62.2125        77.3413         1.4281         1.3105        34.9535
