~Version Information
VERS       .                                      2.0 : CWLS Log ASCII Standard -VERSION 2.0
WRAP       .                                       NO : One line per depth step
~Well Information
STRT       .M                                 66.2940 : START DEPTH
STOP       .M                               1955.9016 : STOP DEPTH
STEP       .M                                  0.1524 : STEP
NULL       .                                -999.2500 : NULL VALUE
COMP       .     W.G.S.                               : COMPANY
WELL       .     RESOLUTION 1                         : WELL
FLD        .     UNKNOWN                              : FIELD
LOC        .     UNKNOWN                              : LOCATION
CNTY       .     UNKNOWN                              : COUNTY
STAT       .     UNKNOWN                              : STATE
CTRY       .     UNKNOWN                              : COUNTRY
SRVC       .     UNKNOWN                              : SERVICE COMPANY
DATE       .     18/8/93                              : LOG DATE
UWI        .     UNKNOWN                              : UNIQUE WELL ID
API        .     UNKNOWN                              : API NUMBER
~Curve Information
#MNEMONIC   UNIT API CODE                             : CURVE DESCRIPTION
DEPT       .M    UNKNOWN                              : 1  DEPTH
CALI       .IN   UNKNOWN                              : 2  Caliper
DT         .US/F UNKNOWN                              : 3  Sonic
GR         .GAPI UNKNOWN                              : 4  Gamma Ray
LLD        .OHMM UNKNOWN                              : 5  Latero-Log Deep
LLS        .OHMM UNKNOWN                              : 6  Latero-Log Shallow
SP         .MV   UNKNOWN                              : 7  Spontaneous Potential
~Parameter Information
~Other Information
#***********************************************************
# This LAS file was created by Wiltshire Geological Services.
# The edit data contained herein are copyright property of
# Wiltshire Geological Services. The data are licensed to the
# purchasing company and subsidiaries worldwide, and are NOT
# for on-copying to third parties.  We place no restriction on
# the distribution of plots generated from the digital data.
#
# We supply the data on a 'best effort' basis.  We cannot
# control either the original data acquisition or the
# application of the data and therefore we cannot be held
# responsible for the consequences of any interpretations based
# on the data.  We urge purchasers to apply normal quality
# control procedures to the data before use for any quantitative
# interpretative procedures.
#***********************************************************
LOCN LAT:   44O 11' 16.9" S     WELL NAME: RESOLUTION 1
 LONG: 172O 38' 10.1" E
ELEVN SF: 64.3m   DATUM RT: 9.7m  STATUS: P & A
BASIN:  Canterbury  TOTAL D: 1963m  OPERATOR: BP Shell Todd
SPUD DATE: 1975   COMPLN DATE: 1975  PARTNERS:
TARGET:        LEASE:
         DRILLER:
DATA SOURCE: Log headers      RIG:

ENGINEERING DATA: HOLE AND CASING DATA:
26" hole to   ? m, 20" casing to 377m
17 1/2" hole to 1208.7m, 13 3/8" casing to 1213.3m
12 1/4" hole to 1963m TD

MUD PROPERTIES:
 at 1209m Type: FW Lignos SG: 1.20 Vis:  pH:    FL 11.0 ml
  Rm: 0.657 at 55 deg F Rmf: 0.459 at 55 deg F Rmc: 0.875 at 55 deg F
 at 1955m Type: FW Lignos SG:  Vis:  pH:    FL 5.0 ml
  Rm: 0.502 at 60 deg F Rmf: 0.393 at 56 deg F Rmc: 0.814 at 56 deg F

TEMPERATURES:
Logger's Depth         Temp                                  Log Type
         1209m              107 deg F                             DLL
         1955m              142 deg F                             DLL


~A
# ...
   490.1184    19.2519   158.9795    60.1372     8.5122     6.0326     3.4373
   490.2708    19.3593   157.5988    58.7519     8.6199     5.8888     3.1207
   490.4232    19.5564   155.6697    57.9789     8.6642     5.7459     2.7707
   490.5756    19.8174   155.8194    57.9575     8.5789     5.6001     2.4752
   490.7280    20.1054   155.7619    57.4760     8.4040     5.4747     2.2217
   490.8804    20.4141   159.0794    56.4228     8.2353     5.3911     1.9765
   491.0328    20.7438   174.8225    55.3127     8.0123     5.3349     1.8135
   491.1852    21.0197   171.8585    54.1869     7.7766     5.3157     1.7484
   491.3376    21.2452   162.8776    53.2694     7.6386     5.3142     1.8943
   491.4900    21.7425   157.7140    52.9651     7.7178     5.3373     2.1161
   491.6424    22.1661   159.2734    56.4510     7.8075     5.3929     2.3789
   491.7948    22.3540   160.9070    58.6461     7.9103     5.4801     2.6492
   491.9472    22.3333   163.8190    59.6250     8.0452     5.5454     2.9573
   492.0996    22.3073   164.6472    59.0447     8.1737     5.5820     3.2455
   492.2520    22.2781   163.8801    60.3792     8.2459     5.5622     3.5492
   492.4044    22.2546   162.7000    63.6529     8.2101     5.5005     3.8616
   492.5568    22.2226   161.2198    66.2963     8.0249     5.3938     4.1200
   492.7092    22.1589   159.3838    67.4059     7.8390     5.3927     4.3138
   492.8616    22.0137   159.5875    67.7024     7.8625     5.4904     4.4860
   493.0140    21.7066   160.8482    68.3321     8.0239     5.6932     4.5784
   493.1664    21.0611   161.1528    69.5827     8.2254     5.9130     4.6319
   493.3188    19.8945   161.3260    70.7213     8.3941     6.1134     4.6743
   493.4712    19.2027   160.9371    71.7253     8.4478     6.2162     4.6369
   493.6236    18.5425   160.4213    72.6236     8.4280     6.2242     4.5541
   493.7760    18.4612   159.8036    73.5338     8.3811     6.2104     4.3375
   493.9284    18.5648   159.1006    73.6740     8.3510     6.1835     4.1350
   494.0808    18.6384   158.4840    73.3310     8.3051     6.1653     3.8421
   494.2332    18.6653   157.7466    73.4218     8.3101     6.1337     3.4764
   494.3856    18.6648   157.0970    73.1736     8.3124     6.1456     3.0787
   494.5380    18.6476   157.4877    73.5630     8.3268     6.2373     2.7642
   494.6904    18.6109   158.4116    74.3602     8.3516     6.3390     2.4351
   494.8428    18.5772   159.2205    74.5001     8.3846     6.4342     2.1797
   494.9952    18.6023   159.6492    73.2177     8.4412     6.5325     1.9073
   495.1476    18.7403   159.5408    71.6894     8.4757     6.5923     1.6384
   495.3000    18.9081   159.4020    70.9971     8.5118     6.6053     1.5009
   495.4524    19.0880   159.1791    70.0260     8.5410     6.5091     1.4449
   495.6048    19.3033   159.0689    68.8398     8.5560     6.3159     1.5017
   495.7572    19.4757   158.7799    67.4663     8.5413     6.1304     1.8390
   495.9096    19.5641   158.4648    66.0253     8.5296     5.9634     2.2175
   496.0620    19.5494   158.3101    64.7113     8.4899     5.8497     2.7120
   496.2144    19.6032   158.0211    63.6653     8.4664     5.8586     3.3424
   496.3668    19.6119   157.7646    62.7387     8.4640     5.9501     3.9511
   496.5192    19.7306   157.6232    62.7502     8.4616     6.0545     4.4393
   496.6716    19.8940   157.7390    62.9606     8.5003     6.1479     4.7043
   496.8240    19.9888   157.8604    63.1679     8.5503     6.2608     4.7866
   496.9764    19.9533   157.3786    63.8328     8.5840     6.3416     4.8130
   497.1288    19.7615   157.3483    64.7479     8.5782     6.3940     4.7406
   497.2812    19.5126   157.9288    65.6366     8.5511     6.4107     4.6226
   497.4336    19.2342   158.0251    65.1697     8.5021     6.3676     4.4648
   497.5860    18.9776   158.0908    64.8258     8.4648     6.3090     4.1825
   497.7384    18.9175   158.1473    64.8311     8.4513     6.2455     3.7958
   497.8908    19.1523   158.5980    65.3263     8.4403     6.1677     3.3579
   498.0432    19.4057   158.9929    66.4050     8.4379     6.0918     3.1620
   498.1956    19.6965   158.9938    67.1625     8.4241     6.0124     3.0822
   498.3480    20.0000   158.7612    66.3103     8.3758     5.9612     2.9300
   498.5004    20.3048   158.7952    65.2598     8.3399     5.9421     2.7405
   498.6528    20.6252   158.6032    64.3898     8.2848     5.9003     2.4045
   498.8052    20.9678   158.0828    64.2362     8.2716     5.8987     2.0698
   498.9576    21.2794   157.5071    63.3077     8.2442     5.9098     1.8353
   499.1100    21.5885   158.4149    61.9359     8.2514     5.9081     1.6588
   499.2624    21.7280   159.4691    60.4031     8.2902     5.8910     1.5230
   499.4148    21.8511   160.3332    58.8836     8.3234     5.8555     1.4772
   499.5672    22.0244   161.0871    59.0271     8.3016     5.8075     1.4711
   499.7196    22.2424   161.7731    59.9466     8.2515     5.7215     1.5124
   499.8720    22.3603   161.6654    61.2482     8.1404     5.6243     1.5122
   500.0244    22.3811   160.9765    62.6072     7.9887     5.5426     1.5790
   500.1768    22.4135   160.4144    63.9011     7.9026     5.4934     1.5756
   500.3292    22.4414   160.0339    65.0182     7.8567     5.4631     1.6024
   500.4816    22.4628   159.1366    65.7662     7.9339     5.4532     1.7324
   500.6340    22.4833   158.3947    64.7008     8.0228     5.3966     1.9724
   500.7864    22.4986   159.1630    64.0489     8.0124     5.3209     2.2516
   500.9388    22.5022   159.9004    63.6163     7.9422     5.2433     2.4384
   501.0912    22.4969   159.2903    62.6510     7.8655     5.1566     2.5704
   501.2436    22.4830   157.3702    62.2929     7.8535     5.0744     2.7597
   501.3960    22.4615   155.5108    63.0314     7.8758     5.0258     2.9965
   501.5484    22.4288   154.2711    63.8545     7.9171     5.0431     3.2109
   501.7008    22.3903   153.2540    64.5381     7.9613     5.0835     3.3183
   501.8532    22.3393   152.4733    65.4295     7.9764     5.1371     3.3467
   502.0056    22.2390   151.8357    66.8300     7.9569     5.1690     3.2768
   502.1580    22.0478   151.2662    68.4019     7.9660     5.2064     3.1255
   502.3104    21.8243   150.9809    70.0542     7.9535     5.2357     2.9836
   502.4628    21.5428   150.7308    72.0992     7.9712     5.2670     2.7521
   502.6152    21.4182   150.6105    73.1113     7.9898     5.2948     2.5314
   502.7676    21.2926   150.5429    71.9665     8.0035     5.3092     2.2107
   502.9200    21.1632   150.6387    71.9730     7.9904     5.3043     1.2291
   503.0724    21.0528   150.4808    72.5613     7.9402     5.2881     0.9391
   503.2248    20.9629   150.2547    71.4307     7.8817     5.2874     0.9608
   503.3772    21.0027   150.2491    69.7231     7.8605     5.3181     1.1622
   503.5296    21.2257   150.5731    68.9547     7.8490     5.3956     1.3401
   503.6820    21.4176   151.0363    70.4000     7.8681     5.4847     1.3133
   503.8344    21.4315   151.4983    71.6532     7.9305     5.5976     1.2092
   503.9868    21.0511   152.0519    71.7868     7.9887     5.7126     1.1138
   504.1392    20.7511   152.4733    70.7329     8.0352     5.7863     1.1081
   504.2916    20.4666   152.3090    71.9218     8.0911     5.7420     1.2599
   504.4440    20.0610   152.2149    73.1189     8.1522     5.6048     1.6349
   504.5964    19.9376   152.7439    72.3541     8.2530     5.5146     1.9975
   504.7488    20.0842   153.3393    70.9759     8.4001     5.4760     2.4636
   504.9012    20.3169   154.1765    68.9703     8.5178     5.5102     2.9561
   505.0536    20.5841   154.2270    66.8989     8.3664     5.5297     3.5663
   505.2060    20.8351   153.4682    65.2026     8.1904     5.4712     4.1219
   505.3584    21.0014   152.1609    64.1371     8.1271     5.5094     4.5108
   505.5108    21.0240   151.2183    65.8616     8.2213     5.6618     4.7899
   505.6632    20.9281   151.3316    66.6493     8.3228     5.8532     4.9369
