~Version Information
VERS       .                                      2.0 : CWLS Log ASCII Standard -VERSION 2.0
WRAP       .                                       NO : One line per depth step
~Well Information
STRT       .M                                 66.2940 : START DEPTH
STOP       .M                               1955.9016 : STOP DEPTH
STEP       .M                                  0.1524 : STEP
NULL       .                                -999.2500 : NULL VALUE
COMP       .     W.G.S.                               : COMPANY
WELL       .     RESOLUTION 1                         : WELL
FLD        .     UNKNOWN                              : FIELD
LOC        .     UNKNOWN                              : LOCATION
CNTY       .     UNKNOWN                              : COUNTY
STAT       .     UNKNOWN                              : STATE
CTRY       .     UNKNOWN                              : COUNTRY
SRVC       .     UNKNOWN                              : SERVICE COMPANY
DATE       .     18/8/93                              : LOG DATE
UWI        .     UNKNOWN                              : UNIQUE WELL ID
API        .     UNKNOWN                              : API NUMBER
~Curve Information
#MNEMONIC   UNIT API CODE                             : CURVE DESCRIPTION
DEPT       .M    UNKNOWN                              : 1  DEPTH
CALI       .IN   UNKNOWN                              : 2  Caliper
DT         .US/F UNKNOWN                              : 3  Sonic
GR         .GAPI UNKNOWN                              : 4  Gamma Ray
LLD        .OHMM UNKNOWN                              : 5  Latero-Log Deep
LLS        .OHMM UNKNOWN                              : 6  Latero-Log Shallow
SP         .MV   UNKNOWN                              : 7  Spontaneous Potential
~Parameter Information
~Other Information
#***********************************************************
# This LAS file was created by Wiltshire Geological Services.
# The edit data contained herein are copyright property of
# Wiltshire Geological Services. The data are licensed to the
# purchasing company and subsidiaries worldwide, and are NOT
# for on-copying to third parties.  We place no restriction on
# the distribution of plots generated from the digital data.
#
# We supply the data on a 'best effort' basis.  We cannot
# control either the original data acquisition or the
# application of the data and therefore we cannot be held
# responsible for the consequences of any interpretations based
# on the data.  We urge purchasers to apply normal quality
# control procedures to the data before use for any quantitative
# interpretative procedures.
#***********************************************************
LOCN LAT:   44O 11' 16.9" S     WELL NAME: RESOLUTION 1
 LONG: 172O 38' 10.1" E
ELEVN SF: 64.3m   DATUM RT: 9.7m  STATUS: P & A
BASIN:  Canterbury  TOTAL D: 1963m  OPERATOR: BP Shell Todd
SPUD DATE: 1975   COMPLN DATE: 1975  PARTNERS:
TARGET:        LEASE:
         DRILLER:
DATA SOURCE: Log headers      RIG:

ENGINEERING DATA: HOLE AND CASING DATA:
26" hole to   ? m, 20" casing to 377m
17 1/2" hole to 1208.7m, 13 3/8" casing to 1213.3m
12 1/4" hole to 1963m TD

MUD PROPERTIES:
 at 1209m Type: FW Lignos SG: 1.20 Vis:  pH:    FL 11.0 ml
  Rm: 0.657 at 55 deg F Rmf: 0.459 at 55 deg F Rmc: 0.875 at 55 deg F
 at 1955m Type: FW Lignos SG:  Vis:  pH:    FL 5.0 ml
  Rm: 0.502 at 60 deg F Rmf: 0.393 at 56 deg F Rmc: 0.814 at 56 deg F

TEMPERATURES:
Logger's Depth         Temp                                  Log Type
         1209m              107 deg F                             DLL
         1955m              142 deg F                             DLL


~A
# ...
  1526.1336    14.2309   119.5679    27.1949     2.7808     2.1795    88.1426
  1526.2860    14.2165   121.8298    27.7488     2.8029     2.1879    88.0658
  1526.4384    14.1293   123.9886    28.9034     2.8583     2.1982    88.1660
  1526.5908    14.0064   125.1503    28.4461     2.8715     2.2185    88.2632
  1526.7432    13.9195   124.1128    27.2387     2.8322     2.2340    88.4387
  1526.8956    13.8636   121.7298    27.7681     2.7675     2.2002    88.6668
  1527.0480    13.7878   119.9923    27.8901     2.7017     2.1490    88.9016
  1527.2004    13.6953   120.5087    26.9367     2.7112     2.1216    89.1690
  1527.3528    13.5891   121.7184    26.8282     2.7683     2.1402    89.4927
  1527.5052    13.4752   122.1596    27.7762     2.8169     2.1693    89.8086
  1527.6576    13.3435   122.1210    28.5218     2.8639     2.2051    90.0747
  1527.8100    13.2411   121.4524    28.0606     2.8897     2.2383    90.2171
  1527.9624    13.1879   120.7305    27.6185     2.8964     2.2412    90.2669
  1528.1148    13.1049   120.1177    27.4506     2.8326     2.2171    90.2418
  1528.2672    13.0268   119.3021    27.0757     2.7653     2.1873    90.1204
  1528.4196    12.9983   118.7350    26.4441     2.7983     2.1776    90.0820
  1528.5720    12.9935   117.9318    26.2282     2.9289     2.2358    90.0565
  1528.7244    12.9823   116.9324    27.2004     3.1003     2.3342    89.9534
  1528.8768    12.9806   115.4250    27.4760     3.2885     2.4825    89.8156
  1529.0292    12.9754   109.4697    27.5293     3.5302     2.6133    89.6389
  1529.1816    12.9400   104.2787    28.0201     3.5253     2.7192    89.4235
  1529.3340    12.8993    97.2748    28.6044     3.1168     2.5304    89.2575
  1529.4864    12.8684    91.2907    28.7741     2.8392     2.3219    89.0519
  1529.6388    12.8718    90.9732    29.0549     2.8168     2.2078    88.9880
  1529.7912    12.9064   105.0516    29.6979     2.8355     2.2033    88.9881
  1529.9436    12.9577   111.2651    30.3659     2.8306     2.2180    89.0799
  1530.0960    13.0065   116.2053    30.1955     2.7892     2.2035    89.1910
  1530.2484    13.0507   117.0857    29.7419     2.7552     2.1844    89.2607
  1530.4008    13.0709   117.1528    29.7498     2.7501     2.1823    89.3933
  1530.5532    13.0621   117.7235    30.5524     2.7936     2.2121    89.4801
  1530.7056    13.0529   118.7525    31.5704     2.8642     2.2485    89.5367
  1530.8580    13.0302   119.1554    31.4735     2.9576     2.3023    89.5120
  1531.0104    13.0062   118.9320    30.6947     3.0795     2.3807    89.4365
  1531.1628    13.0190   118.8648    30.1052     3.2185     2.4692    89.3899
  1531.3152    12.9924   118.6442    29.8398     3.3997     2.5670    89.3829
  1531.4676    12.9898   116.9156    29.8335     3.5985     2.6691    89.3845
  1531.6200    12.9722   110.8490    30.1468     3.7248     2.7299    89.4222
  1531.7724    12.8975   101.9138    30.6985     3.5182     2.6180    89.4974
  1531.9248    12.8445   102.4912    30.8742     3.2864     2.4879    89.6409
  1532.0772    12.8568   102.8805    30.4897     3.1065     2.4291    89.7131
  1532.2296    12.9096   109.9603    30.6661     3.0229     2.3699    89.7363
  1532.3820    12.9472   111.5610    31.5157     3.0097     2.3605    89.5929
  1532.5344    12.9521   111.0879    32.3155     2.9696     2.3132    89.3544
  1532.6868    12.9582   114.0818    32.5044     2.8863     2.2424    89.1528
  1532.8392    12.9515   120.6110    31.6572     2.7636     2.1588    89.1969
  1532.9916    12.9391   122.1766    31.0035     2.6527     2.0751    89.3684
  1533.1440    12.9449   121.0608    30.4833     2.5720     2.0094    89.3775
  1533.2964    12.9471   120.3082    28.7440     2.5721     2.0859    89.1759
  1533.4488    12.9684   120.7482    27.4794     2.6937     2.1772    88.9862
  1533.6012    13.0063   121.7613    27.3536     2.8216     2.2176    88.8345
  1533.7536    13.0677   122.4455    27.0107     2.8850     2.2276    88.7991
  1533.9060    13.1369   123.6431    26.7037     2.8665     2.1999    88.8235
  1534.0584    13.2257   122.6368    26.0424     2.7885     2.1384    88.8929
  1534.2108    13.2725   120.4114    26.4995     2.7013     2.0579    89.0052
  1534.3632    13.2783   118.3461    27.3013     2.6411     1.9922    89.1575
  1534.5156    13.2441   117.2971    27.5176     2.6410     1.9845    89.2921
  1534.6680    13.1983   116.0395    26.9305     2.6684     2.0044    89.3688
  1534.8204    13.1710   116.2719    25.9801     2.7002     2.0308    89.4264
  1534.9728    13.1737   117.2392    25.6008     2.7336     2.0581    89.3579
  1535.1252    13.2198   117.7079    25.8373     2.7510     2.0782    89.2866
  1535.2776    13.2851   118.1734    26.4837     2.7652     2.0860    89.1873
  1535.4300    13.3793   118.0497    27.3932     2.7631     2.0775    89.1014
  1535.5824    13.4463   118.1393    28.0474     2.7593     2.0716    89.0569
  1535.7348    13.3973   118.9424    28.3886     2.7574     2.0657    89.0517
  1535.8872    13.3652   119.5980    28.4750     2.7456     2.0697    89.0248
  1536.0396    13.3548   120.0995    28.0684     2.7240     2.0673    89.0842
  1536.1920    13.4041   120.7197    27.5743     2.6991     2.0651    89.1900
  1536.3444    13.5361   121.8430    26.8053     2.6739     2.0430    89.3444
  1536.4968    13.6880   122.2475    26.1649     2.6480     2.0311    89.5158
  1536.6492    13.7673   121.9666    25.9875     2.6406     2.0235    89.6940
  1536.8016    13.7697   121.8177    26.8618     2.6579     2.0224    89.8169
  1536.9540    13.6598   122.2098    27.6239     2.6883     2.0383    89.8474
  1537.1064    13.5366   121.9444    26.8053     2.7322     2.0805    89.8403
  1537.2588    13.4114   118.8905    26.1325     2.7433     2.0846    89.7619
  1537.4112    13.2880   116.4615    26.8614     2.7119     2.0673    89.6775
  1537.5636    13.1844   116.0064    26.6926     2.6779     2.0406    89.6621
  1537.7160    13.1659   116.8263    26.6603     2.6438     2.0142    89.7380
  1537.8684    13.2211   118.5616    27.0288     2.6222     1.9966    89.8606
  1538.0208    13.2605   120.5327    27.6494     2.6103     1.9956    90.1037
  1538.1732    13.2713   121.0048    27.9921     2.6181     2.0163    90.2632
  1538.3256    13.2562   119.9039    26.6230     2.6677     2.0576    90.1507
  1538.4780    13.1773   118.1804    25.1379     2.7020     2.0876    89.9852
  1538.6304    13.1117   117.4416    24.9671     2.6938     2.0828    89.7642
  1538.7828    13.0680   116.7733    24.9683     2.6538     2.0571    89.5759
  1538.9352    13.0436   114.3926    25.3026     2.6179     2.0243    89.4193
  1539.0876    13.0312   113.5092    24.5384     2.5954     1.9938    89.2827
  1539.2400    13.0320   113.3651    24.3505     2.5900     1.9931    89.2745
  1539.3924    13.0682   113.4728    24.9476     2.6167     2.0253    89.4215
  1539.5448    13.1327   115.0529    25.3010     2.6396     2.0630    89.6493
  1539.6972    13.1856   115.5424    26.1046     2.5715     2.0316    89.7943
  1539.8496    13.1840   112.1408    26.3278     2.5087     1.9814    89.9189
  1540.0020    13.1510   108.9663    25.8401     2.4873     1.9614    89.8915
  1540.1544    13.1421   108.5678    25.2909     2.5081     1.9660    89.8577
  1540.3068    13.1580   112.8675    25.7061     2.5611     1.9801    89.9168
  1540.4592    13.1943   116.0861    26.7399     2.6481     2.0230    89.9996
  1540.6116    13.2607   118.9465    27.1681     2.7552     2.1072    90.0695
  1540.7640    13.3552   122.3585    26.1621     2.8834     2.1964    90.1029
  1540.9164    13.4282   122.7029    25.1824     3.0451     2.2878    90.0567
  1541.0688    13.4210   120.5568    24.4019     3.1651     2.3626    89.9098
  1541.2212    13.3567   115.3933    24.9090     3.1727     2.3722    89.6396
  1541.3736    13.2897   110.6277    25.3940     3.0211     2.2709    89.3758
  1541.5260    13.3658   108.4492    25.4834     2.7929     2.1355    89.1093
  1541.6784    13.5499   110.0512    25.3646     2.6703     2.0290    88.9980
