~Version Information
VERS       .                                      2.0 : CWLS Log ASCII Standard -VERSION 2.0
WRAP       .                                       NO : One line per depth step
~Well Information
STRT       .M                                 66.2940 : START DEPTH
STOP       .M                               1955.9016 : STOP DEPTH
STEP       .M                                  0.1524 : STEP
NULL       .                                -999.2500 : NULL VALUE
COMP       .     W.G.S.                               : COMPANY
WELL       .     RESOLUTION 1                         : WELL
FLD        .     UNKNOWN                              : FIELD
LOC        .     UNKNOWN                              : LOCATION
CNTY       .     UNKNOWN                              : COUNTY
STAT       .     UNKNOWN                              : STATE
CTRY       .     UNKNOWN                              : COUNTRY
SRVC       .     UNKNOWN                              : SERVICE COMPANY
DATE       .     18/8/93                              : LOG DATE
UWI        .     UNKNOWN                              : UNIQUE WELL ID
API        .     UNKNOWN                              : API NUMBER
~Curve Information
#MNEMONIC   UNIT API CODE                             : CURVE DESCRIPTION
DEPT       .M    UNKNOWN                              : 1  DEPTH
CALI       .IN   UNKNOWN                              : 2  Caliper
DT         .US/F UNKNOWN                              : 3  Sonic
GR         .GAPI UNKNOWN                              : 4  Gamma Ray
LLD        .OHMM UNKNOWN                              : 5  Latero-Log Deep
LLS        .OHMM UNKNOWN                              : 6  Latero-Log Shallow
SP         .MV   UNKNOWN                              : 7  Spontaneous Potential
~Parameter Information
~Other Information
#***********************************************************
# This LAS file was created by Wiltshire Geological Services.
# The edit data contained herein are copyright property of
# Wiltshire Geological Services. The data are licensed to the
# purchasing company and subsidiaries worldwide, and are NOT
# for on-copying to third parties.  We place no restriction on
# the distribution of plots generated from the digital data.
#
# We supply the data on a 'best effort' basis.  We cannot
# control either the original data acquisition or the
# application of the data and therefore we cannot be held
# responsible for the consequences of any interpretations based
# on the data.  We urge purchasers to apply normal quality
# control procedures to the data before use for any quantitative
# interpretative procedures.
#***********************************************************
LOCN LAT:   44O 11' 16.9" S     WELL NAME: RESOLUTION 1
 LONG: 172O 38' 10.1" E
ELEVN SF: 64.3m   DATUM RT: 9.7m  STATUS: P & A
BASIN:  Canterbury  TOTAL D: 1963m  OPERATOR: BP Shell Todd
SPUD DATE: 1975   COMPLN DATE: 1975  PARTNERS:
TARGET:        LEASE:
         DRILLER:
DATA SOURCE: Log headers      RIG:

ENGINEERING DATA: HOLE AND CASING DATA:
26" hole to   ? m, 20" casing to 377m
17 1/2" hole to 1208.7m, 13 3/8" casing to 1213.3m
12 1/4" hole to 1963m TD

MUD PROPERTIES:
 at 1209m Type: FW Lignos SG: 1.20 Vis:  pH:    FL 11.0 ml
  Rm: 0.657 at 55 deg F Rmf: 0.459 at 55 deg F Rmc: 0.875 at 55 deg F
 at 1955m Type: FW Lignos SG:  Vis:  pH:    FL 5.0 ml
  Rm: 0.502 at 60 deg F Rmf: 0.393 at 56 deg F Rmc: 0.814 at 56 deg F

TEMPERATURES:
Logger's Depth         Temp                                  Log Type
         1209m              107 deg F                             DLL
         1955m              142 deg F                             DLL


~A
# ...
  1008.1260    17.3040   129.0655    67.4664     1.4758     1.3215    35.1455
  1008.2784    17.3231   130.8121    68.2988     1.4842     1.3359    35.0102
  1008.4308    17.3752   132.0260    68.9363     1.4910     1.3464    34.8251
  1008.5832    17.4450   130.1353    68.7378     1.4932     1.3508    34.7378
  1008.7356    17.4994   127.8383    67.8227     1.4895     1.3475    34.7083
  1008.8880    17.5280   126.7405    66.5662     1.4804     1.3451    34.6377
  1009.0404    17.5333   127.2325    65.1362     1.4750     1.3436    34.6232
  1009.1928    17.5394   128.0339    63.7968     1.4673     1.3360    34.6917
  1009.3452    17.5397   128.6373    63.0229     1.4619     1.3236    34.8474
  1009.4976    17.5503   128.9613    63.0609     1.4503     1.3165    35.0565
  1009.6500    17.5610   128.8750    63.0490     1.4433     1.3132    35.2207
  1009.8024    17.5790   128.5313    62.3497     1.4397     1.3109    35.2933
  1009.9548    17.6015   128.1124    61.8623     1.4372     1.3124    35.2017
  1010.1072    17.6234   127.9712    61.7460     1.4367     1.3120    35.0268
  1010.2596    17.6521   128.0485    60.8502     1.4403     1.3144    34.8125
  1010.4120    17.6735   128.3311    59.8263     1.4425     1.3100    34.5935
  1010.5644    17.7010   128.5393    60.5773     1.4347     1.3022    34.3883
  1010.7168    17.7274   127.9629    62.1789     1.4191     1.2919    34.3065
  1010.8692    17.7632   127.0057    63.2423     1.4087     1.2869    34.3578
  1011.0216    17.8052   126.8726    62.9914     1.4029     1.2846    34.4682
  1011.1740    17.8386   128.2377    63.5988     1.4026     1.2777    34.5758
  1011.3264    17.8520   129.3317    64.6144     1.4042     1.2760    34.6249
  1011.4788    17.8565   129.3660    65.2859     1.4040     1.2756    34.5993
  1011.6312    17.8379   129.3988    64.0177     1.4097     1.2752    34.5017
  1011.7836    17.8023   129.6976    62.5930     1.4186     1.2829    34.3512
  1011.9360    17.7652   129.5340    62.3073     1.4268     1.2916    34.1949
  1012.0884    17.7166   129.4821    61.3451     1.4410     1.2994    34.2508
  1012.2408    17.6678   129.5620    60.5738     1.4493     1.3076    34.4657
  1012.3932    17.6199   129.5709    62.2182     1.4459     1.3145    34.6248
  1012.5456    17.5900   128.7095    62.6520     1.4312     1.3097    34.5495
  1012.6980    17.5734   128.1200    61.2607     1.4244     1.3024    34.4694
  1012.8504    17.5505   128.6450    60.2623     1.4284     1.2946    34.6936
  1013.0028    17.5447   129.4479    59.7063     1.4327     1.2903    34.9869
  1013.1552    17.5481   129.9137    59.4312     1.4367     1.2962    35.2537
  1013.3076    17.5549   129.9267    59.3470     1.4404     1.3050    35.4557
  1013.4600    17.5656   129.1048    59.0761     1.4438     1.3174    35.5351
  1013.6124    17.5763   127.4521    57.8223     1.4531     1.3310    35.4681
  1013.7648    17.5868   126.9567    58.0860     1.4764     1.3468    35.3400
  1013.9172    17.5985   127.5593    59.2624     1.4910     1.3543    35.2173
  1014.0696    17.6200   128.7734    60.5748     1.4591     1.3260    35.0262
  1014.2220    17.6375   127.8713    61.2318     1.4375     1.3062    34.9219
  1014.3744    17.6559   125.8526    61.0227     1.4324     1.2986    34.8039
  1014.5268    17.6693   123.7125    59.5776     1.4289     1.3025    34.7345
  1014.6792    17.6571   122.1149    59.7074     1.4312     1.3044    34.9182
  1014.8316    17.6235   121.3888    61.1993     1.4320     1.3110    35.4506
  1014.9840    17.6014   122.0253    63.0156     1.4359     1.3198    36.0256
  1015.1364    17.5969   123.1999    64.4466     1.4390     1.3298    36.5604
  1015.2888    17.5974   124.3761    65.4222     1.4435     1.3322    36.9854
  1015.4412    17.5820   125.8743    66.3238     1.4521     1.3288    37.0225
  1015.5936    17.5721   127.5618    67.4603     1.4593     1.3204    36.7902
  1015.7460    17.5703   128.5952    66.8208     1.4629     1.3064    36.4245
  1015.8984    17.5660   128.5254    64.9868     1.4584     1.2963    35.9581
  1016.0508    17.5627   128.9904    62.7569     1.4522     1.2832    35.5730
  1016.2032    17.5691   129.8884    63.3662     1.4425     1.2729    35.2399
  1016.3556    17.5776   130.8716    63.0102     1.4371     1.2680    35.1714
  1016.5080    17.5768   131.2923    62.2709     1.4311     1.2657    35.2549
  1016.6604    17.5639   131.2113    62.3447     1.4277     1.2666    35.4147
  1016.8128    17.5400   131.1745    62.5457     1.4287     1.2699    35.6283
  1016.9652    17.5374   131.1639    62.5855     1.4300     1.2759    35.7661
  1017.1176    17.5447   132.2697    63.4963     1.4309     1.2753    35.9332
  1017.2700    17.5485   132.6533    65.5692     1.4298     1.2706    36.0100
  1017.4224    17.5515   131.9861    67.2822     1.4263     1.2617    35.9675
  1017.5748    17.5477   132.4527    69.7453     1.4234     1.2597    35.7603
  1017.7272    17.5426   132.8259    71.9120     1.4225     1.2593    35.6612
  1017.8796    17.5290   132.8224    70.2700     1.4242     1.2589    35.9057
  1018.0320    17.5242   132.1573    69.1027     1.4238     1.2618    36.4228
  1018.1844    17.5098   132.4031    69.0823     1.4299     1.2645    37.0591
  1018.3368    17.4925   133.0140    69.8529     1.4426     1.2740    37.7630
  1018.4892    17.4907   133.5252    68.9600     1.4432     1.2856    38.4135
  1018.6416    17.4513   132.3013    69.1345     1.4309     1.2920    38.9996
  1018.7940    17.3960   131.4896    68.9198     1.4123     1.2869    39.5560
  1018.9464    17.3622   131.5345    68.5973     1.3977     1.2757    39.8443
  1019.0988    17.3858   133.0569    69.1162     1.3940     1.2664    39.5157
  1019.2512    17.4043   135.1889    70.1415     1.3947     1.2606    39.0351
  1019.4036    17.4334   136.5843    69.3797     1.3981     1.2577    38.4421
  1019.5560    17.4621   135.6012    68.1941     1.3997     1.2593    37.8280
  1019.7084    17.4890   134.5752    69.3668     1.4021     1.2630    37.2980
  1019.8608    17.5296   134.2510    70.4988     1.4066     1.2674    36.8289
  1020.0132    17.5721   134.0168    71.3251     1.4134     1.2756    36.4215
  1020.1656    17.6090   131.9619    70.4500     1.4307     1.2850    36.0977
  1020.3180    17.6561   130.1355    70.7367     1.4514     1.2970    35.9138
  1020.4704    17.7117   128.9025    70.5610     1.4578     1.3094    35.9456
  1020.6228    17.7584   127.9645    69.9474     1.4427     1.3090    36.2257
  1020.7752    17.7821   127.9962    68.8899     1.4333     1.2983    36.5467
  1020.9276    17.7685   129.8566    68.3870     1.4286     1.2924    36.8414
  1021.0800    17.7265   131.6002    67.9102     1.4345     1.2901    37.1764
  1021.2324    17.6910   132.4373    67.9200     1.4435     1.2928    37.5618
  1021.3848    17.6739   131.9915    68.4954     1.4505     1.2992    38.0386
  1021.5372    17.6608   131.1980    69.5718     1.4562     1.3061    38.5194
  1021.6896    17.6590   130.3100    70.0494     1.4628     1.3168    39.0662
  1021.8420    17.6574   129.2537    69.7818     1.4688     1.3273    39.5813
  1021.9944    17.6543   127.9796    69.2278     1.4720     1.3278    40.0698
  1022.1468    17.6397   127.3705    68.1601     1.4682     1.3202    40.5550
  1022.2992    17.6111   127.5820    67.5830     1.4564     1.3137    41.0759
  1022.4516    17.5819   128.7505    68.5263     1.4480     1.3167    41.4315
  1022.6040    17.5551   129.8726    67.7069     1.4445     1.3214    40.9627
  1022.7564    17.5563   130.5423    66.9674     1.4467     1.3328    40.1142
  1022.9088    17.5771   129.3496    66.4018     1.4517     1.3418    39.0794
  1023.0612    17.5949   127.7551    66.3744     1.4601     1.3441    38.0514
  1023.2136    17.5931   127.1478    66.3485     1.4647     1.3443    37.2159
  1023.3660    17.5720   127.6785    65.5861     1.4627     1.3439    36.4613
  1023.5184    17.5367   128.5296    64.5965     1.4479     1.3336    35.9817
  1023.6708    17.4991   128.8895    64.1423     1.4293     1.3224    35.8393
