~Version Information
VERS       .                                      2.0 : CWLS Log ASCII Standard -VERSION 2.0
WRAP       .                                       NO : One line per depth step
~Well Information
STRT       .M                                 66.2940 : START DEPTH
STOP       .M                               1955.9016 : STOP DEPTH
STEP       .M                                  0.1524 : STEP
NULL       .                                -999.2500 : NULL VALUE
COMP       .     W.G.S.                               : COMPANY
WELL       .     RESOLUTION 1                         : WELL
FLD        .     UNKNOWN                              : FIELD
LOC        .     UNKNOWN                              : LOCATION
CNTY       .     UNKNOWN                              : COUNTY
STAT       .     UNKNOWN                              : STATE
CTRY       .     UNKNOWN                              : COUNTRY
SRVC       .     UNKNOWN                              : SERVICE COMPANY
DATE       .     18/8/93                              : LOG DATE
UWI        .     UNKNOWN                              : UNIQUE WELL ID
API        .     UNKNOWN                              : API NUMBER
~Curve Information
#MNEMONIC   UNIT API CODE                             : CURVE DESCRIPTION
DEPT       .M    UNKNOWN                              : 1  DEPTH
CALI       .IN   UNKNOWN                              : 2  Caliper
DT         .US/F UNKNOWN                              : 3  Sonic
GR         .GAPI UNKNOWN                              : 4  Gamma Ray
LLD        .OHMM UNKNOWN                              : 5  Latero-Log Deep
LLS        .OHMM UNKNOWN                              : 6  Latero-Log Shallow
SP         .MV   UNKNOWN                              : 7  Spontaneous Potential
~Parameter Information
~Other Information
#***********************************************************
# This LAS file was created by Wiltshire Geological Services.
# The edit data contained herein are copyright property of
# Wiltshire Geological Services. The data are licensed to the
# purchasing company and subsidiaries worldwide, and are NOT
# for on-copying to third parties.  We place no restriction on
# the distribution of plots generated from the digital data.
#
# We supply the data on a 'best effort' basis.  We cannot
# control either the original data acquisition or the
# application of the data and therefore we cannot be held
# responsible for the consequences of any interpretations based
# on the data.  We urge purchasers to apply normal quality
# control procedures to the data before use for any quantitative
# interpretative procedures.
#***********************************************************
LOCN LAT:   44O 11' 16.9" S     WELL NAME: RESOLUTION 1
 LONG: 172O 38' 10.1" E
ELEVN SF: 64.3m   DATUM RT: 9.7m  STATUS: P & A
BASIN:  Canterbury  TOTAL D: 1963m  OPERATOR: BP Shell Todd
SPUD DATE: 1975   COMPLN DATE: 1975  PARTNERS:
TARGET:        LEASE:
         DRILLER:
DATA SOURCE: Log headers      RIG:

ENGINEERING DATA: HOLE AND CASING DATA:
26" hole to   ? m, 20" casing to 377m
17 1/2" hole to 1208.7m, 13 3/8" casing to 1213.3m
12 1/4" hole to 1963m TD

MUD PROPERTIES:
 at 1209m Type: FW Lignos SG: 1.20 Vis:  pH:    FL 11.0 ml
  Rm: 0.657 at 55 deg F Rmf: 0.459 at 55 deg F Rmc: 0.875 at 55 deg F
 at 1955m Type: FW Lignos SG:  Vis:  pH:    FL 5.0 ml
  Rm: 0.502 at 60 deg F Rmf: 0.393 at 56 deg F Rmc: 0.814 at 56 deg F

TEMPERATURES:
Logger's Depth         Temp                                  Log Type
         1209m              107 deg F                             DLL
         1955m              142 deg F                             DLL


~A
# ...
  1416.2532    13.5251   135.8422    45.4087     1.0145     1.0283    57.4556
  1416.4056    13.5812   135.0419    44.8911     1.0267     1.0383    57.4583
  1416.5580    13.6162   134.3403    44.3701     1.0299     1.0533    57.5482
  1416.7104    13.5590   133.8268    43.6544     1.0311     1.0616    57.6264
  1416.8628    13.4868   134.0087    43.6335     1.0311     1.0580    57.7666
  1417.0152    13.4254   134.2355    44.9494     1.0333     1.0579    57.9377
  1417.1676    13.4050   134.6207    44.9375     1.0386     1.0603    58.1241
  1417.3200    13.4025   134.3686    45.0310     1.0425     1.0602    58.2807
  1417.4724    13.3575   133.7963    46.0173     1.0465     1.0602    58.3347
  1417.6248    13.3073   133.3224    46.6942     1.0537     1.0634    58.2305
  1417.7772    13.3928   132.8335    45.9469     1.0630     1.0697    58.1032
  1417.9296    13.4294   133.5085    44.6032     1.0787     1.0828    57.8985
  1418.0820    13.3597   133.7070    43.2794     1.1025     1.1053    57.6688
  1418.2344    13.2919   133.2028    42.5451     1.1336     1.1288    57.5465
  1418.3868    13.2182   132.6293    43.5087     1.1523     1.1511    57.5475
  1418.5392    13.1367   131.9820    44.1335     1.1526     1.1598    57.5751
  1418.6916    13.2025   132.2750    44.3798     1.1431     1.1558    57.5702
  1418.8440    13.1988   132.4055    44.5866     1.1268     1.1425    57.4928
  1418.9964    13.2152   132.3606    45.1460     1.1079     1.1245    57.4279
  1419.1488    13.2488   132.9958    46.0204     1.0898     1.1039    57.3298
  1419.3012    13.2328   133.5774    46.8703     1.0644     1.0776    57.1863
  1419.4536    13.2075   134.0238    47.6919     1.0483     1.0563    57.1217
  1419.6060    13.2541   134.3501    48.1972     1.0390     1.0469    57.0371
  1419.7584    13.3365   134.4132    47.1985     1.0321     1.0462    56.9603
  1419.9108    13.4008   134.0449    46.0582     1.0262     1.0431    57.0336
  1420.0632    13.3938   134.0117    45.2670     1.0065     1.0373    57.1655
  1420.2156    13.3431   133.7263    45.4064     0.9886     1.0258    57.3057
  1420.3680    13.2721   133.0575    45.7912     0.9895     1.0164    57.5424
  1420.5204    13.1910   131.9586    45.8924     1.0075     1.0242    57.7902
  1420.6728    13.0989   131.6263    46.6895     1.0382     1.0460    58.1409
  1420.8252    13.0259   131.7638    46.9779     1.0689     1.0676    58.5927
  1420.9776    13.0682   132.1301    46.8426     1.0942     1.0896    59.0642
  1421.1300    13.1923   131.6982    47.2904     1.1214     1.1155    59.0421
  1421.2824    13.1528   130.7703    48.1133     1.1441     1.1456    58.7465
  1421.4348    13.0741   129.9964    48.8247     1.1593     1.1734    58.5065
  1421.5872    12.9966   129.5017    49.3380     1.1513     1.1909    58.3064
  1421.7396    12.9454   129.8220    49.9208     1.1366     1.1766    58.1118
  1421.8920    12.9225   130.1835    48.7751     1.1209     1.1555    57.8687
  1422.0444    12.9399   130.2186    47.6296     1.1080     1.1384    57.6255
  1422.1968    12.9545   129.9589    46.7759     1.0949     1.1275    57.4566
  1422.3492    12.9850   129.4864    46.2976     1.0890     1.1225    57.2252
  1422.5016    12.9889   128.7569    46.5588     1.1047     1.1390    57.1351
  1422.6540    12.8935   128.2167    46.6663     1.1232     1.1621    57.1970
  1422.8064    12.7747   128.0977    46.5616     1.1416     1.1858    57.2707
  1422.9588    12.7553   128.7084    46.1039     1.1663     1.2112    57.3461
  1423.1112    12.8478   128.9913    45.5371     1.1944     1.2322    57.3751
  1423.2636    12.8225   128.1809    45.2560     1.2170     1.2515    57.5228
  1423.4160    12.7764   127.8821    46.1320     1.2297     1.2683    57.7500
  1423.5684    12.7727   126.9460    46.9285     1.2423     1.2769    58.0234
  1423.7208    12.7919   126.6936    47.3749     1.2615     1.2920    58.3412
  1423.8732    12.8161   126.3936    47.0928     1.2900     1.3055    58.6567
  1424.0256    12.8373   126.6269    45.6282     1.3250     1.3186    58.9560
  1424.1780    12.8405   127.3455    44.2068     1.3403     1.3387    59.2682
  1424.3304    12.8157   128.3061    43.5688     1.3457     1.3524    59.5155
  1424.4828    12.7981   129.5150    44.5530     1.3426     1.3481    59.6508
  1424.6352    12.7719   130.4599    45.7296     1.3304     1.3323    59.6536
  1424.7876    12.7522   130.8201    46.7093     1.3104     1.3163    59.5774
  1424.9400    12.7445   129.9618    46.8641     1.2850     1.2964    59.4905
  1425.0924    12.7404   128.9865    46.1366     1.2562     1.2779    59.3595
  1425.2448    12.7503   127.8367    45.3171     1.2332     1.2624    59.1807
  1425.3972    12.7586   128.1647    44.3456     1.2159     1.2499    58.9759
  1425.5496    12.7590   129.0399    43.7971     1.2039     1.2446    58.9483
  1425.7020    12.7579   129.6407    44.2530     1.1927     1.2412    59.0345
  1425.8544    12.7636   130.0063    45.0697     1.1857     1.2382    59.1449
  1426.0068    12.7705   129.6233    45.4846     1.1871     1.2343    59.2017
  1426.1592    12.7794   129.2868    44.4363     1.1920     1.2372    59.2970
  1426.3116    12.7854   128.8249    44.7679     1.1915     1.2399    59.4164
  1426.4640    12.7854   128.1930    45.8591     1.1906     1.2462    59.5056
  1426.6164    12.7640   128.0616    46.3274     1.1882     1.2450    59.5850
  1426.7688    12.7583   128.3517    45.6327     1.1868     1.2407    59.6674
  1426.9212    12.7634   128.2267    45.4577     1.1869     1.2408    59.7370
  1427.0736    12.7808   127.9984    45.7916     1.1870     1.2455    59.7765
  1427.2260    12.8018   128.1366    46.4464     1.1937     1.2553    59.7380
  1427.3784    12.8226   128.4708    47.0300     1.2050     1.2682    59.6680
  1427.5308    12.8312   128.0391    47.0741     1.2274     1.2840    59.5609
  1427.6832    12.8310   127.4531    46.5663     1.2585     1.3034    59.3615
  1427.8356    12.8202   126.7669    45.5764     1.2929     1.3331    59.1677
  1427.9880    12.8028   126.2289    44.1179     1.3317     1.3667    58.9092
  1428.1404    12.7778   126.1497    42.7345     1.3721     1.3960    58.8385
  1428.2928    12.7430   126.4296    41.5859     1.4146     1.4167    58.9198
  1428.4452    12.7203   126.4845    40.9808     1.4516     1.4392    58.9596
  1428.5976    12.7035   126.5037    41.3917     1.4760     1.4591    59.0357
  1428.7500    12.7169   126.7177    42.0840     1.4904     1.4776    59.1054
  1428.9024    12.7301   126.9127    42.4487     1.5037     1.4848    59.1946
  1429.0548    12.7392   126.9546    42.2652     1.4854     1.4745    59.3635
  1429.2072    12.7317   126.8973    42.3259     1.4586     1.4528    59.5489
  1429.3596    12.7229   126.7966    42.7926     1.4184     1.4255    59.7472
  1429.5120    12.7137   126.6871    43.1207     1.3868     1.4017    59.9593
  1429.6644    12.7119   126.5298    43.5231     1.3774     1.3973    60.1387
  1429.8168    12.7369   126.3755    44.4708     1.4054     1.4129    60.2923
  1429.9692    12.7758   126.1570    45.3779     1.4416     1.4310    60.1782
  1430.1216    12.7912   125.7901    45.0729     1.4544     1.4495    59.9997
  1430.2740    12.7664   125.3319    44.1308     1.4686     1.4715    59.7447
  1430.4264    12.7269   124.8791    43.4230     1.4911     1.4951    59.5143
  1430.5788    12.7008   124.4535    43.6152     1.5160     1.5238    59.3268
  1430.7312    12.6987   124.1833    43.5716     1.5291     1.5445    59.1496
  1430.8836    12.7152   124.1448    42.6425     1.5375     1.5662    58.9307
  1431.0360    12.7386   124.2760    42.4192     1.5594     1.5855    58.7733
  1431.1884    12.7709   124.5065    42.6522     1.6027     1.6023    58.6378
  1431.3408    12.8057   124.8910    41.4949     1.6328     1.6228    58.6144
  1431.4932    12.8114   125.3256    39.5764     1.6640     1.6418    58.6349
  1431.6456    12.7968   125.8708    38.0341     1.6894     1.6543    58.7317
  1431.7980    12.7750   126.6080    37.6914     1.7055     1.6554    58.8666
