~Version Information
VERS       .                                      2.0 : CWLS Log ASCII Standard -VERSION 2.0
WRAP       .                                       NO : One line per depth step
~Well Information
STRT       .M                                 66.2940 : START DEPTH
STOP       .M                               1955.9016 : STOP DEPTH
STEP       .M                                  0.1524 : STEP
NULL       .                                -999.2500 : NULL VALUE
COMP       .     W.G.S.                               : COMPANY
WELL       .     RESOLUTION 1                         : WELL
FLD        .     UNKNOWN                              : FIELD
LOC        .     UNKNOWN                              : LOCATION
CNTY       .     UNKNOWN                              : COUNTY
STAT       .     UNKNOWN                              : STATE
CTRY       .     UNKNOWN                              : COUNTRY
SRVC       .     UNKNOWN                              : SERVICE COMPANY
DATE       .     18/8/93                              : LOG DATE
UWI        .     UNKNOWN                              : UNIQUE WELL ID
API        .     UNKNOWN                              : API NUMBER
~Curve Information
#MNEMONIC   UNIT API CODE                             : CURVE DESCRIPTION
DEPT       .M    UNKNOWN                              : 1  DEPTH
CALI       .IN   UNKNOWN                              : 2  Caliper
DT         .US/F UNKNOWN                              : 3  Sonic
GR         .GAPI UNKNOWN                              : 4  Gamma Ray
LLD        .OHMM UNKNOWN                              : 5  Latero-Log Deep
LLS        .OHMM UNKNOWN                              : 6  Latero-Log Shallow
SP         .MV   UNKNOWN                              : 7  Spontaneous Potential
~Parameter Information
~Other Information
#***********************************************************
# This LAS file was created by Wiltshire Geological Services.
# The edit data contained herein are copyright property of
# Wiltshire Geological Services. The data are licensed to the
# purchasing company and subsidiaries worldwide, and are NOT
# for on-copying to third parties.  We place no restriction on
# the distribution of plots generated from the digital data.
#
# We supply the data on a 'best effort' basis.  We cannot
# control either the original data acquisition or the
# application of the data and therefore we cannot be held
# responsible for the consequences of any interpretations based
# on the data.  We urge purchasers to apply normal quality
# control procedures to the data before use for any quantitative
# interpretative procedures.
#***********************************************************
LOCN LAT:   44O 11' 16.9" S     WELL NAME: RESOLUTION 1
 LONG: 172O 38' 10.1" E
ELEVN SF: 64.3m   DATUM RT: 9.7m  STATUS: P & A
BASIN:  Canterbury  TOTAL D: 1963m  OPERATOR: BP Shell Todd
SPUD DATE: 1975   COMPLN DATE: 1975  PARTNERS:
TARGET:        LEASE:
         DRILLER:
DATA SOURCE: Log headers      RIG:

ENGINEERING DATA: HOLE AND CASING DATA:
26" hole to   ? m, 20" casing to 377m
17 1/2" hole to 1208.7m, 13 3/8" casing to 1213.3m
12 1/4" hole to 1963m TD

MUD PROPERTIES:
 at 1209m Type: FW Lignos SG: 1.20 Vis:  pH:    FL 11.0 ml
  Rm: 0.657 at 55 deg F Rmf: 0.459 at 55 deg F Rmc: 0.875 at 55 deg F
 at 1955m Type: FW Lignos SG:  Vis:  pH:    FL 5.0 ml
  Rm: 0.502 at 60 deg F Rmf: 0.393 at 56 deg F Rmc: 0.814 at 56 deg F

TEMPERATURES:
Logger's Depth         Temp                                  Log Type
         1209m              107 deg F                             DLL
         1955m              142 deg F                             DLL


~A
# ...
   898.2456    17.4178   135.0388    51.7300     1.3139     1.2369    23.9379
   898.3980    17.2377   134.1634    53.2530     1.3195     1.2321    24.1883
   898.5504    17.1110   133.1419    54.5781     1.3199     1.2274    24.5449
   898.7028    17.0887   131.5388    54.7083     1.3188     1.2241    25.1311
   898.8552    17.2238   131.7204    53.7984     1.3178     1.2284    25.8017
   899.0076    17.3409   133.3582    53.0642     1.3168     1.2293    26.3355
   899.1600    17.4107   133.7929    52.9573     1.3145     1.2314    26.5397
   899.3124    17.4864   133.6814    53.3753     1.3124     1.2350    26.8091
   899.4648    17.5784   133.5936    53.2491     1.3136     1.2323    27.2298
   899.6172    17.6619   133.6955    52.8748     1.3125     1.2312    27.8570
   899.7696    17.7471   133.8109    52.7081     1.3122     1.2328    28.4460
   899.9220    17.8447   133.9338    53.0058     1.3123     1.2322    28.8974
   900.0744    17.9100   134.0506    52.3342     1.3160     1.2295    28.7979
   900.2268    17.9171   133.1525    51.5558     1.3179     1.2297    27.9802
   900.3792    17.9139   131.4760    50.9336     1.3186     1.2336    27.2543
   900.5316    17.9064   131.1694    50.7925     1.3176     1.2354    26.6547
   900.6840    17.9045   132.1135    51.0371     1.3151     1.2362    26.1955
   900.8364    17.8815   132.4814    51.4940     1.3135     1.2414    25.8738
   900.9888    17.8533   132.2919    51.1656     1.3126     1.2459    25.8376
   901.1412    17.8170   132.1272    51.3552     1.3118     1.2522    26.0164
   901.2936    17.7694   132.4748    51.8826     1.3135     1.2530    26.1045
   901.4460    17.6604   133.6425    52.9136     1.3182     1.2520    26.1431
   901.5984    17.5737   134.5720    53.5385     1.3178     1.2513    26.1817
   901.7508    17.5415   134.8174    53.2600     1.3129     1.2559    26.1238
   901.9032    17.6010   135.2044    53.0228     1.3062     1.2608    25.9788
   902.0556    17.6201   136.0594    53.2000     1.3008     1.2625    25.7670
   902.2080    17.5764   136.0850    52.9418     1.2994     1.2670    25.5081
   902.3604    17.5175   135.8029    52.4333     1.3040     1.2790    25.2561
   902.5128    17.4183   135.1362    52.5486     1.4134     1.3778    24.9890
   902.6652    17.3315   126.3192    53.0169     1.7683     1.6254    24.6779
   902.8176    17.4275   112.5653    54.1526     2.0184     1.9512    24.3548
   902.9700    17.9633    95.7421    55.7980     1.7190     1.7270    24.1482
   903.1224    18.5706    82.2228    56.9448     1.5244     1.5428    24.1501
   903.2748    19.1691   103.6520    57.1769     1.3962     1.3950    24.3496
   903.4272    19.3836   117.6844    56.0962     1.3336     1.2925    24.7540
   903.5796    18.7720   131.7220    56.0320     1.3346     1.2469    25.1933
   903.7320    17.8212   134.2352    55.9832     1.3450     1.2518    25.6594
   903.8844    17.7149   132.6463    55.6549     1.3550     1.2578    26.0916
   904.0368    17.8392   131.1208    55.7249     1.3673     1.2682    26.4553
   904.1892    17.9442   130.5810    55.4798     1.3754     1.2764    26.7443
   904.3416    18.0111   131.4970    54.6867     1.3824     1.2842    26.9113
   904.4940    18.0396   132.3703    53.3838     1.3810     1.2877    26.8357
   904.6464    18.0331   132.8198    51.9074     1.3761     1.2867    26.5275
   904.7988    18.0040   132.8348    50.7238     1.3741     1.2811    26.2842
   904.9512    17.9630   132.7203    49.3914     1.3768     1.2800    26.0334
   905.1036    17.9163   132.4705    49.3539     1.3837     1.2817    25.8618
   905.2560    17.8706   131.9996    50.0364     1.3837     1.2807    25.7544
   905.4084    17.8705   131.2856    50.6602     1.3808     1.2761    25.7681
   905.5608    17.8930   130.8494    51.3045     1.3785     1.2699    25.4075
   905.7132    17.9087   131.4265    51.9114     1.3774     1.2656    24.8368
   905.8656    17.9165   131.9947    52.3822     1.3790     1.2600    24.4681
   906.0180    17.9138   131.8744    52.6449     1.3853     1.2674    24.2954
   906.1704    17.9330   131.4215    52.4300     1.3988     1.2788    24.2856
   906.3228    17.9562   130.9056    51.7701     1.4066     1.2873    24.3974
   906.4752    18.0220   131.5634    51.9763     1.4102     1.2935    24.5913
   906.6276    18.1482   132.3220    51.2145     1.4112     1.2996    24.7878
   906.7800    18.3152   132.9467    50.6499     1.4161     1.3070    25.0333
   906.9324    18.6954   133.2584    51.0638     1.4180     1.3088    25.2467
   907.0848    18.9669   133.9131    51.8050     1.4136     1.3035    25.5226
   907.2372    19.3631   135.3156    52.4827     1.4074     1.2940    25.8285
   907.3896    19.3230   136.6419    53.6106     1.3923     1.2816    26.2143
   907.5420    19.0403   136.9816    54.8744     1.3673     1.2720    26.6350
   907.6944    18.4823   134.8057    54.9018     1.3512     1.2502    27.0909
   907.8468    18.2061   132.4905    53.7385     1.3458     1.2379    27.4791
   907.9992    18.1190   131.0063    54.4099     1.3527     1.2505    27.6864
   908.1516    18.1075   131.4727    55.7859     1.3674     1.2680    27.6477
   908.3040    18.1129   132.8563    54.5385     1.3716     1.2769    27.4082
   908.4564    18.1397   133.1117    53.0705     1.3684     1.2799    27.1314
   908.6088    18.1705   132.3130    52.4312     1.3644     1.2813    26.7338
   908.7612    18.1479   131.2521    52.1294     1.3603     1.2751    26.1893
   908.9136    18.0856   131.4033    52.0368     1.3646     1.2653    25.6795
   909.0660    18.0125   131.8384    52.4695     1.3695     1.2697    25.2108
   909.2184    17.9364   132.0508    53.6553     1.3749     1.2754    24.7847
   909.3708    17.8757   132.2727    55.3689     1.3775     1.2884    24.4221
   909.5232    17.8357   132.3158    55.9757     1.3807     1.2967    24.4217
   909.6756    17.8050   131.9088    55.6893     1.3815     1.3030    24.5651
   909.8280    17.7869   131.2493    55.0226     1.3835     1.3004    24.7875
   909.9804    17.7834   131.4598    53.8145     1.3823     1.2965    24.9410
   910.1328    17.7908   131.2619    53.9126     1.3775     1.2877    25.1138
   910.2852    17.8026   130.7662    55.0780     1.3754     1.2881    25.2564
   910.4376    17.8201   130.3014    56.0899     1.3786     1.2874    25.5333
   910.5900    17.8377   130.2722    55.7729     1.3819     1.2840    25.7768
   910.7424    17.8620   130.8153    55.0624     1.3801     1.2797    25.9173
   910.8948    17.8899   131.2624    54.5332     1.3757     1.2730    25.8259
   911.0472    17.9192   131.5925    54.2937     1.3766     1.2676    25.7156
   911.1996    17.9499   131.5503    53.7992     1.3755     1.2658    25.5693
   911.3520    17.9761   130.8788    53.3756     1.3744     1.2558    25.5154
   911.5044    17.9961   130.9207    52.6616     1.3733     1.2497    25.5319
   911.6568    18.0208   130.7135    52.0785     1.3752     1.2426    25.6241
   911.8092    18.0832   130.8196    51.7845     1.3752     1.2435    25.8108
   911.9616    18.1740   131.0379    53.5016     1.3775     1.2467    25.9600
   912.1140    18.2516   132.1755    55.7406     1.3798     1.2487    26.0642
   912.2664    18.2490   133.2115    55.7971     1.3787     1.2514    26.1464
   912.4188    18.1371   133.6297    53.8938     1.3791     1.2586    26.2981
   912.5712    18.0541   133.3345    53.0084     1.3650     1.2681    26.4233
   912.7236    17.9948   132.6188    54.4723     1.3790     1.2870    26.5880
   912.8760    17.9585   131.9732    56.1614     1.3907     1.2952    26.6028
   913.0284    17.9334   131.4776    57.5757     1.3930     1.2960    26.4985
   913.1808    17.9054   131.4302    58.6182     1.4000     1.3035    26.3068
   913.3332    17.8852   131.7471    57.3854     1.3940     1.3043    26.0557
   913.4856    17.8711   131.7693    56.4091     1.3981     1.3048    25.7336
   913.6380    17.8573   131.5567    56.2515     1.4019     1.3055    25.3455
   913.7904    17.8416   131.1767    57.6602     1.3981     1.3157    24.8517
