~Version Information
VERS       .                                      2.0 : CWLS Log ASCII Standard -VERSION 2.0
WRAP       .                                       NO : One line per depth step
~Well Information
STRT       .M                                 66.2940 : START DEPTH
STOP       .M                               1955.9016 : STOP DEPTH
STEP       .M                                  0.1524 : STEP
NULL       .                                -999.2500 : NULL VALUE
COMP       .     W.G.S.                               : COMPANY
WELL       .     RESOLUTION 1                         : WELL
FLD        .     UNKNOWN                              : FIELD
LOC        .     UNKNOWN                              : LOCATION
CNTY       .     UNKNOWN                              : COUNTY
STAT       .     UNKNOWN                              : STATE
CTRY       .     UNKNOWN                              : COUNTRY
SRVC       .     UNKNOWN                              : SERVICE COMPANY
DATE       .     18/8/93                              : LOG DATE
UWI        .     UNKNOWN                              : UNIQUE WELL ID
API        .     UNKNOWN                              : API NUMBER
~Curve Information
#MNEMONIC   UNIT API CODE                             : CURVE DESCRIPTION
DEPT       .M    UNKNOWN                              : 1  DEPTH
CALI       .IN   UNKNOWN                              : 2  Caliper
DT         .US/F UNKNOWN                              : 3  Sonic
GR         .GAPI UNKNOWN                              : 4  Gamma Ray
LLD        .OHMM UNKNOWN                              : 5  Latero-Log Deep
LLS        .OHMM UNKNOWN                              : 6  Latero-Log Shallow
SP         .MV   UNKNOWN                              : 7  Spontaneous Potential
~Parameter Information
~Other Information
#***********************************************************
# This LAS file was created by Wiltshire Geological Services.
# The edit data contained herein are copyright property of
# Wiltshire Geological Services. The data are licensed to the
# purchasing company and subsidiaries worldwide, and are NOT
# for on-copying to third parties.  We place no restriction on
# the distribution of plots generated from the digital data.
#
# We supply the data on a 'best effort' basis.  We cannot
# control either the original data acquisition or the
# application of the data and therefore we cannot be held
# responsible for the consequences of any interpretations based
# on the data.  We urge purchasers to apply normal quality
# control procedures to the data before use for any quantitative
# interpretative procedures.
#***********************************************************
LOCN LAT:   44O 11' 16.9" S     WELL NAME: RESOLUTION 1
 LONG: 172O 38' 10.1" E
ELEVN SF: 64.3m   DATUM RT: 9.7m  STATUS: P & A
BASIN:  Canterbury  TOTAL D: 1963m  OPERATOR: BP Shell Todd
SPUD DATE: 1975   COMPLN DATE: 1975  PARTNERS:
TARGET:        LEASE:
         DRILLER:
DATA SOURCE: Log headers      RIG:

ENGINEERING DATA: HOLE AND CASING DATA:
26" hole to   ? m, 20" casing to 377m
17 1/2" hole to 1208.7m, 13 3/8" casing to 1213.3m
12 1/4" hole to 1963m TD

MUD PROPERTIES:
 at 1209m Type: FW Lignos SG: 1.20 Vis:  pH:    FL 11.0 ml
  Rm: 0.657 at 55 deg F Rmf: 0.459 at 55 deg F Rmc: 0.875 at 55 deg F
 at 1955m Type: FW Lignos SG:  Vis:  pH:    FL 5.0 ml
  Rm: 0.502 at 60 deg F Rmf: 0.393 at 56 deg F Rmc: 0.814 at 56 deg F

TEMPERATURES:
Logger's Depth         Temp                                  Log Type
         1209m              107 deg F                             DLL
         1955m              142 deg F                             DLL


~A
# ...
  1730.1972    13.6318    94.4411    53.4219     5.0808     4.1644    75.9458
  1730.3496    13.6109    94.4603    54.0164     4.9921     4.0827    76.0996
  1730.5020    13.5766    94.5841    55.1462     4.9710     4.0155    76.2122
  1730.6544    13.5433    94.8008    56.3325     5.0514     3.9939    76.2810
  1730.8068    13.5079    95.0993    55.8897     5.1318     4.0640    76.3503
  1730.9592    13.4686    95.2076    54.5269     5.1601     4.0849    76.3901
  1731.1116    13.4459    95.1697    53.1009     5.0736     4.0174    76.3820
  1731.2640    13.4335    95.1780    52.6708     4.9287     3.9336    76.4998
  1731.4164    13.4467    95.4756    51.9315     4.8141     3.8473    76.5671
  1731.5688    13.4687    95.8744    50.8502     4.7474     3.7589    76.5890
  1731.7212    13.5162    96.1318    50.2943     4.6939     3.7162    76.4840
  1731.8736    13.5829    96.2352    50.6171     4.6441     3.7026    76.2032
  1732.0260    13.6131    96.1085    50.9848     4.6111     3.7062    75.7963
  1732.1784    13.5597    96.0297    51.0714     4.5786     3.7045    75.5098
  1732.3308    13.5120    95.9790    51.0304     4.5573     3.7027    75.4710
  1732.4832    13.4817    95.9008    51.5622     4.5459     3.7082    75.4806
  1732.6356    13.4840    95.7685    53.1282     4.5568     3.7361    75.5070
  1732.7880    13.5245    95.6573    54.7644     4.5730     3.8021    75.5733
  1732.9404    13.5844    95.5600    55.1705     4.5948     3.8700    75.7442
  1733.0928    13.6412    95.4180    54.6677     4.6269     3.9107    75.9935
  1733.2452    13.6667    95.3052    54.5103     4.6573     3.9438    76.2701
  1733.3976    13.6222    95.1954    56.4141     4.7204     3.9686    76.5482
  1733.5500    13.5842    95.1059    57.4012     4.7948     4.0015    76.8124
  1733.7024    13.6096    95.1243    58.8777     4.8605     4.0240    77.0786
  1733.8548    13.6556    95.1318    60.4804     4.9358     4.0427    77.1921
  1734.0072    13.6829    95.1001    59.2652     4.9695     4.0735    77.1072
  1734.1596    13.6929    95.1940    57.2965     4.9875     4.0970    76.9601
  1734.3120    13.6605    95.3167    55.0801     5.0098     4.1222    76.6746
  1734.4644    13.6149    95.4360    52.9224     5.0136     4.1324    76.4377
  1734.6168    13.5728    95.5084    54.4247     5.0113     4.1429    76.1559
  1734.7692    13.5379    95.5929    55.2942     5.0090     4.1542    75.8518
  1734.9216    13.5233    95.5559    56.0092     4.9935     4.1593    75.5530
  1735.0740    13.5215    95.3375    57.2089     4.9767     4.1649    75.3901
  1735.2264    13.5159    95.2186    59.1464     4.9484     4.1593    75.3349
  1735.3788    13.4982    95.1424    60.4807     4.9106     4.1552    75.3095
  1735.5312    13.4693    95.0511    59.9008     4.8647     4.1153    75.2685
  1735.6836    13.4430    95.2161    60.3872     4.8060     4.0439    75.2588
  1735.8360    13.4245    95.3545    59.4518     4.7189     3.9713    75.3706
  1735.9884    13.4201    95.7646    58.6279     4.6506     3.9176    75.4830
  1736.1408    13.4277    95.8060    59.3813     4.6107     3.8759    75.6515
  1736.2932    13.4339    95.7388    59.6737     4.5977     3.8577    75.7944
  1736.4456    13.4272    95.9575    59.8678     4.6007     3.8491    75.9875
  1736.5980    13.4062    96.0761    61.0455     4.6399     3.8415    76.2742
  1736.7504    13.3662    95.8797    62.0068     4.6720     3.8367    76.4224
  1736.9028    13.3334    95.6674    62.2634     4.6956     3.8485    76.5739
  1737.0552    13.3020    95.4650    62.8538     4.7195     3.8835    76.6032
  1737.2076    13.2878    95.5133    63.5265     4.7380     3.9107    76.6402
  1737.3600    13.2703    95.6434    62.6340     4.7278     3.8998    76.6625
  1737.5124    13.2616    95.7424    62.1668     4.6544     3.8752    76.7319
  1737.6648    13.2549    95.8583    62.9263     4.5723     3.7932    76.7690
  1737.8172    13.2290    95.9489    63.6943     4.5116     3.7349    76.6967
  1737.9696    13.1898    96.0095    64.7351     4.4925     3.7011    76.5988
  1738.1220    13.1516    95.9753    66.7307     4.4803     3.6863    76.4481
  1738.2744    13.1144    95.8973    65.8271     4.4782     3.6971    76.3874
  1738.4268    13.0820    95.6891    63.4650     4.4848     3.6983    76.3591
  1738.5792    13.0550    95.3900    62.7966     4.5173     3.7113    76.3494
  1738.7316    13.0254    95.0999    62.3417     4.5623     3.7376    76.3733
  1738.8840    12.9947    94.8443    61.5047     4.6165     3.7910    76.5760
  1739.0364    12.9625    94.5571    62.4857     4.6671     3.8561    76.8180
  1739.1888    12.9227    94.1940    62.9731     4.7381     3.9234    77.0824
  1739.3412    12.8397    93.8616    62.4189     4.8198     3.9097    77.4502
  1739.4936    12.7485    93.7445    61.4806     4.7929     3.8119    77.8301
  1739.6460    12.6443    94.4739    60.9096     4.6220     3.6713    78.1965
  1739.7984    12.5469    95.4276    60.5208     4.4121     3.4854    78.6527
  1739.9508    12.4616    96.1955    59.6147     4.2010     3.3193    79.0017
  1740.1032    12.3974    96.9661    58.2884     4.0374     3.1561    79.2555
  1740.2556    12.3780    97.9028    56.7510     3.9024     3.0457    79.3731
  1740.4080    12.3765    98.2742    55.4873     3.8268     3.0380    79.4768
  1740.5604    12.3809    98.2757    55.7541     3.8037     3.0304    79.5958
  1740.7128    12.3890    98.3066    56.0063     3.8482     3.0209    79.7014
  1740.8652    12.3922    98.3077    54.6639     3.8982     3.0368    79.7589
  1741.0176    12.3860    98.1711    53.0301     3.9485     3.0592    79.7021
  1741.1700    12.3844    97.9658    52.5324     3.9781     3.1199    79.6917
  1741.3224    12.3829    97.8074    52.5748     3.9660     3.1637    79.6513
  1741.4748    12.3836    98.5681    52.4603     3.8781     3.1335    79.6724
  1741.6272    12.3937    99.4577    52.1617     3.7692     3.0483    79.6331
  1741.7796    12.4061   100.1333    51.8940     3.6290     2.9452    79.6940
  1741.9320    12.4335   100.6335    52.2787     3.4767     2.8250    79.7113
  1742.0844    12.4643   100.9451    52.7579     3.3653     2.7168    79.7823
  1742.2368    12.5153   100.9626    53.3189     3.3695     2.7041    79.8482
  1742.3892    12.5733   100.6808    53.5765     3.4311     2.7475    79.8984
  1742.5416    12.6179   100.1943    53.3195     3.4850     2.7879    79.9453
  1742.6940    12.5653    99.5559    52.5154     3.5592     2.8187    80.0049
  1742.8464    12.4692    98.8153    51.6959     3.6446     2.8902    79.9942
  1742.9988    12.3911    98.0050    51.0132     3.7315     3.0003    79.8586
  1743.1512    12.3827    97.4865    50.2968     3.7490     2.9997    79.8166
  1743.3036    12.4006    97.8595    49.8424     3.6874     2.9329    79.7619
  1743.4560    12.4118    98.0635    49.9309     3.6928     2.9319    79.7207
  1743.6084    12.4349    98.1075    50.6418     3.7474     2.9913    79.7781
  1743.7608    12.4873    98.0014    51.2664     3.8428     3.0228    79.8115
  1743.9132    12.5421    97.2412    50.9250     3.9304     3.0686    79.7936
  1744.0656    12.5080    96.6636    50.8515     4.0223     3.0941    79.7041
  1744.2180    12.4541    95.9657    50.3161     4.1290     3.1711    79.6004
  1744.3704    12.4044    95.0072    49.3658     4.2530     3.2623    79.4900
  1744.5228    12.3630    94.4038    48.5680     4.4054     3.3666    79.4016
  1744.6752    12.3536    94.4064    47.7411     4.4223     3.4041    79.3604
  1744.8276    12.3588    94.9704    47.9949     4.3469     3.3017    79.3508
  1744.9800    12.3690    95.8167    49.0287     4.1596     3.1890    79.3971
  1745.1324    12.3842    96.7558    50.0976     3.9950     3.0743    79.4951
  1745.2848    12.4028    97.7295    50.8650     3.8858     2.9770    79.5889
  1745.4372    12.4300    98.4768    51.1722     3.8204     2.9298    79.7543
  1745.5896    12.4633    98.9414    51.1061     3.7677     2.9172    79.8980
  1745.7420    12.4971    99.2087    50.7299     3.7185     2.9183    79.9692
