~Version Information
VERS       .                                      2.0 : CWLS Log ASCII Standard -VERSION 2.0
WRAP       .                                       NO : One line per depth step
~Well Information
STRT       .M                                 66.2940 : START DEPTH
STOP       .M                               1955.9016 : STOP DEPTH
STEP       .M                                  0.1524 : STEP
NULL       .                                -999.2500 : NULL VALUE
COMP       .     W.G.S.                               : COMPANY
WELL       .     RESOLUTION 1                         : WELL
FLD        .     UNKNOWN                              : FIELD
LOC        .     UNKNOWN                              : LOCATION
CNTY       .     UNKNOWN                              : COUNTY
STAT       .     UNKNOWN                              : STATE
CTRY       .     UNKNOWN                              : COUNTRY
SRVC       .     UNKNOWN                              : SERVICE COMPANY
DATE       .     18/8/93                              : LOG DATE
UWI        .     UNKNOWN                              : UNIQUE WELL ID
API        .     UNKNOWN                              : API NUMBER
~Curve Information
#MNEMONIC   UNIT API CODE                             : CURVE DESCRIPTION
DEPT       .M    UNKNOWN                              : 1  DEPTH
CALI       .IN   UNKNOWN                              : 2  Caliper
DT         .US/F UNKNOWN                              : 3  Sonic
GR         .GAPI UNKNOWN                              : 4  Gamma Ray
LLD        .OHMM UNKNOWN                              : 5  Latero-Log Deep
LLS        .OHMM UNKNOWN                              : 6  Latero-Log Shallow
SP         .MV   UNKNOWN                              : 7  Spontaneous Potential
~Parameter Information
~Other Information
#***********************************************************
# This LAS file was created by Wiltshire Geological Services.
# The edit data contained herein are copyright property of
# Wiltshire Geological Services. The data are licensed to the
# purchasing company and subsidiaries worldwide, and are NOT
# for on-copying to third parties.  We place no restriction on
# the distribution of plots generated from the digital data.
#
# We supply the data on a 'best effort' basis.  We cannot
# control either the original data acquisition or the
# application of the data and therefore we cannot be held
# responsible for the consequences of any interpretations based
# on the data.  We urge purchasers to apply normal quality
# control procedures to the data before use for any quantitative
# interpretative procedures.
#***********************************************************
LOCN LAT:   44O 11' 16.9" S     WELL NAME: RESOLUTION 1
 LONG: 172O 38' 10.1" E
ELEVN SF: 64.3m   DATUM RT: 9.7m  STATUS: P & A
BASIN:  Canterbury  TOTAL D: 1963m  OPERATOR: BP Shell Todd
SPUD DATE: 1975   COMPLN DATE: 1975  PARTNERS:
TARGET:        LEASE:
         DRILLER:
DATA SOURCE: Log headers      RIG:

ENGINEERING DATA: HOLE AND CASING DATA:
26" hole to   ? m, 20" casing to 377m
17 1/2" hole to 1208.7m, 13 3/8" casing to 1213.3m
12 1/4" hole to 1963m TD

MUD PROPERTIES:
 at 1209m Type: FW Lignos SG: 1.20 Vis:  pH:    FL 11.0 ml
  Rm: 0.657 at 55 deg F Rmf: 0.459 at 55 deg F Rmc: 0.875 at 55 deg F
 at 1955m Type: FW Lignos SG:  Vis:  pH:    FL 5.0 ml
  Rm: 0.502 at 60 deg F Rmf: 0.393 at 56 deg F Rmc: 0.814 at 56 deg F

TEMPERATURES:
Logger's Depth         Temp                                  Log Type
         1209m              107 deg F                             DLL
         1955m              142 deg F                             DLL


~A
# ...
  1824.3804    14.1949    91.6663    45.4168     4.7259     4.0349    78.5840
  1824.5328    14.1816    91.4532    46.5662     4.8260     4.1349    78.7682
  1824.6852    14.1325    91.3492    47.3701     4.9091     4.2141    78.9923
  1824.8376    14.0607    91.5300    48.0985     4.9411     4.2245    79.1478
  1824.9900    14.0001    91.9114    48.9655     4.9391     4.2324    79.2565
  1825.1424    13.9642    92.4163    50.5105     4.9489     4.2400    79.2831
  1825.2948    13.9542    92.7950    52.1692     4.9937     4.2736    79.2405
  1825.4472    13.9704    93.3014    52.7546     5.1144     4.3603    79.0401
  1825.5996    13.9657    93.3055    52.4948     5.2446     4.4646    78.7256
  1825.7520    13.9284    93.0739    51.8409     5.3007     4.5413    78.3806
  1825.9044    13.8560    92.5141    51.0172     5.2442     4.5544    77.9554
  1826.0568    13.8120    91.9899    50.1476     5.0287     4.3441    77.4116
  1826.2092    13.7200    92.2927    49.6146     4.7909     4.1734    76.9895
  1826.3616    13.6290    92.6121    51.1093     4.7473     4.0789    76.6924
  1826.5140    13.5996    92.5063    52.1161     4.7759     4.1500    76.7932
  1826.6664    13.6265    92.0990    53.2293     5.0011     4.3359    77.5280
  1826.8188    13.6438    91.7125    52.2085     5.2637     4.4886    77.9981
  1826.9712    13.6550    91.5359    51.2391     5.4983     4.6250    78.5616
  1827.1236    13.7485    91.3949    51.3836     5.7431     4.7891    79.0012
  1827.2760    13.7776    91.1711    51.8214     5.8966     4.9191    79.3321
  1827.4284    13.6571    91.3051    50.5155     5.8611     4.8904    79.3893
  1827.5808    13.4943    91.9448    49.1384     5.4035     4.5936    79.4226
  1827.7332    13.3799    92.6243    48.5381     4.5987     4.0870    79.4402
  1827.8856    13.3524    93.1178    47.9662     4.0293     3.5830    79.4263
  1828.0380    13.3905    93.6515    47.1297     3.6140     3.1689    79.4124
  1828.1904    13.4821    94.9547    48.1946     3.5006     2.9431    79.3984
  1828.3428    13.6152    96.3455    51.2323     3.6580     3.0552    79.3845
  1828.4952    13.7960    95.9902    52.8343     4.0689     3.3364    79.2774
  1828.6476    13.9446    94.0378    54.4875     4.6119     3.6650    79.0837
  1828.8000    14.0373    92.8296    54.7075     5.2225     4.3064    78.8632
  1828.9524    14.0054    92.6775    53.2594     5.7084     4.5430    78.6012
  1829.1048    13.9376    93.1359    51.6235     4.5056     3.8190    78.4882
  1829.2572    13.8718    94.9073    49.7476     4.1159     3.4819    78.4385
  1829.4096    13.8499    97.1147    47.6544     3.7397     3.2302    78.4354
  1829.5620    13.8655    99.9527    45.9476     3.4427     2.9626    78.5040
  1829.7144    13.9186    99.3818    45.1810     3.5746     2.8715    78.6207
  1829.8668    14.0101    93.2885    45.8712     4.2782     3.2935    78.8090
  1830.0192    14.0920    90.5653    45.7168     5.0572     3.8467    79.0028
  1830.1716    14.1400    89.1641    44.6546     5.5575     4.3480    79.1765
  1830.3240    14.1907    87.5741    43.8682     5.3376     4.3309    79.3828
  1830.4764    14.2610    87.2945    43.8497     4.9431     3.9873    79.5670
  1830.6288    14.3400    88.2613    44.6507     4.5835     3.7180    79.7313
  1830.7812    14.4074    90.5876    45.5580     4.2978     3.5007    79.7593
  1830.9336    14.4532    94.6872    46.8331     4.2004     3.3786    79.6762
  1831.0860    14.4246    97.4483    47.6531     4.1839     3.2775    79.5834
  1831.2384    14.3781    98.0321    45.2103     4.2910     3.2987    79.3852
  1831.3908    14.3589    97.1456    43.3529     4.4624     3.3912    79.1502
  1831.5432    14.3619    94.3117    42.7609     4.4450     3.4305    78.8081
  1831.6956    14.3961    91.9683    43.0575     4.3297     3.3729    78.4719
  1831.8480    14.4217    92.4605    42.8347     4.2436     3.3022    78.1792
  1832.0004    14.4549    92.5905    42.3820     4.1913     3.2346    78.1156
  1832.1528    14.4270    93.3379    42.7809     4.1513     3.1723    78.2108
  1832.3052    14.3784    94.0736    42.3151     4.1341     3.1271    78.6430
  1832.4576    14.3627    94.5551    40.9041     4.0931     3.0960    79.1398
  1832.6100    14.3668    94.3053    39.5204     4.0337     3.0742    79.5594
  1832.7624    14.3850    94.3632    39.0903     3.9605     3.0627    79.8631
  1832.9148    14.4069    94.8949    39.6851     3.8688     3.0438    79.8951
  1833.0672    14.4338    95.4383    41.0390     3.8237     3.0181    79.8567
  1833.2196    14.4472    95.6953    43.1693     3.8097     2.9960    79.6846
  1833.3720    14.4482    95.6255    44.7857     3.8436     2.9884    79.4536
  1833.5244    14.4194    95.6889    44.9669     3.8996     2.9895    79.1518
  1833.6768    14.4015    95.8012    43.8924     3.9083     2.9654    78.8149
  1833.8292    14.3886    95.9987    43.4423     3.8259     2.9309    78.4441
  1833.9816    14.3920    96.1357    41.9574     3.7373     2.9101    78.0600
  1834.1340    14.4145    96.1663    40.5066     3.7053     2.9310    77.6787
  1834.2864    14.4340    96.0833    39.7056     3.7413     2.9664    77.5133
  1834.4388    14.4502    95.6703    39.3048     3.8101     3.0085    77.4395
  1834.5912    14.4500    95.1588    39.5420     3.8824     3.0568    77.4694
  1834.7436    14.4346    95.0200    40.1408     3.9550     3.1092    77.5279
  1834.8960    14.4086    94.8948    40.6690     4.0319     3.1480    77.6938
  1835.0484    14.3828    94.8596    39.8976     4.1083     3.1936    77.8506
  1835.2008    14.3658    94.9983    38.8618     4.1874     3.2606    78.0220
  1835.3532    14.3686    94.9883    38.6860     4.2676     3.3405    78.1283
  1835.5056    14.3877    94.8868    39.7329     4.3359     3.4405    78.1241
  1835.6580    14.4038    94.8465    40.4677     4.4017     3.5413    78.0169
  1835.8104    14.4248    94.7683    40.2884     4.4602     3.6128    77.7689
  1835.9628    14.4365    94.6725    39.3145     4.5400     3.6509    77.4344
  1836.1152    14.4199    94.6509    38.3978     4.6322     3.7081    77.0239
  1836.2676    14.4001    94.4543    38.5672     4.7503     3.7780    76.5200
  1836.4200    14.3819    93.7751    39.3364     5.0152     3.8905    75.9997
  1836.5724    14.3592    92.9183    40.1259     5.3095     4.0567    75.4644
  1836.7248    14.3432    92.0392    40.7643     5.5823     4.2236    75.2424
  1836.8772    14.3458    91.2619    41.0001     5.8213     4.3718    75.3035
  1837.0296    14.3547    90.6323    40.9104     5.9356     4.4833    75.6486
  1837.1820    14.3764    90.9214    41.4671     5.9389     4.4574    75.8526
  1837.3344    14.4082    91.5870    41.8566     5.8395     4.3889    75.7143
  1837.4868    14.4483    91.6634    41.5542     5.6789     4.3122    75.4518
  1837.6392    14.4669    90.7007    40.5504     5.4637     4.2265    75.2574
  1837.7916    14.4449    90.6171    39.8477     5.2594     4.1192    74.9980
  1837.9440    14.4016    92.1262    39.7286     5.1132     4.0392    74.6931
  1838.0964    14.3733    93.7852    40.3348     5.0017     3.9824    74.4551
  1838.2488    14.3588    94.9164    41.6191     4.9110     3.9425    74.3246
  1838.4012    14.3522    94.5765    42.8355     4.8429     3.9197    74.4249
  1838.5536    14.3514    95.3220    42.9418     4.8052     3.9020    74.6751
  1838.7060    14.3571    96.3367    42.7328     4.8036     3.8915    74.9935
  1838.8584    14.3586    95.5356    43.7117     4.8093     3.9023    75.1342
  1839.0108    14.3778    94.4208    44.8747     4.8358     3.9239    75.1408
  1839.1632    14.3963    93.5392    45.5788     4.8695     3.9572    74.9707
  1839.3156    14.4084    93.0560    45.2558     4.9147     3.9922    74.8074
  1839.4680    14.4137    92.7494    44.8948     4.9374     4.0097    74.6303
  1839.6204    14.4181    92.4292    44.6032     4.9221     3.9904    74.5480
  1839.7728    14.4022    92.2595    43.8020     4.8931     3.9630    74.3769
  1839.9252    14.3660    92.3656    43.1698     4.8545     3.9187    74.2816
