~Version Information
VERS       .                                      2.0 : CWLS Log ASCII Standard -VERSION 2.0
WRAP       .                                       NO : One line per depth step
~Well Information
STRT       .M                                 66.2940 : START DEPTH
STOP       .M                               1955.9016 : STOP DEPTH
STEP       .M                                  0.1524 : STEP
NULL       .                                -999.2500 : NULL VALUE
COMP       .     W.G.S.                               : COMPANY
WELL       .     RESOLUTION 1                         : WELL
FLD        .     UNKNOWN                              : FIELD
LOC        .     UNKNOWN                              : LOCATION
CNTY       .     UNKNOWN                              : COUNTY
STAT       .     UNKNOWN                              : STATE
CTRY       .     UNKNOWN                              : COUNTRY
SRVC       .     UNKNOWN                              : SERVICE COMPANY
DATE       .     18/8/93                              : LOG DATE
UWI        .     UNKNOWN                              : UNIQUE WELL ID
API        .     UNKNOWN                              : API NUMBER
~Curve Information
#MNEMONIC   UNIT API CODE                             : CURVE DESCRIPTION
DEPT       .M    UNKNOWN                              : 1  DEPTH
CALI       .IN   UNKNOWN                              : 2  Caliper
DT         .US/F UNKNOWN                              : 3  Sonic
GR         .GAPI UNKNOWN                              : 4  Gamma Ray
LLD        .OHMM UNKNOWN                              : 5  Latero-Log Deep
LLS        .OHMM UNKNOWN                              : 6  Latero-Log Shallow
SP         .MV   UNKNOWN                              : 7  Spontaneous Potential
~Parameter Information
~Other Information
#***********************************************************
# This LAS file was created by Wiltshire Geological Services.
# The edit data contained herein are copyright property of
# Wiltshire Geological Services. The data are licensed to the
# purchasing company and subsidiaries worldwide, and are NOT
# for on-copying to third parties.  We place no restriction on
# the distribution of plots generated from the digital data.
#
# We supply the data on a 'best effort' basis.  We cannot
# control either the original data acquisition or the
# application of the data and therefore we cannot be held
# responsible for the consequences of any interpretations based
# on the data.  We urge purchasers to apply normal quality
# control procedures to the data before use for any quantitative
# interpretative procedures.
#***********************************************************
LOCN LAT:   44O 11' 16.9" S     WELL NAME: RESOLUTION 1
 LONG: 172O 38' 10.1" E
ELEVN SF: 64.3m   DATUM RT: 9.7m  STATUS: P & A
BASIN:  Canterbury  TOTAL D: 1963m  OPERATOR: BP Shell Todd
SPUD DATE: 1975   COMPLN DATE: 1975  PARTNERS:
TARGET:        LEASE:
         DRILLER:
DATA SOURCE: Log headers      RIG:

ENGINEERING DATA: HOLE AND CASING DATA:
26" hole to   ? m, 20" casing to 377m
17 1/2" hole to 1208.7m, 13 3/8" casing to 1213.3m
12 1/4" hole to 1963m TD

MUD PROPERTIES:
 at 1209m Type: FW Lignos SG: 1.20 Vis:  pH:    FL 11.0 ml
  Rm: 0.657 at 55 deg F Rmf: 0.459 at 55 deg F Rmc: 0.875 at 55 deg F
 at 1955m Type: FW Lignos SG:  Vis:  pH:    FL 5.0 ml
  Rm: 0.502 at 60 deg F Rmf: 0.393 at 56 deg F Rmc: 0.814 at 56 deg F

TEMPERATURES:
Logger's Depth         Temp                                  Log Type
         1209m              107 deg F                             DLL
         1955m              142 deg F                             DLL


~A
# ...
   694.1820    22.3884   170.6731    48.5520     1.4813     1.2106    15.4210
   694.3344    22.4082   154.2972    47.4433     1.4905     1.2250    15.9035
   694.4868    22.4218   143.3023    46.4621     1.5032     1.2352    16.1552
   694.6392    22.4251   143.9993    46.5896     1.5154     1.2357    16.3067
   694.7916    22.4181   143.9174    47.3064     1.5316     1.2383    16.4397
   694.9440    22.3883   142.6982    47.4297     1.5462     1.2559    16.6838
   695.0964    22.3440   141.1420    47.6731     1.5593     1.2806    16.9980
   695.2488    22.2776   139.7954    48.4574     1.5688     1.2966    17.3271
   695.4012    22.1901   139.0454    49.3038     1.5707     1.3022    17.9174
   695.5536    22.0908   139.1007    50.1352     1.5778     1.3047    18.6943
   695.7060    21.9950   139.4287    50.3360     1.5863     1.3126    19.6080
   695.8584    21.9667   139.4049    49.5994     1.6094     1.3361    20.5221
   696.0108    21.9173   139.0360    49.0441     1.6524     1.3678    21.2409
   696.1632    21.8466   138.2263    48.7828     1.7201     1.3988    21.6981
   696.3156    21.9490   137.6687    48.1677     1.7701     1.4226    22.0030
   696.4680    22.0437   139.4301    47.7433     1.7529     1.4294    21.6551
   696.6204    22.1609   139.7828    47.9106     1.6977     1.4199    20.5378
   696.7728    22.2601   139.9388    48.3275     1.6732     1.3943    19.2937
   696.9252    22.2921   139.4165    48.9908     1.6919     1.3886    18.0745
   697.0776    22.2845   137.7215    49.7869     1.7483     1.4416    16.9671
   697.2300    22.2610   137.4505    48.9734     1.7388     1.4445    15.7478
   697.3824    22.2502   136.8458    47.5738     1.6650     1.3552    14.7544
   697.5348    22.2540   136.8269    46.3033     1.6004     1.2956    14.7090
   697.6872    22.2941   138.4167    45.0782     1.5677     1.2593    15.2051
   697.8396    22.3480   139.3842    44.2807     1.5687     1.2526    15.7759
   697.9920    22.3746   141.4575    45.4070     1.5728     1.2614    16.1804
   698.1444    22.3805   142.5497    46.2916     1.5777     1.2705    16.4016
   698.2968    22.3909   141.7730    45.9507     1.5845     1.2754    16.4910
   698.4492    22.4013   140.7096    44.8277     1.5908     1.2845    16.3518
   698.6016    22.4108   139.8820    43.2248     1.5944     1.2902    16.2427
   698.7540    22.4122   140.2550    41.5152     1.5949     1.2950    16.1184
   698.9064    22.4196   141.5989    39.5298     1.5941     1.3039    16.0282
   699.0588    22.4277   142.7516    37.7979     1.5922     1.3110    15.9295
   699.2112    22.4352   143.7054    37.6520     1.5837     1.3067    15.8155
   699.3636    22.4458   144.5071    38.1717     1.5672     1.2932    15.7190
   699.5160    22.4720   145.0541    37.8606     1.5363     1.2670    15.6326
   699.6684    22.4480   145.1768    37.0902     1.4947     1.2258    15.5876
   699.8208    22.4100   145.3206    36.3191     1.4487     1.1830    15.5659
   699.9732    22.3721   145.0201    35.9069     1.4107     1.1369    15.5613
   700.1256    22.3313   144.4417    36.5649     1.3847     1.0950    15.6095
   700.2780    22.2971   144.3383    37.7515     1.3759     1.0690    15.6233
   700.4304    22.2390   145.0964    39.3493     1.3815     1.0753    15.6874
   700.5828    22.1334   146.1332    41.0800     1.4310     1.1253    15.8135
   700.7352    21.9627   144.4174    42.5348     1.4971     1.1891    15.9721
   700.8876    21.9793   142.3597    42.4688     1.5470     1.2474    16.1650
   701.0400    22.0977   140.5638    42.3935     1.5868     1.2882    16.4111
   701.1924    22.2092   139.5307    43.5715     1.6192     1.3094    16.5950
   701.3448    22.3175   139.1996    44.9931     1.6478     1.3328    16.7258
   701.4972    22.3571   138.9128    44.8999     1.6736     1.3508    16.8686
   701.6496    22.3488   138.7237    43.9713     1.6951     1.3597    16.9081
   701.8020    22.3445   138.7013    44.4687     1.7079     1.3646    16.6003
   701.9544    22.3438   138.7385    45.5513     1.7130     1.3608    16.0507
   702.1068    22.3430   139.0564    46.2913     1.7087     1.3597    15.3973
   702.2592    22.3460   139.2127    45.9252     1.6988     1.3576    14.7704
   702.4116    22.3393   138.5167    44.3386     1.6808     1.3470    14.1743
   702.5640    22.3293   137.8845    42.9656     1.6551     1.3293    13.6564
   702.7164    22.3159   137.8482    42.1673     1.6237     1.3042    13.2293
   702.8688    22.2793   138.3293    41.7782     1.5921     1.2917    13.0089
   703.0212    22.1674   138.8839    41.8533     1.5738     1.2851    13.1726
   703.1736    21.9817   138.4913    42.4112     1.5755     1.2900    13.6544
   703.3260    21.7797   138.4783    42.9397     1.5861     1.2905    14.3440
   703.4784    21.4892   139.3365    43.6994     1.5674     1.2779    15.1511
   703.6308    21.1574   139.6641    44.6793     1.5362     1.2560    15.9683
   703.7832    21.0518   140.9305    45.8744     1.4979     1.2258    16.9276
   703.9356    21.1301   141.5581    47.1738     1.4731     1.1998    17.8645
   704.0880    21.2745   144.1920    49.1819     1.4892     1.1932    18.2994
   704.2404    21.4115   147.1811    52.0134     1.5419     1.2159    18.2908
   704.3928    21.3823   139.5930    55.0078     1.6286     1.2811    17.7833
   704.5452    21.1588   120.2667    58.0535     1.6868     1.3319    17.0753
   704.6976    21.0354   116.0840    58.2622     1.6177     1.3055    16.3500
   704.8500    21.2374   126.7017    56.1937     1.5401     1.2622    15.8522
   705.0024    21.4193   138.5938    53.8605     1.4962     1.2317    15.5781
   705.1548    21.5913   140.2782    52.1134     1.5019     1.2162    15.2992
   705.3072    21.8552   140.7417    52.1704     1.5220     1.2249    15.0961
   705.4596    22.1162   142.0397    52.9105     1.5348     1.2425    14.9087
   705.6120    22.0125   142.2446    53.2551     1.5376     1.2412    14.6277
   705.7644    21.8660   142.4455    52.6447     1.5347     1.2289    14.2421
   705.9168    21.6989   142.9942    50.6296     1.5127     1.2110    13.8350
   706.0692    21.6101   143.3861    48.5336     1.4945     1.2075    13.3570
   706.2216    21.5177   142.1246    48.4207     1.4888     1.2125    12.9007
   706.3740    21.3881   141.0375    49.5627     1.4933     1.2258    12.6151
   706.5264    20.9716   140.5813    49.5719     1.5135     1.2417    12.8890
   706.6788    20.5942   139.3981    49.2543     1.5487     1.2608    13.5460
   706.8312    20.7655   140.4789    48.4128     1.5771     1.2813    14.2354
   706.9836    21.2367   139.9535    47.3041     1.5888     1.2928    14.9187
   707.1360    21.6780   141.3893    46.1331     1.5756     1.2798    15.6566
   707.2884    22.0217   143.9502    45.1480     1.5491     1.2576    16.3931
   707.4408    22.1347   145.3393    44.4140     1.5235     1.2384    16.9488
   707.5932    22.0600   144.5357    44.0448     1.4931     1.2269    17.1879
   707.7456    22.1141   144.8906    44.5125     1.4814     1.2383    16.3166
   707.8980    22.2479   144.4007    44.5346     1.5077     1.2641    15.2975
   708.0504    22.3448   142.6743    44.8581     1.5163     1.2804    14.3432
   708.2028    22.3529   140.9875    45.7146     1.4869     1.2547    13.5716
   708.3552    22.3448   140.1668    46.9018     1.4520     1.2269    12.8690
   708.5076    22.3319   141.9506    46.1587     1.4334     1.2172    12.3096
   708.6600    22.3148   143.4329    45.3697     1.4511     1.2336    12.0736
   708.8124    22.2990   142.7206    46.7901     1.4861     1.2527    12.0379
   708.9648    22.2816   141.5044    47.4804     1.5273     1.2753    12.6674
   709.1172    22.2742   141.6944    46.6484     1.5605     1.2794    13.4278
   709.2696    22.2675   141.1885    45.2904     1.5525     1.2643    14.0561
   709.4220    22.2674   141.0782    43.7486     1.5316     1.2655    14.5796
   709.5744    22.2702   140.8121    44.3081     1.5576     1.2904    15.1084
   709.7268    22.2691   139.0447    45.4973     1.6278     1.3302    15.7015
