~Version Information
VERS       .                                      2.0 : CWLS Log ASCII Standard -VERSION 2.0
WRAP       .                                       NO : One line per depth step
~Well Information
STRT       .M                                 66.2940 : START DEPTH
STOP       .M                               1955.9016 : STOP DEPTH
STEP       .M                                  0.1524 : STEP
NULL       .                                -999.2500 : NULL VALUE
COMP       .     W.G.S.                               : COMPANY
WELL       .     RESOLUTION 1                         : WELL
FLD        .     UNKNOWN                              : FIELD
LOC        .     UNKNOWN                              : LOCATION
CNTY       .     UNKNOWN                              : COUNTY
STAT       .     UNKNOWN                              : STATE
CTRY       .     UNKNOWN                              : COUNTRY
SRVC       .     UNKNOWN                              : SERVICE COMPANY
DATE       .     18/8/93                              : LOG DATE
UWI        .     UNKNOWN                              : UNIQUE WELL ID
API        .     UNKNOWN                              : API NUMBER
~Curve Information
#MNEMONIC   UNIT API CODE                             : CURVE DESCRIPTION
DEPT       .M    UNKNOWN                              : 1  DEPTH
CALI       .IN   UNKNOWN                              : 2  Caliper
DT         .US/F UNKNOWN                              : 3  Sonic
GR         .GAPI UNKNOWN                              : 4  Gamma Ray
LLD        .OHMM UNKNOWN                              : 5  Latero-Log Deep
LLS        .OHMM UNKNOWN                              : 6  Latero-Log Shallow
SP         .MV   UNKNOWN                              : 7  Spontaneous Potential
~Parameter Information
~Other Information
#***********************************************************
# This LAS file was created by Wiltshire Geological Services.
# The edit data contained herein are copyright property of
# Wiltshire Geological Services. The data are licensed to the
# purchasing company and subsidiaries worldwide, and are NOT
# for on-copying to third parties.  We place no restriction on
# the distribution of plots generated from the digital data.
#
# We supply the data on a 'best effort' basis.  We cannot
# control either the original data acquisition or the
# application of the data and therefore we cannot be held
# responsible for the consequences of any interpretations based
# on the data.  We urge purchasers to apply normal quality
# control procedures to the data before use for any quantitative
# interpretative procedures.
#***********************************************************
LOCN LAT:   44O 11' 16.9" S     WELL NAME: RESOLUTION 1
 LONG: 172O 38' 10.1" E
ELEVN SF: 64.3m   DATUM RT: 9.7m  STATUS: P & A
BASIN:  Canterbury  TOTAL D: 1963m  OPERATOR: BP Shell Todd
SPUD DATE: 1975   COMPLN DATE: 1975  PARTNERS:
TARGET:        LEASE:
         DRILLER:
DATA SOURCE: Log headers      RIG:

ENGINEERING DATA: HOLE AND CASING DATA:
26" hole to   ? m, 20" casing to 377m
17 1/2" hole to 1208.7m, 13 3/8" casing to 1213.3m
12 1/4" hole to 1963m TD

MUD PROPERTIES:
 at 1209m Type: FW Lignos SG: 1.20 Vis:  pH:    FL 11.0 ml
  Rm: 0.657 at 55 deg F Rmf: 0.459 at 55 deg F Rmc: 0.875 at 55 deg F
 at 1955m Type: FW Lignos SG:  Vis:  pH:    FL 5.0 ml
  Rm: 0.502 at 60 deg F Rmf: 0.393 at 56 deg F Rmc: 0.814 at 56 deg F

TEMPERATURES:
Logger's Depth         Temp                                  Log Type
         1209m              107 deg F                             DLL
         1955m              142 deg F                             DLL


~A
# ...
  1102.3092    17.6030   127.3578    59.6544     1.3636     1.2712    43.1019
  1102.4616    17.6844   127.5279    59.2432     1.3696     1.2791    43.3565
  1102.6140    17.7439   126.3198    59.7737     1.3706     1.2810    43.7135
  1102.7664    17.6423   125.0266    60.4929     1.3739     1.2807    44.0942
  1102.9188    17.5773   124.0662    60.8133     1.3710     1.2763    44.5582
  1103.0712    17.5325   126.0299    61.7249     1.3672     1.2696    45.0845
  1103.2236    17.5076   127.1729    62.1243     1.3562     1.2597    45.7300
  1103.3760    17.4944   126.1902    61.3471     1.3460     1.2462    46.4874
  1103.5284    17.5035   124.7581    60.9535     1.3383     1.2367    47.5432
  1103.6808    17.5215   123.3408    60.2447     1.3351     1.2299    48.8028
  1103.8332    17.5357   123.5258    58.8619     1.3348     1.2290    50.1459
  1103.9856    17.5520   124.5490    57.0773     1.3399     1.2389    51.1596
  1104.1380    17.5688   124.7354    54.4584     1.3513     1.2442    51.8647
  1104.2904    17.5873   124.7737    52.2988     1.3641     1.2428    52.2377
  1104.4428    17.6041   125.0355    50.6473     1.3655     1.2142    52.3958
  1104.5952    17.6283   124.4816    48.6859     1.3328     1.1669    52.2919
  1104.7476    17.6444   123.8202    46.0931     1.2599     1.1107    52.0010
  1104.9000    17.6710   124.1892    42.6152     1.1958     1.0593    51.6553
  1105.0524    17.6781   124.3425    39.9267     1.1788     1.0164    51.2474
  1105.2048    17.6854   123.9361    36.0187     1.1992     1.0157    50.8766
  1105.3572    17.7079   123.4830    35.0799     1.2444     1.0431    50.5476
  1105.5096    17.7374   125.8380    33.4876     1.2420     1.0510    50.3121
  1105.6620    17.7695   128.5734    30.9176     1.2057     1.0441    50.2018
  1105.8144    17.8054   129.8407    29.5631     1.1684     1.0275    50.1736
  1105.9668    17.8277   129.0335    29.5159     1.1399     1.0105    50.2062
  1106.1192    17.8337   131.4603    30.8331     1.1134     0.9867    50.3699
  1106.2716    17.8406   135.0034    31.9690     1.0927     0.9610    50.6315
  1106.4240    17.8436   136.9602    31.4135     1.0766     0.9396    51.0218
  1106.5764    17.8297   136.9505    30.2877     1.0654     0.9312    51.4020
  1106.7288    17.8090   137.0434    30.4609     1.0678     0.9349    51.8387
  1106.8812    17.7847   137.3411    31.3955     1.0714     0.9364    52.3714
  1107.0336    17.7595   137.8017    32.3606     1.0722     0.9372    53.0345
  1107.1860    17.7423   138.3303    32.9313     1.0770     0.9370    53.7184
  1107.3384    17.7340   138.6783    32.1158     1.0824     0.9402    54.4711
  1107.4908    17.7278   138.7738    30.7341     1.0958     0.9419    55.1391
  1107.6432    17.7364   137.4573    29.5113     1.1003     0.9396    55.7963
  1107.7956    17.7476   136.5037    28.5678     1.1059     0.9381    56.4750
  1107.9480    17.7593   135.8414    28.0117     1.1062     0.9314    57.0874
  1108.1004    17.7721   135.8798    28.3610     1.0960     0.9231    57.5419
  1108.2528    17.7888   136.9543    28.6552     1.0863     0.9075    57.7636
  1108.4052    17.8010   137.8187    28.9003     1.0848     0.8904    57.6815
  1108.5576    17.8089   138.1538    29.4705     1.0931     0.8824    57.3880
  1108.7100    17.8132   138.6656    30.3981     1.1044     0.8948    56.9003
  1108.8624    17.8158   139.3785    31.1393     1.1170     0.9107    56.2051
  1109.0148    17.8257   139.8314    30.8119     1.1239     0.9226    55.3931
  1109.1672    17.8285   139.0628    30.1906     1.1287     0.9273    54.3096
  1109.3196    17.8282   138.0892    29.5196     1.1317     0.9283    53.0534
  1109.4720    17.8118   137.5204    28.8309     1.1344     0.9314    51.7025
  1109.6244    17.7988   137.1872    28.1533     1.1339     0.9336    50.8721
  1109.7768    17.7860   137.4986    27.7848     1.1289     0.9349    50.3415
  1109.9292    17.7956   138.1402    28.4133     1.1236     0.9328    49.9706
  1110.0816    17.8131   137.9509    29.5096     1.1194     0.9313    48.9275
  1110.2340    17.8240   137.5330    30.6242     1.1169     0.9296    48.8744
  1110.3864    17.8241   138.1264    31.7126     1.1123     0.9286    49.2538
  1110.5388    17.8287   137.9540    33.1101     1.1081     0.9346    49.6614
  1110.6912    17.8176   136.2716    34.4063     1.1097     0.9425    50.1247
  1110.8436    17.8131   134.9894    34.5096     1.1114     0.9565    50.5800
  1110.9960    17.8171   134.2199    35.0739     1.1163     0.9668    50.6599
  1111.1484    17.8228   133.8027    35.3260     1.1315     0.9807    50.3834
  1111.3008    17.8324   134.0213    35.2364     1.1479     0.9927    50.2067
  1111.4532    17.8398   134.4444    35.3913     1.1514     1.0092    50.4094
  1111.6056    17.8404   134.3658    36.3261     1.1610     1.0334    50.6174
  1111.7580    17.8364   133.3162    38.9400     1.1895     1.0649    50.1578
  1111.9104    17.8215   130.6470    42.8040     1.2247     1.0986    49.1947
  1112.0628    17.7957   127.5469    47.4959     1.2679     1.1333    48.2525
  1112.2152    17.7671   124.3107    51.8584     1.3167     1.1660    47.2567
  1112.3676    17.7360   123.9717    53.5708     1.3445     1.2019    46.2252
  1112.5200    17.7023   125.6875    53.9105     1.3329     1.2341    44.9575
  1112.6724    17.6655   127.3558    55.9769     1.3322     1.2521    44.1933
  1112.8248    17.6554   129.2247    56.9630     1.3472     1.2653    43.8273
  1112.9772    17.6611   133.2248    57.9988     1.3660     1.2758    43.4995
  1113.1296    17.6672   131.8108    60.1008     1.3790     1.2880    43.2033
  1113.2820    17.6633   128.9965    61.4517     1.3921     1.3041    42.8925
  1113.4344    17.6477   124.7978    61.1976     1.4073     1.3206    42.5009
  1113.5868    17.6390   125.0368    59.8867     1.4207     1.3332    42.2113
  1113.7392    17.6325   124.8790    59.9398     1.4282     1.3460    42.0045
  1113.8916    17.6297   124.8060    60.9101     1.4346     1.3605    41.8950
  1114.0440    17.6428   124.7004    60.8675     1.4400     1.3653    42.0369
  1114.1964    17.6470   125.5328    60.2125     1.4428     1.3680    42.4419
  1114.3488    17.6572   127.7163    58.8070     1.4400     1.3593    42.9195
  1114.5012    17.6746   127.1262    57.0360     1.4324     1.3470    43.6260
  1114.6536    17.7006   125.3593    54.9659     1.4171     1.3244    44.5002
  1114.8060    17.7310   124.2911    53.2841     1.3986     1.2974    45.3631
  1114.9584    17.7557   124.7428    51.5284     1.3788     1.2769    46.1845
  1115.1108    17.7571   124.6018    53.7118     1.3586     1.2605    46.5597
  1115.2632    17.7409   124.9035    53.8243     1.3459     1.2540    46.5399
  1115.4156    17.7248   124.9001    52.3032     1.3370     1.2536    46.2382
  1115.5680    17.6985   124.4964    51.7737     1.3413     1.2579    45.6633
  1115.7204    17.6755   124.7021    50.9538     1.3538     1.2693    44.8653
  1115.8728    17.6905   125.8281    49.3400     1.3627     1.2747    43.9706
  1116.0252    17.7211   127.0731    47.6491     1.3743     1.2830    43.1968
  1116.1776    17.7571   124.8025    48.9710     1.3948     1.2992    42.5125
  1116.3300    17.7957   122.0071    54.1728     1.4192     1.3188    41.9399
  1116.4824    17.8217   120.5334    56.6482     1.4269     1.3393    41.5139
  1116.6348    17.8193   119.9656    58.6553     1.4270     1.3325    41.1876
  1116.7872    17.7822   121.0294    60.2494     1.4304     1.3289    40.9425
  1116.9396    17.7285   121.7254    60.4021     1.4436     1.3363    41.0565
  1117.0920    17.6863   120.0275    60.4094     1.4600     1.3504    41.3732
  1117.2444    17.6633   119.8152    60.3692     1.4702     1.3583    41.8236
  1117.3968    17.6590   121.4071    60.6294     1.4749     1.3648    42.2765
  1117.5492    17.6633   122.1740    61.3530     1.4767     1.3660    42.7274
  1117.7016    17.6651   120.5078    61.1735     1.4763     1.3642    43.2002
  1117.8540    17.6544   119.5846    59.8664     1.4715     1.3614    43.7017
