~Version Information
VERS       .                                      2.0 : CWLS Log ASCII Standard -VERSION 2.0
WRAP       .                                       NO : One line per depth step
~Well Information
STRT       .M                                 66.2940 : START DEPTH
STOP       .M                               1955.9016 : STOP DEPTH
STEP       .M                                  0.1524 : STEP
NULL       .                                -999.2500 : NULL VALUE
COMP       .     W.G.S.                               : COMPANY
WELL       .     RESOLUTION 1                         : WELL
FLD        .     UNKNOWN                              : FIELD
LOC        .     UNKNOWN                              : LOCATION
CNTY       .     UNKNOWN                              : COUNTY
STAT       .     UNKNOWN                              : STATE
CTRY       .     UNKNOWN                              : COUNTRY
SRVC       .     UNKNOWN                              : SERVICE COMPANY
DATE       .     18/8/93                              : LOG DATE
UWI        .     UNKNOWN                              : UNIQUE WELL ID
API        .     UNKNOWN                              : API NUMBER
~Curve Information
#MNEMONIC   UNIT API CODE                             : CURVE DESCRIPTION
DEPT       .M    UNKNOWN                              : 1  DEPTH
CALI       .IN   UNKNOWN                              : 2  Caliper
DT         .US/F UNKNOWN                              : 3  Sonic
GR         .GAPI UNKNOWN                              : 4  Gamma Ray
LLD        .OHMM UNKNOWN                              : 5  Latero-Log Deep
LLS        .OHMM UNKNOWN                              : 6  Latero-Log Shallow
SP         .MV   UNKNOWN                              : 7  Spontaneous Potential
~Parameter Information
~Other Information
#***********************************************************
# This LAS file was created by Wiltshire Geological Services.
# The edit data contained herein are copyright property of
# Wiltshire Geological Services. The data are licensed to the
# purchasing company and subsidiaries worldwide, and are NOT
# for on-copying to third parties.  We place no restriction on
# the distribution of plots generated from the digital data.
#
# We supply the data on a 'best effort' basis.  We cannot
# control either the original data acquisition or the
# application of the data and therefore we cannot be held
# responsible for the consequences of any interpretations based
# on the data.  We urge purchasers to apply normal quality
# control procedures to the data before use for any quantitative
# interpretative procedures.
#***********************************************************
LOCN LAT:   44O 11' 16.9" S     WELL NAME: RESOLUTION 1
 LONG: 172O 38' 10.1" E
ELEVN SF: 64.3m   DATUM RT: 9.7m  STATUS: P & A
BASIN:  Canterbury  TOTAL D: 1963m  OPERATOR: BP Shell Todd
SPUD DATE: 1975   COMPLN DATE: 1975  PARTNERS:
TARGET:        LEASE:
         DRILLER:
DATA SOURCE: Log headers      RIG:

ENGINEERING DATA: HOLE AND CASING DATA:
26" hole to   ? m, 20" casing to 377m
17 1/2" hole to 1208.7m, 13 3/8" casing to 1213.3m
12 1/4" hole to 1963m TD

MUD PROPERTIES:
 at 1209m Type: FW Lignos SG: 1.20 Vis:  pH:    FL 11.0 ml
  Rm: 0.657 at 55 deg F Rmf: 0.459 at 55 deg F Rmc: 0.875 at 55 deg F
 at 1955m Type: FW Lignos SG:  Vis:  pH:    FL 5.0 ml
  Rm: 0.502 at 60 deg F Rmf: 0.393 at 56 deg F Rmc: 0.814 at 56 deg F

TEMPERATURES:
Logger's Depth         Temp                                  Log Type
         1209m              107 deg F                             DLL
         1955m              142 deg F                             DLL


~A
# ...
  1620.3168    14.5836   114.5249    27.4652     2.2802     1.7508    91.6358
  1620.4692    14.6052   115.4206    26.9357     2.3047     1.7650    91.4118
  1620.6216    14.5786   114.2906    27.0942     2.3401     1.7867    91.1278
  1620.7740    14.5361   112.8330    27.7102     2.3900     1.8087    90.8345
  1620.9264    14.5009   112.0298    27.0962     2.4187     1.8307    90.4893
  1621.0788    14.5049   111.0617    26.7856     2.4138     1.8521    90.1020
  1621.2312    14.5175   109.9397    28.0996     2.4094     1.8648    89.7119
  1621.3836    14.5499   110.3847    27.3240     2.4573     1.8873    89.4004
  1621.5360    14.5727   109.1439    26.9938     2.5062     1.9349    89.2639
  1621.6884    14.5709   110.3916    27.1773     2.5577     1.9511    89.2463
  1621.8408    14.5302   111.2683    27.1473     2.6120     1.9665    89.3625
  1621.9932    14.4415   111.6443    27.2581     2.6815     2.0069    89.5820
  1622.1456    14.3912   114.2235    27.7666     2.7352     2.0706    89.8403
  1622.2980    14.4924   115.9138    28.1338     2.7543     2.0859    90.1814
  1622.4504    14.5406   115.2503    28.1654     2.7014     2.0521    90.4784
  1622.6028    14.5343   114.7608    27.5965     2.6526     2.0218    90.7535
  1622.7552    14.5065   115.1237    26.9688     2.6560     2.0322    90.9998
  1622.9076    14.4321   115.3325    26.7959     2.6731     2.0338    91.0737
  1623.0600    14.3366   114.9057    25.9319     2.6242     2.0077    90.9039
  1623.2124    14.2682   114.4495    24.9437     2.5541     1.9560    90.5541
  1623.3648    14.2675   114.0397    25.3366     2.4726     1.8897    90.1638
  1623.5172    14.2971   113.7393    26.3650     2.4063     1.8392    89.8055
  1623.6696    14.3489   113.9299    27.2622     2.3630     1.8227    89.4106
  1623.8220    14.3649   114.5574    27.3589     2.3455     1.8181    89.0729
  1623.9744    14.3009   115.1568    27.7049     2.3470     1.8270    88.7700
  1624.1268    14.2349   115.1030    28.2303     2.3645     1.8690    88.5479
  1624.2792    14.2179   114.2287    28.5496     2.4162     1.9227    88.4665
  1624.4316    14.2764   113.1658    27.5051     2.4825     1.9737    88.7535
  1624.5840    14.3123   112.1300    26.4609     2.5574     2.0152    89.1912
  1624.7364    14.2609   111.6668    25.6881     2.6168     2.0350    89.6920
  1624.8888    14.1835   111.5349    25.5064     2.6409     2.0431    90.3179
  1625.0412    14.1119   111.2672    25.8679     2.6174     2.0198    90.8597
  1625.1936    14.0569   111.1468    26.2468     2.5737     1.9731    91.2854
  1625.3460    14.0183   110.8724    26.5565     2.5229     1.9354    91.4518
  1625.4984    13.9960   110.4529    26.9446     2.4861     1.9101    91.4920
  1625.6508    13.9832   110.2970    26.8235     2.4635     1.9094    91.3691
  1625.8032    13.9824   110.5528    26.0312     2.4564     1.9080    91.1546
  1625.9556    13.9955   111.4811    24.6964     2.4615     1.8985    90.9518
  1626.1080    14.0252   111.2974    23.5871     2.4700     1.8935    90.7143
  1626.2604    14.0465   110.3854    23.4655     2.4778     1.8928    90.3790
  1626.4128    14.0123   110.2823    23.6493     2.4848     1.8924    90.0453
  1626.5652    13.9744   110.6875    24.2516     2.4882     1.8982    89.7164
  1626.7176    13.9393   109.9783    25.4931     2.5032     1.9034    89.3639
  1626.8700    13.9124   109.6252    26.8727     2.5240     1.9242    88.9583
  1627.0224    13.8777   110.3846    27.8383     2.5509     1.9482    88.5902
  1627.1748    13.8478   111.0056    27.7801     2.5745     1.9595    88.3518
  1627.3272    13.8260   111.8280    27.2544     2.5800     1.9545    88.3551
  1627.4796    13.8016   111.5859    27.2688     2.5626     1.9536    88.6653
  1627.6320    13.7826   112.0122    27.9432     2.5305     1.9455    88.9937
  1627.7844    13.7639   112.9386    28.0535     2.4979     1.9424    89.3127
  1627.9368    13.7406   113.7578    28.1306     2.4769     1.9390    89.6901
  1628.0892    13.7220   113.7569    28.7129     2.4642     1.9307    90.1603
  1628.2416    13.7122   113.7825    28.7103     2.4603     1.9249    90.5970
  1628.3940    13.6990   114.4266    28.6141     2.4960     1.9283    90.9208
  1628.5464    13.6817   114.3465    28.7013     2.5358     1.9391    90.9260
  1628.6988    13.6487   113.6950    28.4054     2.5641     1.9671    90.7561
  1628.8512    13.6135   112.8454    28.2166     2.5773     1.9976    90.4759
  1629.0036    13.5784   112.2852    27.7380     2.5680     1.9962    90.0869
  1629.1560    13.5761   111.8148    26.9191     2.4929     1.9654    89.5569
  1629.3084    13.6710   111.2850    26.6807     2.4302     1.9223    88.9700
  1629.4608    13.8818   110.4887    27.4462     2.4014     1.8936    88.3439
  1629.6132    14.0781   109.9756    28.4796     2.4055     1.9113    87.6838
  1629.7656    14.0637   110.6218    28.8175     2.4674     1.9537    87.1200
  1629.9180    14.0207   111.1856    29.3133     2.5439     1.9968    86.5440
  1630.0704    14.0525   111.5568    30.4978     2.6051     2.0426    85.8638
  1630.2228    14.2023   112.1317    31.9760     2.6494     2.0848    85.1953
  1630.3752    14.4253   111.6345    33.3412     2.6363     2.0802    84.5157
  1630.5276    14.5071   113.3821    33.9780     2.5346     2.0502    83.9547
  1630.6800    14.3111   116.3851    33.5208     2.4935     2.0429    83.5485
  1630.8324    13.9389   117.5164    33.3895     2.5266     2.1123    83.2606
  1630.9848    13.7030   116.6969    33.5237     2.6546     2.2192    83.2741
  1631.1372    13.4499   114.8784    33.6268     2.7787     2.2843    83.4834
  1631.2896    13.2633   112.2463    32.9018     2.8591     2.3059    83.7834
  1631.4420    13.1882   111.2310    32.5416     2.8621     2.3173    84.0577
  1631.5944    13.1450   110.6414    32.7771     2.9063     2.3405    84.3056
  1631.7468    13.1032   109.6751    33.8313     2.9326     2.3628    84.5762
  1631.8992    13.0664   108.8443    33.9183     2.9798     2.3987    84.7826
  1632.0516    13.0202   107.8990    33.9411     3.0521     2.4579    84.7857
  1632.2040    12.9593   107.3510    34.3165     3.1476     2.5363    84.5578
  1632.3564    12.9215   106.9980    34.3894     3.2323     2.6051    84.2160
  1632.5088    12.9246   106.8913    34.4777     3.2852     2.6450    83.8181
  1632.6612    12.9391   107.3259    34.5011     3.3033     2.6474    83.4340
  1632.8136    12.9654   107.9328    33.9769     3.3119     2.6244    83.0087
  1632.9660    12.9921   108.6607    33.4170     3.2969     2.5874    82.7158
  1633.1184    13.0183   109.4645    33.2474     3.2446     2.5461    82.4587
  1633.2708    13.0390   110.1995    33.4137     3.1890     2.5220    82.2260
  1633.4232    13.0505   110.8568    33.8518     3.1496     2.5124    82.0654
  1633.5756    13.0384   111.3903    34.2274     3.1169     2.5078    81.9375
  1633.7280    13.0326   111.7580    34.6673     3.0894     2.5076    81.8339
  1633.8804    13.0571   111.9784    34.8115     3.0819     2.5106    81.8184
  1634.0328    13.0993   112.2353    34.7267     3.0692     2.5140    81.8101
  1634.1852    13.1608   112.8675    34.3540     3.0413     2.5052    81.8873
  1634.3376    13.2237   113.5482    33.6825     3.0028     2.4765    82.1215
  1634.4900    13.2544   113.8444    32.8203     2.9800     2.4436    82.4122
  1634.6424    13.2525   113.8568    32.1005     2.9421     2.4121    82.8085
  1634.7948    13.2496   114.2480    32.4284     2.9126     2.3763    83.3048
  1634.9472    13.2949   114.7640    33.2736     2.8999     2.3656    83.7598
  1635.0996    13.3905   115.1341    33.6185     2.9017     2.3572    84.2055
  1635.2520    13.4645   116.2600    33.5592     2.8774     2.3377    84.6231
  1635.4044    13.5346   117.4883    33.8052     2.8415     2.3148    84.8824
  1635.5568    13.5990   117.9073    33.9934     2.8031     2.3005    84.9970
  1635.7092    13.6600   117.8999    33.8168     2.7718     2.2832    84.8453
  1635.8616    13.7163   117.7986    33.5286     2.7480     2.2740    84.6441
