~Version Information
VERS       .                                      2.0 : CWLS Log ASCII Standard -VERSION 2.0
WRAP       .                                       NO : One line per depth step
~Well Information
STRT       .M                                 66.2940 : START DEPTH
STOP       .M                               1955.9016 : STOP DEPTH
STEP       .M                                  0.1524 : STEP
NULL       .                                -999.2500 : NULL VALUE
COMP       .     W.G.S.                               : COMPANY
WELL       .     RESOLUTION 1                         : WELL
FLD        .     UNKNOWN                              : FIELD
LOC        .     UNKNOWN                              : LOCATION
CNTY       .     UNKNOWN                              : COUNTY
STAT       .     UNKNOWN                              : STATE
CTRY       .     UNKNOWN                              : COUNTRY
SRVC       .     UNKNOWN                              : SERVICE COMPANY
DATE       .     18/8/93                              : LOG DATE
UWI        .     UNKNOWN                              : UNIQUE WELL ID
API        .     UNKNOWN                              : API NUMBER
~Curve Information
#MNEMONIC   UNIT API CODE                             : CURVE DESCRIPTION
DEPT       .M    UNKNOWN                              : 1  DEPTH
CALI       .IN   UNKNOWN                              : 2  Caliper
DT         .US/F UNKNOWN                              : 3  Sonic
GR         .GAPI UNKNOWN                              : 4  Gamma Ray
LLD        .OHMM UNKNOWN                              : 5  Latero-Log Deep
LLS        .OHMM UNKNOWN                              : 6  Latero-Log Shallow
SP         .MV   UNKNOWN                              : 7  Spontaneous Potential
~Parameter Information
~Other Information
#***********************************************************
# This LAS file was created by Wiltshire Geological Services.
# The edit data contained herein are copyright property of
# Wiltshire Geological Services. The data are licensed to the
# purchasing company and subsidiaries worldwide, and are NOT
# for on-copying to third parties.  We place no restriction on
# the distribution of plots generated from the digital data.
#
# We supply the data on a 'best effort' basis.  We cannot
# control either the original data acquisition or the
# application of the data and therefore we cannot be held
# responsible for the consequences of any interpretations based
# on the data.  We urge purchasers to apply normal quality
# control procedures to the data before use for any quantitative
# interpretative procedures.
#***********************************************************
LOCN LAT:   44O 11' 16.9" S     WELL NAME: RESOLUTION 1
 LONG: 172O 38' 10.1" E
ELEVN SF: 64.3m   DATUM RT: 9.7m  STATUS: P & A
BASIN:  Canterbury  TOTAL D: 1963m  OPERATOR: BP Shell Todd
SPUD DATE: 1975   COMPLN DATE: 1975  PARTNERS:
TARGET:        LEASE:
         DRILLER:
DATA SOURCE: Log headers      RIG:

ENGINEERING DATA: HOLE AND CASING DATA:
26" hole to   ? m, 20" casing to 377m
17 1/2" hole to 1208.7m, 13 3/8" casing to 1213.3m
12 1/4" hole to 1963m TD

MUD PROPERTIES:
 at 1209m Type: FW Lignos SG: 1.20 Vis:  pH:    FL 11.0 ml
  Rm: 0.657 at 55 deg F Rmf: 0.459 at 55 deg F Rmc: 0.875 at 55 deg F
 at 1955m Type: FW Lignos SG:  Vis:  pH:    FL 5.0 ml
  Rm: 0.502 at 60 deg F Rmf: 0.393 at 56 deg F Rmc: 0.814 at 56 deg F

TEMPERATURES:
Logger's Depth         Temp                                  Log Type
         1209m              107 deg F                             DLL
         1955m              142 deg F                             DLL


~A
# ...
  1212.1896    15.0027   115.0000    76.5700     1.9064     1.6017    48.2857
  1212.3420    14.9094   115.0000    76.5860     2.1724     1.6561    48.4969
  1212.4944    14.8678   115.0000    77.1220     2.2241     1.7045    48.6165
  1212.6468    14.8058   137.8402    77.5850     2.3743     1.7212    48.6295
  1212.7992    14.6294   136.4477    76.9450     2.5820     1.7073    48.6358
  1212.9516    14.3733   141.0842    76.0970     2.6245     1.6632    48.7069
  1213.1040    14.1363   145.6857    75.8760     2.4877     1.6046    48.7535
  1213.2564    14.0268   153.3477    75.9550     2.3332     1.5501    48.7059
  1213.4088    14.1267   163.5179    76.0020     2.2212     1.5243    48.7053
  1213.5612    14.3263   165.2130    75.9900     2.1837     1.5169    48.7049
  1213.7136    14.5732   162.3822    74.7500     2.1630     1.5203    48.6259
  1213.8660    14.5105   159.7763    74.5060     2.0881     1.5329    48.6253
  1214.0184    14.2693   161.9737    51.2046     2.0126     1.5297    48.5934
  1214.1708    14.1347   165.9810    49.9182     2.0651     1.5370    48.5929
  1214.3232    14.1673   175.1142    48.7673     1.9912     1.5642    48.6032
  1214.4756    14.2688   171.6174    47.9843     1.9130     1.5221    48.6232
  1214.6280    14.4852   165.1845    47.1080     1.9872     1.4595    48.6698
  1214.7804    14.7588   159.4056    46.4910     2.0795     1.4396    48.6222
  1214.9328    14.8803   157.4113    46.9839     2.0693     1.4515    48.5612
  1215.0852    14.8571   156.1774    47.7214     1.9084     1.4738    48.4880
  1215.2376    14.8168   160.0829    48.3796     1.9104     1.5190    48.3599
  1215.3900    14.7956   160.1794    48.6402     2.0131     1.6062    48.2289
  1215.5424    14.7975   155.5663    48.4913     2.1195     1.6983    48.1047
  1215.6948    14.8094   154.2834    48.2936     2.2193     1.7308    48.0226
  1215.8472    14.8450   152.1406    48.1147     2.1845     1.6594    47.9268
  1215.9996    14.8919   151.5584    48.1424     2.1143     1.5729    47.9117
  1216.1520    14.9236   153.3009    48.0567     2.0456     1.5189    47.8642
  1216.3044    14.9266   153.8068    48.3951     1.9819     1.4591    47.8472
  1216.4568    14.9099   154.6764    48.1039     1.9365     1.4145    47.7490
  1216.6092    14.8774   154.3349    47.7978     1.9206     1.3890    47.7370
  1216.7616    14.8436   156.2937    48.1043     1.9364     1.3880    47.7365
  1216.9140    14.8135   161.4256    48.8144     1.9839     1.4285    47.7359
  1217.0664    14.7894   160.7916    49.3860     2.0463     1.4675    47.7577
  1217.2188    14.7716   161.7324    49.0835     2.0806     1.4812    47.8127
  1217.3712    14.8125   163.2363    48.9138     2.1016     1.4802    47.8128
  1217.5236    14.8821   163.0663    49.0304     2.1008     1.4874    47.7517
  1217.6760    14.9302   157.0154    49.3721     2.1073     1.5110    47.7333
  1217.8284    14.8900   148.1238    49.8405     2.1511     1.5269    47.7328
  1217.9808    14.8313   146.0541    49.8475     2.1684     1.5324    47.7794
  1218.1332    14.7822   144.0798    49.9181     2.2071     1.5381    47.7788
  1218.2856    14.7577   144.1231    49.7783     2.2475     1.5516    47.7783
  1218.4380    14.7541   142.9889    49.4694     2.3081     1.5816    47.7908
  1218.5904    14.7536   130.6241    48.9670     2.4444     1.6543    47.7515
  1218.7428    14.7583   123.5529    48.3512     2.6062     1.7554    47.7296
  1218.8952    14.7938   123.3337    48.7918     2.6973     1.8331    47.7191
  1219.0476    14.8248   127.0482    49.1025     2.4798     1.7352    47.6972
  1219.2000    14.8254   127.0050    48.4383     2.1309     1.5953    47.7281
  1219.3524    14.8097   128.9699    47.3801     1.9268     1.4884    47.6962
  1219.5048    14.7808   132.9773    46.7736     1.9252     1.4280    47.6485
  1219.6572    14.7484   135.1536    48.1418     1.9718     1.3907    47.6167
  1219.8096    14.7347   137.6893    49.0379     2.0780     1.4099    47.6161
  1219.9620    14.7772   145.6049    49.1054     2.2669     1.5095    47.6297
  1220.1144    14.8499   143.4455    49.4214     2.3815     1.6133    47.6464
  1220.2668    14.8688   140.8448    50.7030     2.4326     1.6778    47.6459
  1220.4192    14.8451   141.2203    51.2869     2.4548     1.6820    47.6454
  1220.5716    14.8211   143.9899    51.3731     2.4059     1.6529    47.6327
  1220.7240    14.8068   150.5292    52.5522     2.3243     1.6092    47.6444
  1220.8764    14.7902   150.5301    53.3065     2.2406     1.5521    47.6909
  1221.0288    14.7823   150.6662    52.5998     2.1501     1.4807    47.7194
  1221.1812    14.7810   154.0952    51.3599     2.0590     1.4123    47.7212
  1221.3336    14.7851   157.2716    51.1144     1.9824     1.3617    47.7678
  1221.4860    14.8039   158.3630    51.5609     1.9281     1.3518    47.7672
  1221.6384    14.8305   159.5804    51.3951     1.9665     1.3898    47.7123
  1221.7908    14.8462   160.1632    50.9860     2.0009     1.4101    47.6212
  1221.9432    14.8420   156.3099    50.5818     2.0347     1.4267    47.5587
  1222.0956    14.8227   149.9596    50.3241     2.0911     1.4478    47.5039
  1222.2480    14.8041   146.9809    49.9368     2.1896     1.4812    47.4508
  1222.4004    14.8012   144.8131    49.9392     2.3435     1.5329    47.4502
  1222.5528    14.8129   148.8896    51.1121     2.4812     1.6221    47.4629
  1222.7052    14.7883   144.5210    50.9190     2.6166     1.7564    47.4806
  1222.8576    14.7333   139.9098    50.7101     2.7637     1.8481    47.5271
  1223.0100    14.6950   115.9303    50.3074     2.6255     1.8041    47.6242
  1223.1624    14.6976   112.3812    49.3921     2.3205     1.6843    47.7197
  1223.3148    14.7147   112.3520    48.9159     2.1374     1.5575    47.8126
  1223.4672    14.7369   121.2480    49.2822     2.0631     1.4796    47.9094
  1223.6196    14.7690   131.1381    50.2253     2.0499     1.4959    47.9638
  1223.7720    14.8132   141.5267    51.4124     2.0522     1.5110    47.9947
  1223.9244    14.8472   138.1526    52.1901     2.0738     1.5171    47.9628
  1224.0768    14.8499   133.5595    50.5326     2.1289     1.5241    47.9623
  1224.2292    14.8089   132.3911    48.7889     2.2159     1.5682    47.9618
  1224.3816    14.7666   138.8658    48.1604     2.3213     1.6584    47.9297
  1224.5340    14.7355   138.4347    47.9291     2.4055     1.7180    47.8922
  1224.6864    14.7415   135.6383    47.8624     2.4176     1.7117    47.8490
  1224.8388    14.7765   137.6111    47.7739     2.3495     1.6315    47.7592
  1224.9912    14.8130   136.0851    47.0330     2.2387     1.5619    47.6625
  1225.1436    14.8338   135.1132    46.1400     2.1526     1.5062    47.5034
  1225.2960    14.8343   136.9601    45.4634     2.1172     1.4729    47.4013
  1225.4484    14.8208   141.1209    45.4564     2.1513     1.4771    47.3612
  1225.6008    14.8010   139.7466    46.5455     2.2074     1.4976    47.3607
  1225.7532    14.7797   133.9082    47.5142     2.2703     1.5425    47.3601
  1225.9056    14.7644   131.1852    48.3758     2.3552     1.6030    47.3596
  1226.0580    14.7556   131.8554    49.0672     2.4643     1.6607    47.3905
  1226.2104    14.7608   133.0806    49.7176     2.5685     1.6918    47.4370
  1226.3628    14.7694   125.6884    49.9238     2.6794     1.7426    47.4679
  1226.5152    14.7850   121.2942    49.6699     2.7830     1.8086    47.5521
  1226.6676    14.7943   119.2139    50.1684     2.8615     1.8421    47.6487
  1226.8200    14.8044   119.2782    50.4206     2.7201     1.7993    47.7416
  1226.9724    14.8139   120.7248    49.7489     2.6464     1.7646    47.8384
  1227.1248    14.8188   121.9720    48.6680     2.6716     1.7717    47.9919
  1227.2772    14.8003   126.8710    47.6385     2.7403     1.8091    48.1377
  1227.4296    14.6930   126.6651    46.6899     2.7585     1.8287    48.2385
  1227.5820    14.4143   127.1213    46.6185     2.6759     1.7940    48.3298
  1227.7344    13.4588   130.6378    46.6728     2.5747     1.7518    48.2942
