~Version Information
VERS       .                                      2.0 : CWLS Log ASCII Standard -VERSION 2.0
WRAP       .                                       NO : One line per depth step
~Well Information
STRT       .M                                 66.2940 : START DEPTH
STOP       .M                               1955.9016 : STOP DEPTH
STEP       .M                                  0.1524 : STEP
NULL       .                                -999.2500 : NULL VALUE
COMP       .     W.G.S.                               : COMPANY
WELL       .     RESOLUTION 1                         : WELL
FLD        .     UNKNOWN                              : FIELD
LOC        .     UNKNOWN                              : LOCATION
CNTY       .     UNKNOWN                              : COUNTY
STAT       .     UNKNOWN                              : STATE
CTRY       .     UNKNOWN                              : COUNTRY
SRVC       .     UNKNOWN                              : SERVICE COMPANY
DATE       .     18/8/93                              : LOG DATE
UWI        .     UNKNOWN                              : UNIQUE WELL ID
API        .     UNKNOWN                              : API NUMBER
~Curve Information
#MNEMONIC   UNIT API CODE                             : CURVE DESCRIPTION
DEPT       .M    UNKNOWN                              : 1  DEPTH
CALI       .IN   UNKNOWN                              : 2  Caliper
DT         .US/F UNKNOWN                              : 3  Sonic
GR         .GAPI UNKNOWN                              : 4  Gamma Ray
LLD        .OHMM UNKNOWN                              : 5  Latero-Log Deep
LLS        .OHMM UNKNOWN                              : 6  Latero-Log Shallow
SP         .MV   UNKNOWN                              : 7  Spontaneous Potential
~Parameter Information
~Other Information
#***********************************************************
# This LAS file was created by Wiltshire Geological Services.
# The edit data contained herein are copyright property of
# Wiltshire Geological Services. The data are licensed to the
# purchasing company and subsidiaries worldwide, and are NOT
# for on-copying to third parties.  We place no restriction on
# the distribution of plots generated from the digital data.
#
# We supply the data on a 'best effort' basis.  We cannot
# control either the original data acquisition or the
# application of the data and therefore we cannot be held
# responsible for the consequences of any interpretations based
# on the data.  We urge purchasers to apply normal quality
# control procedures to the data before use for any quantitative
# interpretative procedures.
#***********************************************************
LOCN LAT:   44O 11' 16.9" S     WELL NAME: RESOLUTION 1
 LONG: 172O 38' 10.1" E
ELEVN SF: 64.3m   DATUM RT: 9.7m  STATUS: P & A
BASIN:  Canterbury  TOTAL D: 1963m  OPERATOR: BP Shell Todd
SPUD DATE: 1975   COMPLN DATE: 1975  PARTNERS:
TARGET:        LEASE:
         DRILLER:
DATA SOURCE: Log headers      RIG:

ENGINEERING DATA: HOLE AND CASING DATA:
26" hole to   ? m, 20" casing to 377m
17 1/2" hole to 1208.7m, 13 3/8" casing to 1213.3m
12 1/4" hole to 1963m TD

MUD PROPERTIES:
 at 1209m Type: FW Lignos SG: 1.20 Vis:  pH:    FL 11.0 ml
  Rm: 0.657 at 55 deg F Rmf: 0.459 at 55 deg F Rmc: 0.875 at 55 deg F
 at 1955m Type: FW Lignos SG:  Vis:  pH:    FL 5.0 ml
  Rm: 0.502 at 60 deg F Rmf: 0.393 at 56 deg F Rmc: 0.814 at 56 deg F

TEMPERATURES:
Logger's Depth         Temp                                  Log Type
         1209m              107 deg F                             DLL
         1955m              142 deg F                             DLL


~A
# ...
   380.2380    18.0286   120.4241    43.3396     2.9278     4.9473    15.8890
   380.3904    18.0177   120.5768    42.5932     2.9801     4.9608    14.8273
   380.5428    18.0730   120.3797    41.2335     3.0002     4.9803    13.9143
   380.6952    18.0955   120.0340    39.6556     3.0216     5.0362    12.9868
   380.8476    18.0715   119.6562    38.0666     3.1654     5.1169    11.9124
   381.0000    17.9994   119.1836    37.5285     3.2702     5.2035    10.8073
   381.1524    18.0977   119.3926    38.0197     3.3107     5.2972     9.7191
   381.3048    18.3327   119.6805    38.8674     3.3736     5.3652     8.5926
   381.4572    18.5456   119.3993    38.4667     3.5827     5.3985     7.6895
   381.6096    18.5220   118.8321    37.0679     3.7197     5.3111     6.8824
   381.7620    18.6941   118.1398    37.3705     3.7480     5.2180     6.2174
   381.9144    18.7112   117.6928    38.8905     3.7544     5.1592     5.6817
   382.0668    18.7369   117.1127    40.0671     3.7425     5.1206     5.2747
   382.2192    18.7794   116.9669    40.0343     3.6919     5.1022     5.1730
   382.3716    18.8483   116.9652    39.7752     3.9880     5.1166     5.0773
   382.5240    18.9626   116.9566    40.1918     4.3757     5.1479     5.1346
   382.6764    18.9426   117.1689    40.7957     4.5367     5.2072     5.4102
   382.8288    18.7864   117.6268    41.4648     4.6103     5.2576     5.8254
   382.9812    18.8003   118.2771    42.5342     4.7139     5.2725     6.5074
   383.1336    18.9613   118.8857    43.9417     4.8964     5.2399     7.2003
   383.2860    19.0681   119.1757    42.3222     5.1244     5.1974     7.9062
   383.4384    19.1483   118.9582    40.2274     5.2879     5.1588     8.3433
   383.5908    19.2093   118.5434    39.0890     5.4779     5.1200     8.4188
   383.7432    19.3002   118.2551    39.6088     5.7523     5.1108     7.9937
   383.8956    19.4342   118.4550    40.4681     6.0914     5.1234     6.9146
   384.0480    19.5709   118.3085    40.4884     6.3445     5.1236     5.6835
   384.2004    19.6910   117.6135    40.3637     6.5701     5.1062     4.5183
   384.3528    19.4584   116.7343    39.1295     6.7872     5.0417     3.4522
   384.5052    18.9692   115.8715    37.9674     6.9123     4.9686     2.5228
   384.6576    18.8881   115.0986    37.8886     6.9030     4.8935     1.5948
   384.8100    18.9519   114.9850    38.1680     6.8528     4.8256     0.7681
   384.9624    19.5228   115.4120    38.2072     6.7953     4.7623     0.3363
   385.1148    20.0037   116.0893    38.5781     6.7446     4.7079    -0.1313
   385.2672    20.6653   116.6389    39.7797     6.6975     4.6704    -0.4760
   385.4196    20.5700   116.9729    40.8599     6.6724     4.6410    -0.5759
   385.5720    20.5049   117.1867    40.6898     6.6643     4.6246    -0.4914
   385.7244    20.3082   117.4082    39.8965     6.6572     4.6088    -0.2645
   385.8768    20.1755   117.7142    39.4778     6.6936     4.5928     0.0527
   386.0292    19.9730   118.3025    40.9524     6.7513     4.5808     0.3691
   386.1816    19.6388   119.4185    41.2548     6.8146     4.6039     0.4426
   386.3340    19.3225   120.7028    40.4437     6.8719     4.6026     0.2433
   386.4864    18.9441   124.5811    39.9276     6.9358     4.5596    -0.1709
   386.6388    19.0470   138.7855    40.8758     6.9843     4.4568    -0.6416
   386.7912    19.3079   161.6312    41.7479     6.9522     4.3269    -1.0997
   386.9436    19.2710   178.6364    42.5754     6.8630     4.2061    -1.5992
   387.0960    19.3596   197.2675    43.3748     6.7403     4.0930    -1.9624
   387.2484    19.9502   200.8055    43.4677     6.5984     3.9969    -2.1117
   387.4008    20.9317   201.1710    43.1453     6.4537     3.9174    -1.9897
   387.5532    20.8067   200.6566    42.5264     6.3044     3.8463    -1.6967
   387.7056    20.7495   199.9092    42.4588     6.1905     3.7752    -1.3687
   387.8580    20.6157   199.0764    43.1365     6.1010     3.7230    -0.9595
   388.0104    20.4109   198.2433    44.1071     6.0602     3.7669    -0.5093
   388.1628    20.1544   197.0580    44.9768     6.0091     3.8764    -0.1314
   388.3152    19.9720   195.3374    45.8154     6.0209     4.0230     0.1361
   388.4676    20.5611   193.0532    48.5092     6.0846     4.0088     0.3254
   388.6200    21.6525   190.0991    52.4007     6.2718     3.9919     0.3507
   388.7724    22.2029   186.1320    57.3751     6.5699     4.1297     0.2984
   388.9248    22.3771   179.2051    64.1415     6.8993     4.3441     0.1412
   389.0772    22.3767   176.9833    68.8366     7.2973     4.5374    -0.1025
   389.2296    22.3144   174.3507    69.3692     7.5790     4.8007    -0.4491
   389.3820    22.1649   168.2203    67.9491     7.6427     4.9658    -0.8419
   389.5344    21.9056   165.4011    70.2000     7.5957     4.9929    -1.4008
   389.6868    21.4570   166.0568    70.0868     7.5071     4.9892    -2.0277
   389.8392    21.0232   165.5114    68.7299     7.4508     4.9723    -2.6564
   389.9916    20.8277   165.4056    67.6546     7.4279     4.9710    -3.3321
   390.1440    20.7928   165.5734    68.0637     7.4311     4.9959    -3.9729
   390.2964    20.7421   166.0309    69.2973     7.4520     5.0223    -4.5142
   390.4488    20.6604   166.6620    70.0319     7.4817     5.0530    -4.7545
   390.6012    20.5346   167.1776    69.5004     7.5003     5.1286    -4.9204
   390.7536    20.3849   167.1620    68.5665     7.5058     5.2234    -4.9364
   390.9060    20.1815   166.9701    67.3406     7.4974     5.3416    -4.7345
   391.0584    20.0062   166.8339    65.5115     7.4857     5.4639    -4.3968
   391.2108    20.0576   166.9279    66.6819     7.4546     5.5409    -3.9370
   391.3632    20.1224   167.2660    68.1628     7.3982     5.5029    -3.3452
   391.5156    20.1561   167.5233    67.8033     7.2939     5.3283    -2.5355
   391.6680    20.1298   166.5015    66.9083     7.1938     5.1352    -1.5826
   391.8204    20.0798   164.7617    66.4482     7.1889     4.9373    -0.7346
   391.9728    20.0433   165.6507    66.7793     7.1521     4.7569    -0.0113
   392.1252    19.9539   169.7483    67.4744     6.9773     4.5974     0.4092
   392.2776    19.9028   171.8854    67.5359     6.7975     4.4488     0.6133
   392.4300    19.9641   170.0702    67.1772     6.6483     4.3529     0.6944
   392.5824    19.9604   167.2883    67.7053     6.5759     4.3349     0.6646
   392.7348    19.9216   169.2762    66.8048     6.5784     4.3276     0.5498
   392.8872    19.9029   168.0833    65.0405     6.6293     4.3557     0.3286
   393.0396    20.1189   166.8665    63.3409     6.6478     4.4142     0.0120
   393.1920    20.2902   166.4784    62.5269     6.6615     4.4831    -0.3854
   393.3444    20.4350   169.3457    62.8093     6.6904     4.5461    -0.7829
   393.4968    20.6216   176.2624    63.3943     6.7179     4.6069    -1.1174
   393.6492    20.8898   180.1254    64.4381     6.7830     4.6688    -1.4020
   393.8016    21.2330   181.8729    65.9054     6.8577     4.7201    -1.4877
   393.9540    21.5051   178.8529    67.5857     6.9451     4.7881    -1.5251
   394.1064    21.6560   174.9287    69.1821     6.9919     4.8502    -1.5932
   394.2588    21.8057   170.8231    71.1884     7.0003     4.8821    -1.6335
   394.4112    21.8166   167.0550    72.5853     6.9884     4.9186    -1.6787
   394.5636    21.4771   162.5224    72.6832     6.9761     4.9332    -1.8133
   394.7160    20.9528   162.6819    71.1238     6.9655     4.9269    -1.9378
   394.8684    20.4494   165.0815    69.5164     6.9196     4.9068    -2.1281
   395.0208    19.9866   164.8658    69.5667     6.8510     4.8770    -2.4273
   395.1732    19.5605   165.0464    69.8676     6.7977     4.8353    -2.7243
   395.3256    19.5712   165.0273    68.8224     6.7742     4.7820    -2.8212
   395.4780    19.7168   165.1789    68.2082     6.7594     4.7196    -2.8003
   395.6304    19.8378   166.9433    69.1474     6.6941     4.6660    -2.6544
   395.7828    19.8979   170.0329    69.1117     6.6077     4.6196    -2.4147
