~Version Information
VERS       .                                      2.0 : CWLS Log ASCII Standard -VERSION 2.0
WRAP       .                                       NO : One line per depth step
~Well Information
STRT       .M                                 66.2940 : START DEPTH
STOP       .M                               1955.9016 : STOP DEPTH
STEP       .M                                  0.1524 : STEP
NULL       .                                -999.2500 : NULL VALUE
COMP       .     W.G.S.                               : COMPANY
WELL       .     RESOLUTION 1                         : WELL
FLD        .     UNKNOWN                              : FIELD
LOC        .     UNKNOWN                              : LOCATION
CNTY       .     UNKNOWN                              : COUNTY
STAT       .     UNKNOWN                              : STATE
CTRY       .     UNKNOWN                              : COUNTRY
SRVC       .     UNKNOWN                              : SERVICE COMPANY
DATE       .     18/8/93                              : LOG DATE
UWI        .     UNKNOWN                              : UNIQUE WELL ID
API        .     UNKNOWN                              : API NUMBER
~Curve Information
#MNEMONIC   UNIT API CODE                             : CURVE DESCRIPTION
DEPT       .M    UNKNOWN                              : 1  DEPTH
CALI       .IN   UNKNOWN                              : 2  Caliper
DT         .US/F UNKNOWN                              : 3  Sonic
GR         .GAPI UNKNOWN                              : 4  Gamma Ray
LLD        .OHMM UNKNOWN                              : 5  Latero-Log Deep
LLS        .OHMM UNKNOWN                              : 6  Latero-Log Shallow
SP         .MV   UNKNOWN                              : 7  Spontaneous Potential
~Parameter Information
~Other Information
#***********************************************************
# This LAS file was created by Wiltshire Geological Services.
# The edit data contained herein are copyright property of
# Wiltshire Geological Services. The data are licensed to the
# purchasing company and subsidiaries worldwide, and are NOT
# for on-copying to third parties.  We place no restriction on
# the distribution of plots generated from the digital data.
#
# We supply the data on a 'best effort' basis.  We cannot
# control either the original data acquisition or the
# application of the data and therefore we cannot be held
# responsible for the consequences of any interpretations based
# on the data.  We urge purchasers to apply normal quality
# control procedures to the data before use for any quantitative
# interpretative procedures.
#***********************************************************
LOCN LAT:   44O 11' 16.9" S     WELL NAME: RESOLUTION 1
 LONG: 172O 38' 10.1" E
ELEVN SF: 64.3m   DATUM RT: 9.7m  STATUS: P & A
BASIN:  Canterbury  TOTAL D: 1963m  OPERATOR: BP Shell Todd
SPUD DATE: 1975   COMPLN DATE: 1975  PARTNERS:
TARGET:        LEASE:
         DRILLER:
DATA SOURCE: Log headers      RIG:

ENGINEERING DATA: HOLE AND CASING DATA:
26" hole to   ? m, 20" casing to 377m
17 1/2" hole to 1208.7m, 13 3/8" casing to 1213.3m
12 1/4" hole to 1963m TD

MUD PROPERTIES:
 at 1209m Type: FW Lignos SG: 1.20 Vis:  pH:    FL 11.0 ml
  Rm: 0.657 at 55 deg F Rmf: 0.459 at 55 deg F Rmc: 0.875 at 55 deg F
 at 1955m Type: FW Lignos SG:  Vis:  pH:    FL 5.0 ml
  Rm: 0.502 at 60 deg F Rmf: 0.393 at 56 deg F Rmc: 0.814 at 56 deg F

TEMPERATURES:
Logger's Depth         Temp                                  Log Type
         1209m              107 deg F                             DLL
         1955m              142 deg F                             DLL


~A
# ...
  1934.2608    14.2386    61.3123    57.2233   228.1001  1657.4144    75.6369
  1934.4132    14.2056    61.5476    56.3742   211.4492   538.8253    75.5512
  1934.5656    14.1772    61.7247    55.5198   195.5522   413.0509    75.3393
  1934.7180    14.1692    62.0850    54.3781   184.1553   376.0959    74.9328
  1934.8704    14.1479    62.2863    54.2848   180.6524   365.9789    74.4781
  1935.0228    14.1079    62.1908    55.4727   176.6697   361.0039    74.0449
  1935.1752    14.0638    61.7783    55.5121   170.5486   322.6291    73.6711
  1935.3276    14.0142    61.3640    54.5620   164.3987   271.2197    73.4027
  1935.4800    13.9699    61.0690    53.9208   157.5206   229.3991    73.0841
  1935.6324    13.9156    61.3436    53.4169   149.8103   200.0290    72.8890
  1935.7848    13.8716    61.9156    52.8149   140.0208   173.1773    72.7102
  1935.9372    13.8474    62.3704    52.5463   132.5860   153.2100    72.6130
  1936.0896    13.8363    62.3479    52.7939   124.8952   139.7681    72.4493
  1936.2420    13.8292    61.9993    52.7041   118.8742   130.5785    72.2906
  1936.3944    13.8233    61.5629    52.4701   121.5813   135.1230    72.1753
  1936.5468    13.7915    61.0163    51.5268   127.4508   149.5218    72.1682
  1936.6992    13.7393    61.1354    50.9054   134.9291   159.0825    72.2551
  1936.8516    13.6802    62.4992    52.0017   137.2074   146.5427    72.3866
  1937.0040    13.6213    63.4640    53.6377   126.7048   129.1040    72.6272
  1937.1564    13.5892    64.0759    55.0611   116.7014   114.2644    72.9248
  1937.3088    13.5879    64.2376    55.9873   109.2763    99.7803    73.2125
  1937.4612    13.5996    63.8781    57.2869   104.1396    88.1490    73.5611
  1937.6136    13.6287    63.4405    56.5392   100.0993    80.3582    73.7685
  1937.7660    13.6607    62.6531    55.1725    97.3034    76.6001    73.8464
  1937.9184    13.6765    61.9379    53.3116    93.9902    73.3462    73.7381
  1938.0708    13.6592    61.3911    51.0518    90.7265    69.0962    73.7080
  1938.2232    13.6353    61.3305    48.1781    87.5071    64.7846    73.7167
  1938.3756    13.6060    61.0664    45.5217    84.3190    60.9253    73.7616
  1938.5280    13.6045    60.9167    43.4426    80.2037    56.8788    73.7493
  1938.6804    13.6156    60.9187    41.1910    74.3603    51.6012    73.7176
  1938.8328    13.6259    61.0491    39.1329    67.3228    45.4161    73.6309
  1938.9852    13.6533    61.1094    37.1245    59.9593    36.4462    73.4837
  1939.1376    13.6790    61.0731    35.1386    52.4085    30.0870    73.2833
  1939.2900    13.6897    60.3954    33.1921    45.2003    26.5784    73.1334
  1939.4424    13.6693    59.6869    31.9151    40.3625    24.5332    72.8949
  1939.5948    13.6569    59.9352    31.0667    35.8558    22.3928    72.6339
  1939.7472    13.6524    60.8787    31.2831    30.4684    19.0621    72.4295
  1939.8996    13.6444    61.9181    32.6972    26.8007    17.1565    72.3357
  1940.0520    13.6422    62.8631    34.1600    25.5575    16.9400    72.3543
  1940.2044    13.6456    63.4464    35.2692    25.2967    17.2376    72.5509
  1940.3568    13.6474    63.7482    35.9287    26.0144    17.9960    73.1222
  1940.5092    13.6499    63.5528    36.1499    27.5198    19.1527    73.7080
  1940.6616    13.6579    62.8427    36.2716    30.1697    20.6511    73.8410
  1940.8140    13.6691    62.0045    36.7458    33.4769    22.3095    73.6927
  1940.9664    13.6744    61.5907    37.5299    36.9301    24.3161    73.3727
  1941.1188    13.6620    60.9464    38.0188    40.0153    25.8765    72.9836
  1941.2712    13.6408    60.4906    38.2816    41.9517    26.9058    72.6753
  1941.4236    13.6177    60.6469    38.6976    42.1286    26.4124    72.4513
  1941.5760    13.5876    61.2834    38.4394    40.9376    25.0558    72.3954
  1941.7284    13.5610    62.9332    37.6237    38.7276    23.2477    72.4529
  1941.8808    13.5392    63.9852    37.0765    35.5150    21.4076    72.5482
  1942.0332    13.5290    63.7707    36.3761    32.1132    19.5379    72.7292
  1942.1856    13.5174    63.9280    36.0241    30.9371    18.8306    72.9847
  1942.3380    13.5122    63.4510    38.2227    33.2311    20.0788    73.3785
  1942.4904    13.4936    62.8633    42.7934    37.6591    22.1259    73.4005
  1942.6428    13.4755    61.8321    47.3374    42.9958    24.4773    73.0628
  1942.7952    13.4414    61.6589    51.3205    49.4825    27.3403    72.8851
  1942.9476    13.4185    61.5714    54.1267    55.9152    31.0995    73.1800
  1943.1000    13.4162    60.9142    56.0915    62.7320    35.6315    73.5516
  1943.2524    13.4195    60.2011    56.2268    69.8807    41.1386    73.8590
  1943.4048    13.4293    60.0262    54.7120    76.7233    45.7501    74.0152
  1943.5572    13.4495    60.2921    53.2597    79.0893    46.6683    74.3653
  1943.7096    13.4651    60.6544    51.7696    75.2085    42.5160    74.8719
  1943.8620    13.4852    61.0398    49.9549    68.1947    38.2144    75.4574
  1944.0144    13.5050    61.4721    47.4226    62.0003    34.4667    75.9740
  1944.1668    13.5335    61.6555    44.4449    58.1879    31.1927    76.1426
  1944.3192    13.5485    61.3091    42.3003    54.9191    28.7702    75.8399
  1944.4716    13.5453    60.9226    40.9286    51.8242    27.4456    75.4342
  1944.6240    13.5294    60.5307    39.7034    49.5266    26.1149    75.1922
  1944.7764    13.5298    60.5547    38.3264    46.9680    24.9170    75.2643
  1944.9288    13.5514    61.3358    36.6362    44.3358    23.6463    75.5536
  1945.0812    13.6002    62.4246    34.7780    40.8874    21.6599    75.9951
  1945.2336    13.6569    63.5879    33.2301    36.5375    19.8506    76.4969
  1945.3860    13.6989    64.6476    32.0082    32.4923    17.5351    76.9207
  1945.5384    13.7149    65.5766    31.6666    28.8191    15.1677    77.1160
  1945.6908    13.7063    66.2918    31.0034    25.7257    13.3598    76.5921
  1945.8432    13.6869    65.8859    30.5242    23.3427    12.2574    76.1430
  1945.9956    13.6941    65.1362    30.0588    21.7438    11.6469    75.8874
  1946.1480    13.7095    64.3379    29.2765    20.7747    10.9929    76.1706
  1946.3004    13.7379    63.7331    28.2919    20.2158    10.5889    76.6450
  1946.4528    13.7729    63.3455    27.6329    19.6974    10.6960    77.1246
  1946.6052    13.8032    63.0858    27.2336    19.5901    10.7029    77.3935
  1946.7576    13.8226    62.6925    26.6508    19.8019    10.9816    77.5515
  1946.9100    13.8349    62.4194    26.0753    20.2773    11.7002    77.3008
  1947.0624    13.8155    62.3878    26.0123    20.7685    12.4279    76.6013
  1947.2148    13.8035    61.9266    26.3997    21.8052    13.1955    75.9846
  1947.3672    13.7896    60.8512    27.2874    22.8379    13.7316    75.5207
  1947.5196    13.8528    59.9456    28.5949    24.1897    13.8252    75.2927
  1947.6720    13.9497    59.4112    29.0264    25.5847    13.6753    75.4709
  1947.8244    14.0055    59.9125    29.6667    25.3223    13.2685    75.7365
  1947.9768    14.0691    60.1911    29.3843    24.2938    12.8311    75.8927
  1948.1292    14.0983    60.2729    28.5556    23.5673    13.3652    75.8542
  1948.2816    14.0576    60.7156    28.8302    23.9482    14.4131    75.6771
  1948.4340    14.0208    60.5816    29.6274    25.4036    15.1251    75.5801
  1948.5864    14.0018    59.5314    30.1527    27.2300    15.7522    75.6759
  1948.7388    13.9935    58.6181    30.1978    29.8954    16.8586    75.7900
  1948.8912    14.0076    58.1116    29.6962    32.3950    18.2690    76.1028
  1949.0436    14.0132    57.9608    29.0567    33.3416    18.9248    76.5036
  1949.1960    14.0100    57.9689    28.6286    35.3459    18.1248    76.8853
  1949.3484    13.9946    58.3784    28.4942    37.8513    19.4914    77.0783
  1949.5008    13.9516    57.8043    28.6162    40.9937    21.1225    76.9333
  1949.6532    13.8581    57.7357    28.8242    44.6273    23.1089    76.5415
  1949.8056    13.6888    58.3249    29.0090    49.0217    25.2699    76.1255
