~Version Information
VERS       .                                      2.0 : CWLS Log ASCII Standard -VERSION 2.0
WRAP       .                                       NO : One line per depth step
~Well Information
STRT       .M                                 66.2940 : START DEPTH
STOP       .M                               1955.9016 : STOP DEPTH
STEP       .M                                  0.1524 : STEP
NULL       .                                -999.2500 : NULL VALUE
COMP       .     W.G.S.                               : COMPANY
WELL       .     RESOLUTION 1                         : WELL
FLD        .     UNKNOWN                              : FIELD
LOC        .     UNKNOWN                              : LOCATION
CNTY       .     UNKNOWN                              : COUNTY
STAT       .     UNKNOWN                              : STATE
CTRY       .     UNKNOWN                              : COUNTRY
SRVC       .     UNKNOWN                              : SERVICE COMPANY
DATE       .     18/8/93                              : LOG DATE
UWI        .     UNKNOWN                              : UNIQUE WELL ID
API        .     UNKNOWN                              : API NUMBER
~Curve Information
#MNEMONIC   UNIT API CODE                             : CURVE DESCRIPTION
DEPT       .M    UNKNOWN                              : 1  DEPTH
CALI       .IN   UNKNOWN                              : 2  Caliper
DT         .US/F UNKNOWN                              : 3  Sonic
GR         .GAPI UNKNOWN                              : 4  Gamma Ray
LLD        .OHMM UNKNOWN                              : 5  Latero-Log Deep
LLS        .OHMM UNKNOWN                              : 6  Latero-Log Shallow
SP         .MV   UNKNOWN                              : 7  Spontaneous Potential
~Parameter Information
~Other Information
#***********************************************************
# This LAS file was created by Wiltshire Geological Services.
# The edit data contained herein are copyright property of
# Wiltshire Geological Services. The data are licensed to the
# purchasing company and subsidiaries worldwide, and are NOT
# for on-copying to third parties.  We place no restriction on
# the distribution of plots generated from the digital data.
#
# We supply the data on a 'best effort' basis.  We cannot
# control either the original data acquisition or the
# application of the data and therefore we cannot be held
# responsible for the consequences of any interpretations based
# on the data.  We urge purchasers to apply normal quality
# control procedures to the data before use for any quantitative
# interpretative procedures.
#***********************************************************
LOCN LAT:   44O 11' 16.9" S     WELL NAME: RESOLUTION 1
 LONG: 172O 38' 10.1" E
ELEVN SF: 64.3m   DATUM RT: 9.7m  STATUS: P & A
BASIN:  Canterbury  TOTAL D: 1963m  OPERATOR: BP Shell Todd
SPUD DATE: 1975   COMPLN DATE: 1975  PARTNERS:
TARGET:        LEASE:
         DRILLER:
DATA SOURCE: Log headers      RIG:

ENGINEERING DATA: HOLE AND CASING DATA:
26" hole to   ? m, 20" casing to 377m
17 1/2" hole to 1208.7m, 13 3/8" casing to 1213.3m
12 1/4" hole to 1963m TD

MUD PROPERTIES:
 at 1209m Type: FW Lignos SG: 1.20 Vis:  pH:    FL 11.0 ml
  Rm: 0.657 at 55 deg F Rmf: 0.459 at 55 deg F Rmc: 0.875 at 55 deg F
 at 1955m Type: FW Lignos SG:  Vis:  pH:    FL 5.0 ml
  Rm: 0.502 at 60 deg F Rmf: 0.393 at 56 deg F Rmc: 0.814 at 56 deg F

TEMPERATURES:
Logger's Depth         Temp                                  Log Type
         1209m              107 deg F                             DLL
         1955m              142 deg F                             DLL


~A
# ...
   584.3016    22.3306   151.6577    47.2496     3.0465     2.1652     9.7316
   584.4540    22.3759   155.5683    46.2692     3.1129     2.2450    10.1348
   584.6064    22.3973   152.3759    45.5934     3.0876     2.2689    10.6136
   584.7588    22.3986   148.0153    45.7409     2.9232     2.1794    11.2784
   584.9112    22.3794   146.1031    46.8528     2.7519     2.0671    11.6801
   585.0636    22.3285   145.9457    49.1306     2.6248     1.9743    11.7560
   585.2160    22.2609   143.2619    51.3194     2.6665     1.9367    11.7094
   585.3684    22.1613   140.5288    53.5980     2.8306     1.9751    11.5549
   585.5208    22.0321   131.9506    56.0253     2.9122     2.0598    11.3198
   585.6732    21.9316   129.1947    57.3543     2.8066     2.1381    11.0262
   585.8256    22.0887   135.3620    56.1670     2.7041     2.0721    10.6176
   585.9780    22.2604   143.7674    55.0074     2.6112     1.9694    10.1686
   586.1304    22.3678   158.9755    53.7488     2.5485     1.8865     9.6808
   586.2828    22.3821   169.1225    51.7052     2.5104     1.8298     9.1917
   586.4352    22.3674   173.9931    49.6230     2.5092     1.8028     8.7489
   586.5876    22.3653   169.4187    48.5138     2.5245     1.8033     8.4590
   586.7400    22.3639   160.7848    47.8329     2.5351     1.8258     8.2043
   586.8924    22.3593   154.0849    48.2646     2.5487     1.8463     8.1073
   587.0448    22.3550   156.3886    48.6659     2.5625     1.8591     8.1530
   587.1972    22.3490   160.1806    49.1072     2.5662     1.8677     8.2626
   587.3496    22.3496   155.3992    50.0266     2.5628     1.8697     8.4679
   587.5020    22.3546   147.8739    51.6234     2.5524     1.8681     8.7459
   587.6544    22.3660   144.4336    53.4147     2.5365     1.8601     8.9593
   587.8068    22.3801   146.4728    54.7596     2.5393     1.8538     9.0271
   587.9592    22.3929   146.5663    54.3421     2.5564     1.8709     9.0492
   588.1116    22.4127   145.0317    53.0148     2.5928     1.8981     8.9596
   588.2640    22.4211   143.9529    52.1057     2.6288     1.9288     8.7253
   588.4164    22.4096   143.1749    52.1373     2.6679     1.9662     8.5159
   588.5688    22.3866   144.1625    53.2885     2.7076     2.0150     8.3756
   588.7212    22.3388   143.9493    54.2208     2.7471     2.0581     8.3113
   588.8736    22.2318   141.9974    54.9093     2.7798     2.0988     8.3776
   589.0260    22.0349   141.2331    56.0566     2.8233     2.1456     8.5684
   589.1784    21.7056   142.2380    57.4543     2.8551     2.1917     8.7827
   589.3308    21.2594   144.4133    58.6633     2.8881     2.2234     9.0880
   589.4832    21.0032   146.3387    59.4614     2.9276     2.2406     9.5112
   589.6356    21.0790   144.6076    59.4882     2.9731     2.2170     9.9959
   589.7880    21.1311   145.1770    59.2686     2.9717     2.1638    10.3705
   589.9404    21.1579   143.9171    58.9681     2.8986     2.1056    10.5737
   590.0928    21.5259   140.6234    58.4635     2.8082     2.0430    10.5995
   590.2452    21.9577   140.7320    57.6004     2.7245     1.9773    10.4849
   590.3976    22.3993   140.0743    57.2178     2.6675     1.9268    10.1977
   590.5500    22.4474   140.0618    57.2166     2.6295     1.8970     9.9063
   590.7024    22.4307   141.2157    56.0551     2.5950     1.8771     9.4899
   590.8548    22.4061   143.5197    54.2461     2.5643     1.8783     9.0399
   591.0072    22.3885   148.1532    52.2380     2.5512     1.8756     8.5374
   591.1596    22.3761   154.2162    50.7061     2.5544     1.8774     7.9892
   591.3120    22.3644   159.8933    50.1024     2.5621     1.8840     7.4513
   591.4644    22.3619   158.8351    50.2672     2.5700     1.8979     7.2178
   591.6168    22.3626   149.3946    50.2151     2.5701     1.9144     7.1494
   591.7692    22.3649   145.7436    50.1878     2.5594     1.9117     7.3213
   591.9216    22.3706   147.9688    50.6686     2.5431     1.9029     7.7460
   592.0740    22.3801   150.0901    51.8431     2.5382     1.8943     8.2180
   592.2264    22.3940   147.5113    52.9725     2.5513     1.8899     8.7022
   592.3788    22.4123   144.7480    53.8331     2.5769     1.8905     9.1929
   592.5312    22.4281   141.0540    53.1630     2.6262     1.9082     9.6722
   592.6836    22.4398   140.4250    50.9652     2.6759     1.9425    10.1898
   592.8360    22.4432   142.2479    50.4498     2.6740     1.9487    10.7142
   592.9884    22.4486   144.2468    50.4241     2.6043     1.8819    11.1767
   593.1408    22.4431   145.9117    50.9822     2.5206     1.8255    11.3983
   593.2932    22.4360   145.1343    51.7886     2.5173     1.7919    11.5083
   593.4456    22.4284   147.3369    53.5466     2.4927     1.7919    11.4379
   593.5980    22.4161   151.3042    52.6401     2.4461     1.7752    11.2698
   593.7504    22.3976   156.7825    50.3654     2.3805     1.7310    11.0846
   593.9028    22.3826   153.3801    48.2719     2.3220     1.6794    10.8731
   594.0552    22.3661   150.0201    47.5383     2.2801     1.6402    10.6106
   594.2076    22.3506   155.4378    48.3619     2.2930     1.6269    10.2073
   594.3600    22.3451   164.0171    49.8570     2.3331     1.6761     9.7629
   594.5124    22.3431   160.3796    52.1362     2.3884     1.7426     9.3513
   594.6648    22.3464   153.5423    55.9003     2.4629     1.8084     8.9090
   594.8172    22.3555   132.0111    60.1869     2.5583     1.8594     8.4606
   594.9696    22.3593   117.3284    63.2601     2.6459     1.9113     8.1450
   595.1220    22.3704   115.7217    62.4240     2.7251     1.9455     7.9728
   595.2744    22.3803   115.6385    59.9446     2.7589     1.9464     8.0154
   595.4268    22.3859   115.8764    58.6063     2.7455     1.9185     8.1284
   595.5792    22.3994   117.5272    59.1467     2.7004     1.8730     8.3008
   595.7316    22.4103   119.3155    59.7674     2.6053     1.8117     8.6199
   595.8840    22.4241   120.1325    59.2419     2.5019     1.7310     8.9713
   596.0364    22.4346   131.8255    58.3307     2.4709     1.6753     9.3588
   596.1888    22.4412   142.0674    56.8398     2.5176     1.7007     9.7083
   596.3412    22.4556   147.5942    55.4804     2.6016     1.7638    10.0503
   596.4936    22.4654   146.2956    54.5332     2.7099     1.8238    10.4922
   596.6460    22.4777   144.3100    55.0348     2.8116     1.9230    10.8231
   596.7984    22.4867   143.5679    55.9646     2.7067     1.9340    11.0174
   596.9508    22.4931   142.3461    56.9770     2.6045     1.8738    11.0971
   597.1032    22.4960   141.2016    57.3243     2.5941     1.8304    10.9361
   597.2556    22.4947   141.7217    56.7689     2.6113     1.8726    10.7796
   597.4080    22.4897   142.4426    56.3615     2.6303     1.9085    10.5933
   597.5604    22.4746   141.3780    55.8330     2.6211     1.9203    10.3950
   597.7128    22.4545   140.0583    55.1751     2.5781     1.8852    10.1780
   597.8652    22.4302   142.0817    54.5541     2.5706     1.8622     9.9155
   598.0176    22.4024   146.1673    54.4960     2.5758     1.8830     9.6483
   598.1700    22.3748   148.6523    55.1258     2.5258     1.9215     9.3547
   598.3224    22.3383   148.8884    55.0947     2.4353     1.8789     9.0525
   598.4748    22.2929   146.4034    53.6731     2.3324     1.8054     8.7909
   598.6272    22.2460   143.1865    52.2957     2.2479     1.7546     8.5838
   598.7796    22.2197   141.3905    51.0001     2.1774     1.7332     8.4330
   598.9320    22.2071   150.0543    49.3863     2.1536     1.7395     8.5055
   599.0844    22.2365   157.6815    47.8339     2.1612     1.7379     8.6246
   599.2368    22.2904   161.3375    46.9089     2.1953     1.7668     8.7858
   599.3892    22.2784   165.1300    46.5380     2.2449     1.7988     9.1334
   599.5416    22.2131   162.8147    47.3146     2.2815     1.8264     9.4766
   599.6940    22.0735   153.6502    48.7035     2.2854     1.8276     9.9146
   599.8464    21.9155   151.1741    50.1032     2.2631     1.8099    10.2371
