~Version Information
VERS       .                                      2.0 : CWLS Log ASCII Standard -VERSION 2.0
WRAP       .                                       NO : One line per depth step
~Well Information
STRT       .M                                 66.2940 : START DEPTH
STOP       .M                               1955.9016 : STOP DEPTH
STEP       .M                                  0.1524 : STEP
NULL       .                                -999.2500 : NULL VALUE
COMP       .     W.G.S.                               : COMPANY
WELL       .     RESOLUTION 1                         : WELL
FLD        .     UNKNOWN                              : FIELD
LOC        .     UNKNOWN                              : LOCATION
CNTY       .     UNKNOWN                              : COUNTY
STAT       .     UNKNOWN                              : STATE
CTRY       .     UNKNOWN                              : COUNTRY
SRVC       .     UNKNOWN                              : SERVICE COMPANY
DATE       .     18/8/93                              : LOG DATE
UWI        .     UNKNOWN                              : UNIQUE WELL ID
API        .     UNKNOWN                              : API NUMBER
~Curve Information
#MNEMONIC   UNIT API CODE                             : CURVE DESCRIPTION
DEPT       .M    UNKNOWN                              : 1  DEPTH
CALI       .IN   UNKNOWN                              : 2  Caliper
DT         .US/F UNKNOWN                              : 3  Sonic
GR         .GAPI UNKNOWN                              : 4  Gamma Ray
LLD        .OHMM UNKNOWN                              : 5  Latero-Log Deep
LLS        .OHMM UNKNOWN                              : 6  Latero-Log Shallow
SP         .MV   UNKNOWN                              : 7  Spontaneous Potential
~Parameter Information
~Other Information
#***********************************************************
# This LAS file was created by Wiltshire Geological Services.
# The edit data contained herein are copyright property of
# Wiltshire Geological Services. The data are licensed to the
# purchasing company and subsidiaries worldwide, and are NOT
# for on-copying to third parties.  We place no restriction on
# the distribution of plots generated from the digital data.
#
# We supply the data on a 'best effort' basis.  We cannot
# control either the original data acquisition or the
# application of the data and therefore we cannot be held
# responsible for the consequences of any interpretations based
# on the data.  We urge purchasers to apply normal quality
# control procedures to the data before use for any quantitative
# interpretative procedures.
#***********************************************************
LOCN LAT:   44O 11' 16.9" S     WELL NAME: RESOLUTION 1
 LONG: 172O 38' 10.1" E
ELEVN SF: 64.3m   DATUM RT: 9.7m  STATUS: P & A
BASIN:  Canterbury  TOTAL D: 1963m  OPERATOR: BP Shell Todd
SPUD DATE: 1975   COMPLN DATE: 1975  PARTNERS:
TARGET:        LEASE:
         DRILLER:
DATA SOURCE: Log headers      RIG:

ENGINEERING DATA: HOLE AND CASING DATA:
26" hole to   ? m, 20" casing to 377m
17 1/2" hole to 1208.7m, 13 3/8" casing to 1213.3m
12 1/4" hole to 1963m TD

MUD PROPERTIES:
 at 1209m Type: FW Lignos SG: 1.20 Vis:  pH:    FL 11.0 ml
  Rm: 0.657 at 55 deg F Rmf: 0.459 at 55 deg F Rmc: 0.875 at 55 deg F
 at 1955m Type: FW Lignos SG:  Vis:  pH:    FL 5.0 ml
  Rm: 0.502 at 60 deg F Rmf: 0.393 at 56 deg F Rmc: 0.814 at 56 deg F

TEMPERATURES:
Logger's Depth         Temp                                  Log Type
         1209m              107 deg F                             DLL
         1955m              142 deg F                             DLL


~A
# ...
  1306.3728    12.5631    90.6066    54.8223     3.1495     2.8242    51.0300
  1306.5252    12.5736    91.4300    52.8276     3.1205     2.7764    50.9420
  1306.6776    12.5812    91.6201    51.0150     3.1995     2.7811    50.8615
  1306.8300    12.5827    90.4933    49.9198     3.3258     2.8989    50.6792
  1306.9824    12.5747    89.7983    48.3139     3.4644     3.0482    50.5177
  1307.1348    12.5595    88.6203    48.4563     3.5987     3.1939    50.3827
  1307.2872    12.5526    87.7457    49.7984     3.7109     3.2862    50.3744
  1307.4396    12.5437    87.5596    49.8784     3.7942     3.3315    50.4119
  1307.5920    12.5319    87.5769    48.0047     3.8550     3.3539    50.5337
  1307.7444    12.5260    87.4903    45.9673     3.8806     3.3841    50.7157
  1307.8968    12.5251    87.2335    44.8910     3.9380     3.4422    50.9214
  1308.0492    12.5273    86.6952    44.6672     3.9743     3.5398    51.0051
  1308.2016    12.5391    85.9681    43.8256     4.0243     3.6139    51.1240
  1308.3540    12.5534    85.1156    42.9343     4.0488     3.6307    51.3010
  1308.5064    12.5739    84.3579    43.6434     3.9966     3.5653    51.5192
  1308.6588    12.5797    84.7652    45.3725     3.9146     3.5163    51.7088
  1308.8112    12.5779    85.7302    47.5465     3.8665     3.4988    51.7010
  1308.9636    12.5599    86.5823    49.0631     3.8902     3.5724    51.5914
  1309.1160    12.5253    87.0914    49.6341     3.9995     3.6840    51.4568
  1309.2684    12.5165    87.1381    49.0531     4.1205     3.7654    51.2907
  1309.4208    12.5155    86.7619    47.4803     4.2152     3.8420    51.2634
  1309.5732    12.5225    86.1675    46.0830     4.3116     3.9162    51.3383
  1309.7256    12.5449    85.8772    46.1129     4.4223     3.9685    51.4019
  1309.8780    12.5784    85.6330    46.1162     4.4896     3.9988    51.4979
  1310.0304    12.5911    85.2972    45.5182     4.4930     3.9850    51.5767
  1310.1828    12.5777    85.2422    46.4426     4.4766     3.9550    51.6707
  1310.3352    12.5548    85.5968    47.2840     4.4624     3.9312    51.6821
  1310.4876    12.5313    86.0950    47.0347     4.4351     3.8886    51.6815
  1310.6400    12.5204    86.5167    46.2359     4.4010     3.8446    51.6497
  1310.7924    12.5290    86.8508    47.1468     4.3421     3.7739    51.6491
  1310.9448    12.5427    87.1347    48.0339     4.2687     3.7030    51.6015
  1311.0972    12.5558    87.5094    48.3221     4.1667     3.6339    51.5990
  1311.2496    12.5855    88.0609    49.1343     4.0596     3.5703    51.5631
  1311.4020    12.6041    88.5291    49.3633     3.9569     3.5092    51.4700
  1311.5544    12.6021    88.7237    49.3818     3.8718     3.4744    51.4424
  1311.7068    12.5611    88.9485    49.7222     3.8336     3.4455    51.4419
  1311.8592    12.5218    89.1697    50.2810     3.8236     3.4574    51.4165
  1312.0116    12.5079    89.3393    50.7677     3.8152     3.4638    51.3841
  1312.1640    12.5215    89.3797    50.4837     3.8208     3.5116    51.3207
  1312.3164    12.5479    89.1502    49.8180     3.8795     3.5642    51.2685
  1312.4688    12.5831    88.8187    49.8223     3.9805     3.6530    51.2122
  1312.6212    12.5877    88.1188    49.5120     4.0959     3.7465    51.1471
  1312.7736    12.5754    87.3190    48.5947     4.2129     3.8725    51.1244
  1312.9260    12.5546    86.5453    48.2096     4.3078     4.0132    51.0768
  1313.0784    12.5495    85.9249    46.8484     4.4080     4.1222    51.0762
  1313.2308    12.5479    85.2558    45.3815     4.5145     4.2138    51.0757
  1313.3832    12.5606    84.5912    44.4351     4.6508     4.3084    51.1250
  1313.5356    12.5777    84.1890    44.7330     4.7538     4.3529    51.2164
  1313.6880    12.5964    83.8999    45.3517     4.7826     4.3813    51.4520
  1313.8404    12.5869    83.7437    46.1999     4.7669     4.3646    51.7866
  1313.9928    12.5720    83.6559    45.7516     4.7184     4.3507    51.9834
  1314.1452    12.5578    83.7616    46.0811     4.6866     4.3665    51.7046
  1314.2976    12.5568    83.9463    47.1721     4.7147     4.3961    51.4584
  1314.4500    12.5608    84.2554    48.0738     4.7088     4.3755    51.3825
  1314.6024    12.5676    84.4938    48.0730     4.6434     4.3494    51.3040
  1314.7548    12.5747    84.6250    46.3991     4.6257     4.3753    51.2291
  1314.9072    12.5799    84.5941    43.4305     4.6424     4.4197    51.2067
  1315.0596    12.5847    84.1686    40.2940     4.7061     4.4949    51.1479
  1315.2120    12.5982    83.4919    38.1965     4.7805     4.6120    51.1473
  1315.3644    12.6043    82.7432    38.5412     4.8494     4.6953    51.1468
  1315.5168    12.6044    82.3373    37.5761     4.7847     4.6206    51.2064
  1315.6692    12.5972    82.2576    36.5087     4.6877     4.5236    51.2323
  1315.8216    12.5835    82.4818    36.2703     4.6223     4.4593    51.2708
  1315.9740    12.5670    82.4187    35.6905     4.6323     4.3731    51.3017
  1316.1264    12.5579    81.9703    34.8441     4.7043     4.3513    51.3011
  1316.2788    12.5522    81.5448    35.1146     4.7220     4.4748    51.3006
  1316.4312    12.5512    81.6574    36.0510     4.6640     4.4472    51.2687
  1316.5836    12.5503    82.0743    36.6846     4.6531     4.3795    51.2995
  1316.7360    12.5508    82.3909    37.0169     4.6421     4.3314    51.2983
  1316.8884    12.5610    82.6177    36.8172     4.6542     4.3066    51.2671
  1317.0408    12.5770    82.6869    36.3328     4.7230     4.3596    51.2027
  1317.1932    12.5887    82.5253    36.2338     4.8000     4.4339    51.1405
  1317.3456    12.5869    82.3407    36.7425     4.8671     4.4613    51.2047
  1317.4980    12.5731    82.2595    37.5585     4.9132     4.4756    51.3214
  1317.6504    12.5670    82.3955    38.4103     4.9314     4.4594    51.4146
  1317.8028    12.5730    82.5522    38.8986     4.9092     4.4383    51.5515
  1317.9552    12.5809    82.7297    40.2962     4.8680     4.3785    51.6244
  1318.1076    12.5850    83.0521    42.2737     4.7879     4.2820    51.6239
  1318.2600    12.5928    83.5630    43.1195     4.6596     4.1714    51.5461
  1318.4124    12.6029    84.1833    44.0275     4.5268     4.0531    51.3791
  1318.5648    12.5987    84.8646    45.4486     4.4203     3.9372    51.2952
  1318.7172    12.5898    85.5537    47.3669     4.3084     3.8667    51.3617
  1318.8696    12.5727    86.1696    48.8283     4.2087     3.8120    51.5274
  1319.0220    12.5631    86.6547    49.2495     4.1376     3.7406    51.5423
  1319.1744    12.5660    87.0299    50.0011     4.0943     3.6696    51.4329
  1319.3268    12.5899    87.5713    51.2672     3.9980     3.5840    51.3460
  1319.4792    12.6172    88.2815    52.3174     3.8862     3.5136    51.2896
  1319.6316    12.6390    89.1253    52.5929     3.8024     3.4727    51.3206
  1319.7840    12.6296    89.8052    53.0266     3.7456     3.4491    51.3356
  1319.9364    12.6054    90.1991    54.0250     3.7050     3.4293    51.3351
  1320.0888    12.5821    90.4538    53.8032     3.6725     3.4009    51.3421
  1320.2412    12.5680    90.6080    52.9216     3.6633     3.3815    51.4342
  1320.3936    12.5791    90.4434    52.0488     3.6632     3.3666    51.5848
  1320.5460    12.6011    89.8501    51.2781     3.6702     3.3603    51.7358
  1320.6984    12.6225    89.0423    50.4379     3.6981     3.3727    51.8965
  1320.8508    12.6171    88.0005    49.5634     3.7553     3.3622    52.0447
  1321.0032    12.5932    87.4046    48.8002     3.7827     3.2833    52.1958
  1321.1556    12.5744    87.8476    48.3934     3.6665     3.1827    52.2881
  1321.3080    12.5643    88.5587    48.7016     3.4816     3.0879    52.2155
  1321.4604    12.5667    89.2595    49.3732     3.3346     3.0758    52.0592
  1321.6128    12.5973    89.9262    50.5110     3.4339     3.1318    52.3793
  1321.7652    12.6399    90.5865    51.9258     3.4519     3.1890    52.2347
  1321.9176    12.6697    91.1978    50.8326     3.4898     3.2535    52.1357
