~Version Information
VERS       .                                      2.0 : CWLS Log ASCII Standard -VERSION 2.0
WRAP       .                                       NO : One line per depth step
~Well Information
STRT       .M                                 66.2940 : START DEPTH
STOP       .M                               1955.9016 : STOP DEPTH
STEP       .M                                  0.1524 : STEP
NULL       .                                -999.2500 : NULL VALUE
COMP       .     W.G.S.                               : COMPANY
WELL       .     RESOLUTION 1                         : WELL
FLD        .     UNKNOWN                              : FIELD
LOC        .     UNKNOWN                              : LOCATION
CNTY       .     UNKNOWN                              : COUNTY
STAT       .     UNKNOWN                              : STATE
CTRY       .     UNKNOWN                              : COUNTRY
SRVC       .     UNKNOWN                              : SERVICE COMPANY
DATE       .     18/8/93                              : LOG DATE
UWI        .     UNKNOWN                              : UNIQUE WELL ID
API        .     UNKNOWN                              : API NUMBER
~Curve Information
#MNEMONIC   UNIT API CODE                             : CURVE DESCRIPTION
DEPT       .M    UNKNOWN                              : 1  DEPTH
CALI       .IN   UNKNOWN                              : 2  Caliper
DT         .US/F UNKNOWN                              : 3  Sonic
GR         .GAPI UNKNOWN                              : 4  Gamma Ray
LLD        .OHMM UNKNOWN                              : 5  Latero-Log Deep
LLS        .OHMM UNKNOWN                              : 6  Latero-Log Shallow
SP         .MV   UNKNOWN                              : 7  Spontaneous Potential
~Parameter Information
~Other Information
#***********************************************************
# This LAS file was created by Wiltshire Geological Services.
# The edit data contained herein are copyright property of
# Wiltshire Geological Services. The data are licensed to the
# purchasing company and subsidiaries worldwide, and are NOT
# for on-copying to third parties.  We place no restriction on
# the distribution of plots generated from the digital data.
#
# We supply the data on a 'best effort' basis.  We cannot
# control either the original data acquisition or the
# application of the data and therefore we cannot be held
# responsible for the consequences of any interpretations based
# on the data.  We urge purchasers to apply normal quality
# control procedures to the data before use for any quantitative
# interpretative procedures.
#***********************************************************
LOCN LAT:   44O 11' 16.9" S     WELL NAME: RESOLUTION 1
 LONG: 172O 38' 10.1" E
ELEVN SF: 64.3m   DATUM RT: 9.7m  STATUS: P & A
BASIN:  Canterbury  TOTAL D: 1963m  OPERATOR: BP Shell Todd
SPUD DATE: 1975   COMPLN DATE: 1975  PARTNERS:
TARGET:        LEASE:
         DRILLER:
DATA SOURCE: Log headers      RIG:

ENGINEERING DATA: HOLE AND CASING DATA:
26" hole to   ? m, 20" casing to 377m
17 1/2" hole to 1208.7m, 13 3/8" casing to 1213.3m
12 1/4" hole to 1963m TD

MUD PROPERTIES:
 at 1209m Type: FW Lignos SG: 1.20 Vis:  pH:    FL 11.0 ml
  Rm: 0.657 at 55 deg F Rmf: 0.459 at 55 deg F Rmc: 0.875 at 55 deg F
 at 1955m Type: FW Lignos SG:  Vis:  pH:    FL 5.0 ml
  Rm: 0.502 at 60 deg F Rmf: 0.393 at 56 deg F Rmc: 0.814 at 56 deg F

TEMPERATURES:
Logger's Depth         Temp                                  Log Type
         1209m              107 deg F                             DLL
         1955m              142 deg F                             DLL


~A
# ...
   788.3652    18.3658   132.9758    59.7156     1.8098     1.6359    40.0000
   788.5176    18.4316   133.3757    61.3079     1.8022     1.6408    40.0000
   788.6700    18.4632   133.6380    61.3907     1.7910     1.6415    40.0000
   788.8224    18.4698   133.5633    60.4424     1.7774     1.6351    40.0000
   788.9748    18.4516   133.4420    58.9973     1.7606     1.6274    40.0000
   789.1272    18.4181   133.2171    58.1938     1.7450     1.6112    40.0000
   789.2796    18.3760   133.0476    58.3127     1.7245     1.5918    40.0000
   789.4320    18.3440   133.0593    58.9746     1.7114     1.5774    40.0000
   789.5844    18.2980   132.9709    59.3549     1.7045     1.5644    40.0000
   789.7368    18.2460   132.9608    59.6590     1.7089     1.5634    40.0000
   789.8892    18.1971   132.6351    60.3150     1.7110     1.5726    40.0000
   790.0416    18.1506   132.3950    60.9213     1.7137     1.5806    40.0000
   790.1940    18.1246   132.1673    60.1698     1.7126     1.5806    40.0000
   790.3464    18.1168   132.2343    59.2912     1.7078     1.5835    40.0000
   790.4988    18.1384   132.8499    58.2745     1.7068     1.5778    40.0000
   790.6512    18.1451   133.4794    57.4253     1.7088     1.5768    40.0000
   790.8036    18.1572   133.8182    57.0845     1.7085     1.5781    20.2159
   790.9560    18.1645   133.8660    58.0876     1.7037     1.5771    20.2339
   791.1084    18.1654   134.1306    59.1318     1.7011     1.5795    20.2431
   791.2608    18.1688   134.4528    59.5014     1.6991     1.5677    19.9612
   791.4132    18.1749   134.4669    60.1500     1.6946     1.5488    19.5117
   791.5656    18.1942   134.1638    61.2879     1.6807     1.5316    19.1597
   791.7180    18.2369   134.0292    61.6933     1.6739     1.5219    18.8861
   791.8704    18.3109   133.8846    60.8071     1.6777     1.5316    18.6978
   792.0228    18.4482   133.8737    61.1329     1.6853     1.5386    18.6299
   792.1752    18.6650   133.9340    61.1201     1.6822     1.5236    18.5434
   792.3276    19.0399   134.4203    59.9090     1.6608     1.4999    18.5198
   792.4800    19.6328   134.9945    59.0636     1.6300     1.4655    18.5796
   792.6324    20.8988   135.8393    58.0649     1.5903     1.4234    18.9239
   792.7848    21.3373   137.4213    57.1042     1.5422     1.3883    19.2751
   792.9372    20.5662   139.3439    56.2265     1.4857     1.3616    19.7177
   793.0896    19.5565   141.5475    56.1065     1.4563     1.3378    20.1661
   793.2420    19.0505   143.5863    56.5283     1.4467     1.3239    20.5801
   793.3944    18.9656   144.6540    57.2506     1.4602     1.3479    20.9432
   793.5468    19.1300   141.5300    58.1682     1.4945     1.3677    20.9774
   793.6992    19.3125   139.5430    59.0127     1.5237     1.3896    20.6061
   793.8516    19.4868   137.7399    59.3552     1.5541     1.4067    20.3828
   794.0040    19.6131   135.2962    60.0235     1.5849     1.4232    20.3361
   794.1564    19.2849   134.2857    61.2611     1.6104     1.4414    20.3515
   794.3088    18.6935   134.1646    62.6730     1.6291     1.4606    20.4354
   794.4612    18.3073   135.1288    64.0982     1.6326     1.4715    20.4773
   794.6136    18.0594   136.5624    65.0089     1.6291     1.4800    20.4875
   794.7660    17.9101   138.4896    65.2489     1.6212     1.4804    20.3207
   794.9184    17.8724   138.2335    64.7921     1.6053     1.4744    20.0066
   795.0708    17.8578   137.2159    63.2837     1.5946     1.4563    19.5671
   795.2232    17.8419   136.2377    61.6055     1.5857     1.4458    19.1272
   795.3756    17.8358   135.9683    60.6269     1.5982     1.4637    18.7310
   795.5280    17.8293   135.9571    61.0723     1.6108     1.5032    18.4551
   795.6804    17.8235   135.9692    60.8834     1.6272     1.5040    18.3837
   795.8328    17.8275   136.0496    60.9007     1.6469     1.4941    18.7969
   795.9852    17.8292   136.1616    61.0422     1.6489     1.4868    19.1150
   796.1376    17.8346   136.1514    60.8935     1.6425     1.4754    19.4125
   796.2900    17.8584   136.2812    59.7252     1.6433     1.4660    19.6726
   796.4424    17.8784   136.4361    58.3924     1.6399     1.4638    19.9899
   796.5948    17.8942   136.4258    56.7189     1.6357     1.4458    20.3889
   796.7472    17.8792   136.2647    54.8573     1.6263     1.4286    20.6732
   796.8996    17.8540   135.8499    53.7129     1.6125     1.4219    20.6969
   797.0520    17.8504   135.3587    53.4588     1.6053     1.4131    20.3879
   797.2044    17.8573   135.1335    53.8689     1.6043     1.4076    20.0451
   797.3568    17.8974   135.3403    55.2718     1.6035     1.4117    19.7481
   797.5092    17.9427   135.9005    56.5198     1.6028     1.4155    19.4866
   797.6616    17.9815   136.7301    57.1547     1.5951     1.4200    19.2672
   797.8140    18.0396   137.5412    55.5204     1.5822     1.4162    19.0987
   797.9664    18.1373   138.2851    53.7767     1.5559     1.4060    19.0290
   798.1188    18.2505   138.5594    52.4714     1.5249     1.3917    19.1612
   798.2712    18.4177   138.5348    50.9087     1.4885     1.3733    19.3456
   798.4236    18.5918   138.3632    49.2523     1.4523     1.3497    19.3979
   798.5760    18.7724   138.1078    48.8137     1.4149     1.3198    19.1857
   798.7284    18.9212   137.7904    48.8336     1.3949     1.2831    18.8467
   798.8808    18.9563   137.4949    48.2636     1.3824     1.2451    18.5804
   799.0332    18.7311   137.3835    47.7474     1.3821     1.2282    18.4385
   799.1856    18.6233   137.4648    47.7727     1.3773     1.2272    18.5484
   799.3380    18.5425   137.5605    48.5880     1.3491     1.2086    18.6353
   799.4904    18.4691   137.6299    48.3493     1.3154     1.1688    18.7253
   799.6428    18.3985   137.3844    47.3617     1.2961     1.1267    18.8674
   799.7952    18.3212   137.1613    46.8548     1.2812     1.0926    19.0456
   799.9476    18.3026   138.0208    46.3050     1.2616     1.0755    19.1240
   800.1000    18.3523   138.9510    45.7735     1.2475     1.0716    19.1631
   800.2524    18.3937   139.8564    45.7015     1.2397     1.0679    19.1906
   800.4048    18.2769   140.6349    46.5843     1.2318     1.0630    19.1545
   800.5572    18.2293   141.2242    47.4948     1.2283     1.0568    18.9293
   800.7096    18.2482   141.4811    47.4292     1.2319     1.0569    18.7225
   800.8620    18.2176   141.5304    46.7078     1.2448     1.0599    18.5748
   801.0144    18.2379   140.9051    46.2259     1.2518     1.0652    18.3362
   801.1668    18.3407   140.2642    47.1245     1.2614     1.0721    18.1060
   801.3192    18.3924   140.8717    47.0481     1.2651     1.0784    17.8926
   801.4716    18.4127   141.6622    46.1674     1.2600     1.0824    17.8337
   801.6240    18.4284   142.4222    45.2804     1.2468     1.0758    18.0389
   801.7764    18.3935   142.6919    44.5572     1.2401     1.0642    18.3671
   801.9288    18.3423   141.6554    43.9923     1.2439     1.0536    18.6431
   802.0812    18.3327   141.1069    43.6328     1.2463     1.0508    18.9894
   802.2336    18.4463   140.7180    43.3201     1.2636     1.0547    19.3923
   802.3860    18.8184   140.3098    43.0986     1.2870     1.0669    19.8434
   802.5384    19.0743   139.6091    43.1118     1.2975     1.0786    20.3727
   802.6908    19.4239   138.6464    43.1086     1.2985     1.0882    20.9354
   802.8432    19.6498   137.5862    42.6160     1.2906     1.0910    21.5808
   802.9956    19.9200   138.2477    41.8583     1.2855     1.0913    22.3320
   803.1480    20.0562   139.2366    42.3234     1.2830     1.0919    23.0294
   803.3004    20.3013   139.6854    43.6827     1.2759     1.0913    23.6267
   803.4528    20.5625   140.8352    44.5788     1.2713     1.0871    24.1629
   803.6052    20.8088   141.5424    43.9366     1.2668     1.0812    24.2987
   803.7576    21.0688   143.2730    42.9854     1.2582     1.0746    23.7874
   803.9100    21.0694   142.8449    42.6784     1.2547     1.0684    22.8368
